     3.04           OBSERVATION DATA    M                   RINEX VERSION / TYPE
sbf2rin-15.9.0                          20240624 104205 UTC PGM / RUN BY / DATE 
SEPT                                                        MARKER NAME         
Unknown                                                     MARKER NUMBER       
Unknown             Unknown                                 OBSERVER / AGENCY   
3604480             SEPT MOSAIC-X5      4.14.4              REC # / TYPE / VERS 
Unknown             Unknown                                 ANT # / TYPE        
 -3817680.9841  3562840.0688  3650158.4543                  APPROX POSITION XYZ 
        0.0000        0.0000        0.0000                  ANTENNA: DELTA H/E/N
G   17 X1  C1C L1C D1C S1C C2W L2W D2W S2W C2L L2L D2L S2L  SYS / # / OBS TYPES 
       C5Q L5Q D5Q S5Q                                      SYS / # / OBS TYPES 
E   13 X1  C1C L1C D1C S1C C5Q L5Q D5Q S5Q C7Q L7Q D7Q S7Q  SYS / # / OBS TYPES 
R    9 X1  C1C L1C D1C S1C C2C L2C D2C S2C                  SYS / # / OBS TYPES 
C   13 X1  C2I L2I D2I S2I C7I L7I D7I S7I C6I L6I D6I S6I  SYS / # / OBS TYPES 
J   13 X1  C1C L1C D1C S1C C2L L2L D2L S2L C5Q L5Q D5Q S5Q  SYS / # / OBS TYPES 
SEPTENTRIO RECEIVERS OUTPUT ALIGNED CARRIER PHASES.         COMMENT             
NO FURTHER PHASE SHIFT APPLIED IN THE RINEX ENCODER.        COMMENT             
G L1C                                                       SYS / PHASE SHIFT   
G L2W                                                       SYS / PHASE SHIFT   
G L2L  0.00000                                              SYS / PHASE SHIFT   
G L5Q  0.00000                                              SYS / PHASE SHIFT   
E L1C  0.00000                                              SYS / PHASE SHIFT   
E L5Q  0.00000                                              SYS / PHASE SHIFT   
E L7Q  0.00000                                              SYS / PHASE SHIFT   
R L1C                                                       SYS / PHASE SHIFT   
R L2C                                                       SYS / PHASE SHIFT   
C L2I                                                       SYS / PHASE SHIFT   
C L7I                                                       SYS / PHASE SHIFT   
C L6I                                                       SYS / PHASE SHIFT   
J L1C                                                       SYS / PHASE SHIFT   
J L2L  0.00000                                              SYS / PHASE SHIFT   
J L5Q  0.00000                                              SYS / PHASE SHIFT   
     1.000                                                  INTERVAL            
  2024     6    24     8    20    0.0000000     GPS         TIME OF FIRST OBS   
  2024     6    24     8    25    0.0000000     GPS         TIME OF LAST OBS    
    58                                                      # OF SATELLITES     
 C1C    0.000 C2C    0.000                                  GLONASS COD/PHS/BIS 
DBHZ                                                        SIGNAL STRENGTH UNIT
    18                                                      LEAP SECONDS        
  8 R01  1 R02 -4 R03  5 R11  0 R12 -1 R17  4 R18 -3 R24  2 GLONASS SLOT / FRQ #
                                                            END OF HEADER       
> 2024 06 24 08 20  0.0000000  0 57
C01         9.000    36842422.530 7 191848164.08007       161.587 7        44.438    36842420.234 7 148349163.59707       124.954 7        45.563    36842422.020 7 155892347.72107       131.375 7        46.750
C02        60.000    39115623.559 6 203685328.90506       210.705 6        37.063    39115622.555 6 157502405.03206       162.926 6        40.594    39115624.645 6 165511012.01606       171.073 6        40.406
C03        10.000    37529162.330 7 195424197.82907       172.632 7        44.219    37529157.793 7 151114368.47807       133.590 7        42.563    37529159.575 7 158798157.39407       140.215 7        45.969
C04        14.000    37744230.862 7 196544115.83007       146.689 7        42.906    37744226.432 7 151980359.29807       113.512 7        43.188    37744227.601 7 159708179.77907       119.240 7        43.125
C05        58.000    41807982.526 6 217705127.56306       214.613 6        36.219    41807986.351 6 168343445.00506       165.924 6        38.594    41807985.754 6 176903272.08206       174.373 6        41.063
C06        45.000    39081607.776 5 203508205.74205      1504.655 5        35.594    39081607.387 6 157365488.07106      1163.603 6        36.281    39081606.001 6 165367106.15306      1222.783 6        40.656
C07        44.000    41327047.131 6 215200683.63206     -1266.032 6        38.250    41327054.641 6 166406798.34206      -979.137 6        38.563    41327049.224 6 174868153.28406     -1028.724 6        39.688
C08        40.000    36910378.559 7 192202035.04207       886.625 7        43.250    36910371.379 7 148622779.44407       685.638 7        44.094    36910371.066 7 156179866.24207       720.529 7        47.000
C09        49.000    40570679.102 4 211262192.77104      1402.090 4        28.938    40570686.586 5 163361363.87205      1083.961 5        32.125    40570681.729 5 171667861.86105      1138.989 5        31.469
C10        59.000    40832131.248 5 212623557.69705     -1394.546 5        33.000    40832141.767 6 164414017.59906     -1078.177 6        37.094    40832136.137 6 172774037.60006     -1132.887 6        37.781
C13        42.000    37381472.042 7 194655140.73207       936.443 7        43.219    37381474.577 7 150519716.26107       724.082 7        42.656    37381472.807 7 158173253.23207       760.881 7        47.000
C16        41.000    39146704.038 6 203847190.07006      1448.962 6        39.813    39146707.835 6 157627612.22906      1120.110 6        38.688    39146704.510 6 165642559.67206      1177.142 6        36.781
C23        55.000    24656801.108 7 128394552.28707      2905.753 7        44.313                                                                    24656796.061 7 104331121.56907      2361.109 7        46.219
C24        48.000    26188915.647 6 136372553.45406     -1616.596 6        40.375                                                                    26188914.708 7 110813864.51607     -1313.657 7        42.781
C25        23.000    23742500.558 7 123633472.13607       746.725 7        45.750                                                                    23742499.743 7 100462337.16607       606.760 7        47.906
C27        16.000    23658534.210 7 123196160.78507     -2236.376 7        46.281                                                                    23658535.423 7 100106963.33007     -1817.288 7        47.969
C28        46.000    26016015.275 5 135472105.86405     -3055.497 5        33.688                                                                    26016020.502 6 110082167.30706     -2482.775 6        38.250
C30        22.000    24110516.118 7 125549787.56707       126.059 7        44.688                                                                    24110518.075 7 102019499.27107       102.385 7        47.563
C32        50.000    23289841.559 8 121276346.15708      1452.397 8        48.375                                                                    23289841.969 8  98546976.80808      1180.132 8        50.469
C33        51.000    26043362.360 7 135614574.23907     -1938.831 7        42.500                                                                    26043376.841 7 110197995.27707     -1575.630 7        42.719
C38         2.000    36219944.485 8 188606760.97108       685.743 8        48.188                                                                    36219941.632 8 153258430.68208       557.213 8        51.531
C39        19.000    38207992.905 7 198959079.22207      1388.078 7        44.688                                                                    38207991.437 7 161670556.79707      1127.851 7        47.063
C40        27.000    41387570.805 5 215515801.84705     -1520.758 5        32.750                                                                    41387582.562 5 175124235.07505     -1235.890 5        31.531
C41        30.000    22833506.988 8 118900055.51608      -675.587 8        48.969                                                                    22833511.575 8  96616053.47408      -548.969 8        52.438
C59        43.000    37061069.214 7 192986715.78607       190.052 7        46.094                                                                    37061055.736 8 156817458.70808       154.403 8        49.406
C60        47.000    39644156.293 6 206437527.84106       181.819 6        41.375                                                                    39644142.435 7 167747343.69307       147.762 7        42.844
E04        20.000    24647457.010 7 129523292.34507      1345.146 7        46.031    24647456.721 7  96721958.62207      1004.486 7        45.313    24647454.204 7  99245128.65707      1030.653 7        46.969
E10        17.000    24070278.579 7 126490173.76007       821.573 7        47.281    24070277.453 7  94456948.61307       613.540 7        44.844    24070275.801 7  96921034.35207       629.500 7        47.938
E11        12.000    24654283.565 6 129559148.87606      2159.371 6        41.656    24654279.879 6  96748728.65006      1612.528 6        39.063    24654278.395 7  99272603.25907      1654.626 7        42.094
E12        25.000    23883495.864 7 125508611.21907      -600.821 7        42.813    23883492.646 7  93723949.12807      -448.743 7        42.438    23883491.082 7  96168913.56607      -460.331 7        45.594
E19        29.000    23978187.708 7 126006223.96607     -1106.311 7        42.313    23978185.093 6  94095546.27606      -826.169 6        39.750    23978183.326 7  96550205.44707      -847.729 7        42.438
E21        38.000    28430930.646 6 149405551.53506      2285.857 6        36.938    28430937.396 5 111569116.72305      1707.058 5        32.969    28430934.834 6 114479606.79806      1751.325 6        36.781
E27        35.000    28828716.706 6 151495931.59906       941.390 6        38.781    28828720.894 5 113130092.73405       703.048 5        35.500    28828718.043 6 116081303.20506       721.310 6        38.344
E33        21.000    26286221.126 6 138134977.47606     -2762.463 6        40.625    26286225.179 6 103152729.22106     -2063.003 6        39.688    26286222.645 7 105843663.31607     -2116.828 7        42.625
G05         5.000    20590792.555 7 108205345.40907      -105.331 7        46.938    20590787.352 8  84315832.84508       -82.076 8        49.531    20590787.733 7  84315830.84607       -82.113 7        45.938
G07         7.000    26127502.600 4 137300927.44804     -2796.587 4        29.875    26127500.231 3 106987715.09203     -2179.151 3        20.781    26127501.037 4 106987739.15204     -2179.565 4        29.875
G11        11.000    23573631.604 6 123880211.05106     -3400.064 6        40.938    23573631.921 4  96530004.53604     -2649.400 4        27.406    23573631.807 6  96530002.51306     -2649.255 6        41.313    23573637.420 6  92507938.86706     -2538.992 6        41.125
G13        13.000    20102767.198 7 105640763.82007      -794.792 7        47.063    20102760.962 6  82317456.05306      -619.319 6        39.656
G14        31.000    25191787.270 6 132383749.40006      1874.110 6        36.469    25191788.056 3 103156176.24703      1460.335 3        20.875    25191788.781 6 103156182.24206      1460.358 6        39.594    25191793.508 6  98858023.04106      1399.680 6        38.563
G15        15.000    20664819.743 8 108594390.09708      1478.897 8        48.094    20664815.087 8  84619007.01608      1152.387 8        48.469    20664814.817 7  84619007.02007      1152.386 7        44.375
G18        39.000    23166110.669 7 121738775.56707      3042.348 7        43.406    23166107.114 5  94861395.57205      2370.656 5        31.063    23166108.111 7  94861390.58207      2370.662 7        42.063    23166112.426 6  90908856.18006      2271.935 6        41.969
G20         4.000    21276559.872 7 111809054.73807     -1362.500 7        46.219    21276554.979 6  87123911.57406     -1061.685 6        37.156
G22        34.000    25360819.671 5 133272012.51005      2158.654 5        32.688    25360821.974 1 103848335.40101      1682.051 1        11.313
G24         6.000    23721595.777 5 124657855.82405      4100.793 5        35.750    23721599.313 4  97136029.32604      3195.408 4        28.031    23721598.730 5  97136024.34905      3195.258 5        34.875    23721600.960 5  93088705.00705      3062.481 5        35.000
G29         3.000    24109858.185 6 126698110.78906     -2031.824 6        41.688    24109858.848 6  98725779.19706     -1583.236 6        36.719    24109859.406 6  98725782.20806     -1583.346 6        37.969
G30         1.000    23408126.844 6 123010526.80506     -2117.247 6        41.063    23408125.698 6  95852347.79906     -1649.800 6        38.281    23408125.551 6  95852346.80806     -1649.851 6        38.969    23408126.324 7  91858505.52007     -1581.125 7        42.375
J02        54.000    37948072.456 6 199418508.89806       354.030 6        38.094    37948080.925 6 155391102.77906       275.877 6        38.031    37948085.762 6 148916499.45206       264.399 6        38.250
J03        26.000    37207193.580 7 195525113.40507       401.736 7        45.094    37207191.138 7 152357213.19507       313.044 7        45.031    37207193.470 7 146009007.31207       299.953 7        44.188
J07        57.000    37285975.077 6 195939122.83306       176.385 6        37.781    37285972.613 7 152679821.10607       137.531 7        44.125    37285975.085 7 146318178.43407       131.722 7        44.313
R01         8.000    21491449.492 7 114884091.44007     -1823.522 7        45.875    21491449.196 6  89354283.71306     -1418.222 6        41.344
R02        24.000    20341599.029 8 108546685.74408       270.932 8        50.844    20341598.795 8  84425205.41708       210.681 8        48.156
R03        33.000    22724244.207 7 121644762.24507      2309.458 7        45.156    22724243.628 7  94612654.51807      1796.276 7        43.094
R11        37.000    22279803.324 7 119056559.64907        51.634 7        46.844    22279803.474 7  92599562.13807        40.165 7        46.875
R12        36.000    22286748.037 7 119051989.12607      3422.209 7        46.406    22286751.929 7  92596135.98407      2661.648 7        44.969
R17        32.000    20112231.250 8 107624606.93008      -570.264 8        51.188    20112228.883 8  83708018.26808      -443.548 8        48.406
R18        56.000    22127522.137 7 118118252.05507      2962.192 7        46.125    22127523.545 7  91869768.92607      2303.942 7        45.531
R24        18.000    21870917.518 8 116953563.42708     -3887.236 8        48.156    21870919.333 7  90963861.39207     -3023.306 7        42.969
> 2024 06 24 08 20  1.0000000  0 57
C01         9.000    36842391.470 7 191848002.48607       161.609 7        44.313    36842389.232 7 148349038.64107       124.975 7        44.625    36842390.987 7 155892216.42607       131.275 7        46.719
C02        60.000    39115583.230 6 203685118.22406       210.800 6        36.906    39115582.060 6 157502242.13506       162.985 6        39.969    39115584.150 6 165510840.83306       171.163 6        40.469
C03        10.000    37529129.097 7 195424025.17907       172.842 7        44.375    37529124.681 6 151114234.98706       133.562 6        41.875    37529126.467 7 158798017.11607       140.281 7        46.000
C04        14.000    37744202.588 7 196543969.05407       146.799 7        43.125    37744198.337 7 151980245.80107       113.551 7        42.438    37744199.372 7 159708060.51407       119.273 7        43.156
C05        58.000    41807941.154 6 217704912.88706       214.661 6        36.344    41807945.199 6 168343279.00106       166.046 6        37.781    41807944.521 6 176903097.63806       174.414 6        41.188
C06        45.000    39081318.893 5 203506701.05405      1504.875 5        35.969    39081318.419 5 157364324.54805      1163.652 5        35.656    39081317.064 6 165365883.46906      1222.681 6        40.656
C07        44.000    41327290.245 6 215201949.60406     -1265.949 6        38.219    41327297.841 6 166407777.23506      -978.774 6        37.750    41327292.369 6 174869181.97506     -1028.700 6        39.906
C08        40.000    36910208.173 7 192201148.34207       886.712 7        43.281    36910201.106 7 148622093.79507       685.723 7        43.344    36910200.778 7 156179145.73007       720.550 7        46.938
C09        49.000    40570409.859 4 211260790.91404      1401.562 4        29.188    40570417.685 5 163360279.83505      1084.074 5        31.281    40570412.614 5 171666722.66905      1139.308 5        31.219
C10        59.000    40832398.871 5 212624951.81405     -1393.922 5        32.969    40832409.617 6 164415095.62406     -1077.896 6        36.313    40832403.951 6 172775170.44906     -1132.893 6        37.781
C13        42.000    37381292.207 7 194654204.26307       936.466 7        43.125    37381294.766 7 150518992.13007       724.127 7        42.000    37381292.946 7 158172492.28207       760.958 7        47.094
C16        41.000    39146425.894 6 203845741.29306      1448.911 6        39.750    39146429.718 6 157626491.94406      1120.294 6        37.969    39146426.173 6 165641382.41206      1177.372 6        37.031
C23        55.000    24656243.143 7 128391646.61607      2905.625 7        44.344                                                                    24656238.043 7 104328760.47707      2361.038 7        46.188
C24        48.000    26189226.072 6 136374170.19206     -1616.958 6        40.469                                                                    26189225.149 7 110815178.23807     -1313.866 7        43.031
C25        23.000    23742357.126 7 123632725.68107       746.221 7        45.938                                                                    23742356.406 7 100461730.62007       606.320 7        47.969
C27        16.000    23658963.741 7 123198397.36407     -2236.657 7        46.438                                                                    23658964.930 8 100108780.72908     -1817.483 8        48.000
C28        46.000    26016602.071 5 135475161.23705     -3055.215 5        33.750                                                                    26016607.234 6 110084650.04006     -2482.792 6        38.063
C30        22.000    24110491.949 7 125549661.78307       125.519 7        44.781                                                                    24110493.951 7 102019397.07207       101.964 7        47.563
C32        50.000    23289562.688 8 121274893.82308      1452.306 8        48.344                                                                    23289563.063 8  98545796.67208      1180.077 8        50.469
C33        51.000    26043734.719 7 135616513.21207     -1938.971 7        42.625                                                                    26043749.157 7 110199570.84007     -1575.427 7        42.594
C38         2.000    36219812.742 8 188606075.20108       685.781 8        48.313                                                                    36219809.935 8 153257873.44208       557.259 8        51.594
C39        19.000    38207726.316 7 198957691.20507      1387.999 7        44.813                                                                    38207724.882 7 161669428.92507      1127.836 7        47.094
C40        27.000    41387862.389 5 215517322.68405     -1520.482 5        33.625                                                                    41387874.684 5 175125470.88105     -1235.899 5        32.000
C41        30.000    22833636.636 8 118900731.10208      -675.629 8        48.969                                                                    22833641.314 8  96616602.44708      -548.972 8        52.438
C59        43.000    37061032.676 7 192986525.70907       190.135 7        46.156                                                                    37061019.198 8 156817304.25408       154.478 8        49.438
C60        47.000    39644121.352 6 206437346.00406       181.977 6        41.406                                                                    39644107.557 7 167747195.94907       147.711 7        42.844
E04        20.000    24647201.028 7 129521947.30507      1345.080 7        45.969    24647200.771 7  96720954.22007      1004.411 7        44.188    24647198.274 7  99244098.05007      1030.563 7        46.313
E10        17.000    24070122.274 7 126489352.39307       821.223 7        47.438    24070121.140 7  94456335.26607       613.175 7        43.813    24070119.523 7  96920404.99907       629.252 7        47.188
E11        12.000    24653872.643 6 129556989.61706      2159.153 6        41.625    24653869.042 6  96747116.22906      1612.251 6        38.125    24653867.548 6  99270948.77306      1654.366 6        41.469
E12        25.000    23883610.298 7 125509212.25507      -601.201 7        42.813    23883606.994 6  93724397.96106      -449.027 6        41.344    23883605.432 7  96169374.10607      -460.668 7        44.813
E19        29.000    23978398.213 7 126007330.37707     -1106.376 7        42.438    23978395.616 6  94096372.50306      -826.300 6        38.531    23978393.868 6  96551053.23106      -847.802 6        41.781
E21        38.000    28430495.636 6 149403265.70306      2285.893 6        36.906    28430502.566 5 111567409.77805      1707.182 5        32.156    28430499.927 5 114477855.33005      1751.437 5        35.969
E27        35.000    28828537.619 6 151494990.57306       940.862 6        38.656    28828541.667 5 113129390.02705       702.553 5        34.563    28828538.905 6 116080582.16506       720.961 6        37.719
E33        21.000    26286746.822 6 138137740.08606     -2762.613 6        40.469    26286750.874 6 103154792.21606     -2063.042 6        38.719    26286748.370 7 105845780.12007     -2116.823 7        42.000
G05         5.000    20590812.580 7 108205450.88807      -105.640 7        46.906    20590807.425 8  84315915.03708       -82.315 8        49.563    20590807.910 7  84315913.04307       -82.352 7        46.031
G07         7.000    26128035.674 5 137303724.39805     -2796.913 5        30.063    26128032.456 3 106989894.53803     -2179.415 3        20.125    26128032.994 4 106989918.62104     -2179.464 4        29.313
G11        11.000    23574278.634 6 123883611.19606     -3400.247 6        41.063    23574278.960 4  96532653.99204     -2649.543 4        27.563    23574278.914 6  96532651.98206     -2649.494 6        41.281    23574284.483 6  92510477.91506     -2538.977 6        40.156
G13        13.000    20102918.492 7 105641558.75707      -795.025 7        47.156    20102912.219 6  82318075.48406      -619.499 6        39.719
G14        31.000    25191430.820 6 132381875.25006      1874.152 6        36.469    25191431.390 3 103154715.86603      1460.381 3        21.000    25191431.984 6 103154721.85806      1460.262 6        39.688    25191436.782 6  98856623.53106      1399.381 6        37.375
G15        15.000    20664538.249 8 108592911.36808      1478.607 8        48.156    20664533.697 8  84617854.76308      1152.157 8        48.531    20664533.441 7  84617854.77807      1152.115 7        44.438
G18        39.000    23165531.683 7 121735733.40307      3042.012 7        43.375    23165528.209 5  94859025.05805      2370.396 5        31.156    23165529.391 7  94859020.07207      2370.380 7        42.219    23165533.554 6  90906584.45206      2271.517 6        40.813
G20         4.000    21276819.031 7 111810417.39107     -1362.804 7        46.156    21276814.284 6  87124973.38006     -1061.924 6        37.156
G22        34.000    25360409.237 5 133269854.08605      2158.016 5        32.375    25360411.215 1 103846653.51201      1681.593 1        11.031
G24         6.000    23720815.291 5 124653755.07705      4100.861 5        35.469    23720818.948 4  97132833.95404      3195.464 4        28.125    23720818.785 5  97132828.96405      3195.525 5        34.813    23720820.394 5  93085642.80805      3062.058 5        34.156
G29         3.000    24110244.917 6 126700142.83006     -2032.190 6        41.688    24110245.531 6  98727362.60006     -1583.520 6        36.750    24110245.893 6  98727365.59906     -1583.633 6        37.969
G30         1.000    23408529.650 6 123012644.33106     -2117.582 6        41.219    23408528.640 6  95853997.81806     -1650.069 6        38.344    23408528.605 6  95853996.82906     -1650.205 6        38.969    23408529.356 6  91860086.79906     -1581.361 6        41.406
J02        54.000    37948004.891 6 199418154.79006       354.298 6        38.313    37948013.674 6 155390826.86406       275.847 6        37.625    37948018.285 6 148916235.03506       264.476 6        37.156
J03        26.000    37207117.214 7 195524711.69307       401.713 7        45.156    37207114.661 7 152356900.17207       313.022 7        45.094    37207117.025 7 146008707.33707       299.960 7        43.094
J07        57.000    37285941.220 6 195938946.36006       176.530 6        37.750    37285939.056 7 152679683.62007       137.465 7        44.125    37285941.510 7 146318046.65907       131.829 7        43.156
R01         8.000    21491790.700 7 114885914.94007     -1823.497 7        45.875    21491790.312 6  89355702.00306     -1418.228 6        41.250
R02        24.000    20341548.329 8 108546414.91208       270.758 8        50.938    20341547.892 8  84424994.78108       210.541 8        48.250
R03        33.000    22723813.255 7 121642452.82307      2309.353 7        45.094    22723811.918 7  94610858.31607      1796.103 7        42.969
R11        37.000    22279794.119 7 119056508.45507        50.777 7        46.906    22279793.764 7  92599522.33107        39.493 7        46.781
R12        36.000    22286107.449 7 119048567.06207      3421.997 7        46.375    22286111.240 7  92593474.39107      2661.467 7        45.000
R17        32.000    20112337.893 8 107625177.65408      -571.157 8        51.281    20112335.489 8  83708462.17108      -444.271 8        48.469
R18        56.000    22126967.302 7 118115290.21307      2961.512 7        46.094    22126968.931 7  91867465.28607      2303.361 7        45.563
R24        18.000    21871644.659 8 116957450.81008     -3887.444 8        48.094    21871646.228 7  90966884.92707     -3023.709 7        43.063
> 2024 06 24 08 20  2.0000000  0 57
C01         9.000    36842360.401 7 191847840.76107       161.927 7        44.375    36842358.208 7 148348913.58307       125.306 7        45.188    36842359.945 7 155892085.01507       131.659 7        46.844
C02        60.000    39115542.958 6 203684907.41606       210.961 6        36.781    39115541.905 6 157502079.11306       163.203 6        40.375    39115543.638 6 165510669.50906       171.498 6        40.344
C03        10.000    37529095.828 7 195423852.41407       173.108 7        44.281    37529091.417 7 151114101.39207       133.703 7        42.219    37529093.265 7 158797876.71607       140.663 7        45.969
C04        14.000    37744174.300 7 196543822.14007       147.254 7        43.156    37744169.871 7 151980132.19807       113.754 7        42.938    37744171.156 7 159707941.13607       119.542 7        43.344
C05        58.000    41807899.908 6 217704698.07706       215.165 6        36.188    41807904.172 6 168343112.90206       166.315 6        38.375    41807903.275 6 176902923.08806       174.802 6        41.000
C06        45.000    39081029.912 5 203505196.32005      1504.978 5        35.875    39081029.561 6 157363160.98706      1163.723 6        36.031    39081028.054 6 165364660.73306      1222.948 6        40.688
C07        44.000    41327533.204 6 215203215.30606     -1265.368 6        38.406    41327540.968 6 166408755.97006      -978.592 6        38.313    41327535.439 6 174870210.47106     -1028.248 6        39.844
C08        40.000    36910037.714 7 192200261.46707       887.153 7        43.063    36910030.746 7 148621408.00907       685.971 7        43.781    36910030.468 7 156178425.06607       720.937 7        47.000
C09        49.000    40570140.376 4 211259388.93404      1402.447 4        28.781    40570148.651 5 163359195.78405      1084.304 5        31.656    40570143.364 5 171665583.46405      1139.665 5        31.750
C10        59.000    40832666.477 5 212626345.73205     -1393.761 5        32.594    40832677.584 6 164416173.47006     -1077.620 6        36.594    40832671.635 6 172776303.11206     -1132.432 6        37.656
C13        42.000    37381112.204 7 194653267.61207       936.919 7        43.313    37381114.832 7 150518267.84207       724.638 7        42.500    37381113.048 7 158171731.16707       761.411 7        46.969
C16        41.000    39146147.737 6 203844292.47406      1449.086 6        39.656    39146151.565 6 157625371.60706      1120.620 6        38.469    39146147.833 6 165640205.14406      1177.462 6        37.000
C23        55.000    24655685.063 7 128388740.97307      2905.879 7        44.281                                                                    24655680.065 7 104326399.40707      2361.245 7        46.219
C24        48.000    26189536.396 6 136375787.20706     -1617.044 6        40.750                                                                    26189535.654 7 110816492.19607     -1313.919 7        43.063
C25        23.000    23742213.755 7 123631979.59307       746.068 7        45.781                                                                    23742213.111 8 100461124.35608       606.267 8        48.031
C27        16.000    23659393.327 7 123200634.11107     -2236.604 7        46.281                                                                    23659394.459 8 100110598.26508     -1817.400 8        48.031
C28        46.000    26017188.832 5 135478216.38605     -3054.817 5        34.063                                                                    26017193.972 6 110087132.58806     -2482.393 6        38.250
C30        22.000    24110467.847 7 125549536.41207       125.455 7        44.781                                                                    24110469.902 7 102019295.19307       101.926 7        47.625
C32        50.000    23289283.815 8 121273441.46408      1452.577 8        48.344                                                                    23289284.134 8  98544616.51008      1180.367 8        50.500
C33        51.000    26044107.111 7 135618452.05807     -1938.522 7        42.344                                                                    26044121.516 7 110201146.31607     -1575.248 7        42.750
C38         2.000    36219681.004 8 188605389.30708       686.163 8        48.219                                                                    36219678.209 8 153257316.09508       557.578 8        51.594
C39        19.000    38207459.709 7 198956303.15307      1388.254 7        44.813                                                                    38207458.328 7 161668301.02207      1128.106 7        47.125
C40        27.000    41388154.281 5 215518843.26405     -1520.532 5        33.594                                                                    41388166.594 5 175126706.43505     -1235.235 5        31.875
C41        30.000    22833766.393 8 118901406.67508      -675.354 8        48.938                                                                    22833771.052 8  96617151.40408      -548.769 8        52.500
C59        43.000    37060996.076 7 192986335.50307       190.470 7        46.156                                                                    37060982.683 8 156817149.69608       154.787 8        49.500
C60        47.000    39644086.393 6 206437164.04406       182.263 6        41.313                                                                    39644072.589 7 167747048.08307       148.116 7        42.969
E04        20.000    24646945.121 7 129520602.37807      1345.030 7        46.000    24646944.873 7  96719949.88707      1004.384 7        45.000    24646942.385 7  99243067.51807      1030.602 7        46.813
E10        17.000    24069966.055 7 126488531.35207       821.075 7        47.375    24069964.912 7  94455722.14607       613.140 7        44.469    24069963.259 7  96919775.88707       629.124 7        47.688
E11        12.000    24653461.761 6 129554830.54506      2159.260 6        41.500    24653458.258 6  96745503.92506      1612.523 6        38.719    24653456.704 6  99269294.42606      1654.489 6        41.813
E12        25.000    23883724.766 7 125509813.61007      -601.340 7        42.875    23883721.458 7  93724847.02107      -448.913 7        42.156    23883719.881 7  96169834.88307      -460.779 7        45.438
E19        29.000    23978608.794 7 126008436.80607     -1106.300 7        42.375    23978606.079 6  94097198.72906      -825.950 6        39.438    23978604.447 7  96551901.00507      -847.688 7        42.219
E21        38.000    28430060.634 6 149400979.84506      2286.071 6        36.938    28430067.659 5 111565702.81005      1707.100 5        33.375    28430064.918 6 114476103.81206      1751.651 6        36.344
E27        35.000    28828358.487 6 151494049.78606       940.879 6        38.688    28828362.732 5 113128687.47505       702.501 5        35.031    28828359.988 6 116079861.28506       720.901 6        38.281
E33        21.000    26287272.558 6 138140502.73806     -2762.452 6        40.438    26287276.596 6 103156855.20606     -2062.792 6        39.500    26287274.028 7 105847896.94207     -2116.712 7        42.344
G05         5.000    20590832.663 7 108205556.59407      -105.643 7        47.031    20590827.543 8  84315997.40508       -82.317 8        49.594    20590828.100 7  84315995.41107       -82.250 7        46.063
G07         7.000    26128567.909 5 137306521.48005     -2796.755 5        30.781    26128564.736 3 106992074.07903     -2179.263 3        19.531    26128565.257 4 106992098.04004     -2178.995 4        28.438
G11        11.000    23574925.689 6 123887011.40606     -3400.042 6        41.031    23574925.999 4  96535303.50404     -2649.381 4        27.625    23574925.891 6  96535301.48406     -2649.340 6        41.219    23574931.571 6  92513017.03806     -2539.028 6        40.781
G13        13.000    20103069.791 7 105642354.00407      -795.167 7        47.125    20103063.548 6  82318695.15706      -619.610 6        39.750
G14        31.000    25191074.087 6 132380001.22506      1874.260 6        36.438    25191074.796 3 103153255.58303      1460.460 3        20.781    25191075.231 6 103153261.58206      1460.412 6        39.688    25191080.148 6  98855224.08606      1399.422 6        38.281
G15        15.000    20664256.908 8 108591432.86508      1478.605 8        48.156    20664252.347 8  84616702.68508      1152.158 8        48.531    20664252.135 7  84616702.70007      1152.116 7        44.344
G18        39.000    23164952.864 7 121732691.48507      3042.038 7        43.344    23164949.326 5  94856654.73505      2370.412 5        31.188    23164950.575 7  94856649.74107      2370.484 7        42.156    23164954.715 6  90904312.89206      2271.645 6        41.656
G20         4.000    21277078.359 7 111811780.28007     -1362.791 7        46.188    21277073.633 6  87126035.36906     -1061.914 6        37.188
G22        34.000    25359997.901 5 133267695.51505      2158.494 5        31.719    25360000.402 1 103844971.50701      1681.948 1        11.156
G24         6.000    23720034.822 5 124649654.35405      4101.101 5        35.469    23720038.605 4  97129638.59204      3195.654 4        28.250    23720038.742 5  97129633.60205      3195.921 5        34.500    23720039.877 5  93082580.59505      3062.220 5        34.813
G29         3.000    24110631.486 6 126702175.01106     -2032.013 6        41.531    24110632.260 6  98728946.11206     -1583.381 6        36.719    24110632.361 6  98728949.11006     -1583.433 6        37.875
G30         1.000    23408932.607 6 123014762.16906     -2117.860 6        41.219    23408931.650 6  95855648.08006     -1650.279 6        38.406    23408931.642 6  95855647.08206     -1650.250 6        39.219    23408932.262 7  91861668.27907     -1581.374 7        42.250
J02        54.000    37947937.424 6 199417800.49606       354.512 6        37.813    37947946.125 6 155390550.76506       276.390 6        37.594    37947950.889 6 148915970.45906       264.932 6        37.875
J03        26.000    37207040.732 7 195524309.92207       401.998 7        45.219    37207038.150 7 152356587.10407       313.255 7        45.000    37207040.511 7 146008407.30607       300.229 7        43.875
J07        57.000    37285907.610 6 195938769.78206       176.672 6        37.563    37285905.545 7 152679545.99907       137.979 7        43.906    37285907.963 7 146317914.78807       132.121 7        43.875
R01         8.000    21492131.760 7 114887738.37207     -1823.239 7        45.906    21492131.630 6  89357120.21006     -1418.017 6        41.469
R02        24.000    20341497.549 8 108546144.19008       270.909 8        50.938    20341497.105 8  84424784.21608       210.696 8        48.313
R03        33.000    22723381.966 7 121640143.42407      2309.519 7        45.031    22723380.583 7  94609062.11307      1796.313 7        42.906
R11        37.000    22279784.810 7 119056457.96707        50.288 7        46.813    22279784.219 7  92599483.06407        39.200 7        46.688
R12        36.000    22285466.820 7 119045145.22307      3421.974 7        46.406    22285470.530 7  92590812.96307      2661.520 7        44.844
R17        32.000    20112444.592 8 107625749.18008      -571.665 8        51.219    20112442.338 8  83708906.69008      -444.615 8        48.469
R18        56.000    22126412.577 7 118112328.90407      2961.258 7        46.000    22126414.247 7  91865162.03707      2303.243 7        45.531
R24        18.000    21872371.611 8 116961338.39208     -3887.467 8        48.094    21872373.312 7  90969908.58407     -3023.545 7        43.000
> 2024 06 24 08 20  3.0000000  0 57
C01         9.000    36842329.288 7 191847679.07907       161.239 7        44.313    36842327.094 7 148348788.57507       124.562 7        45.000    36842328.903 7 155891953.63207       130.994 7        46.781
C02        60.000    39115502.423 6 203684696.63206       210.118 6        36.719    39115501.432 6 157501916.12506       162.619 6        40.156    39115503.129 6 165510498.24006       170.817 6        40.500
C03        10.000    37529062.658 7 195423679.68307       172.210 7        44.250    37529058.179 7 151113967.82207       133.045 7        42.156    37529060.064 7 158797736.35407       139.986 7        45.906
C04        14.000    37744146.142 7 196543675.26007       146.424 7        43.094    37744141.699 7 151980018.63007       113.030 7        42.719    37744142.927 7 159707821.78207       118.981 7        43.375
C05        58.000    41807858.599 6 217704483.31306       214.237 6        36.125    41807862.849 6 168342946.83706       165.492 6        38.188    41807862.020 6 176902748.56506       174.161 6        41.156
C06        45.000    39080740.868 5 203503691.64805      1504.155 5        35.844    39080740.209 6 157361997.48206      1163.101 6        36.125    39080739.064 6 165363438.08706      1222.202 6        40.781
C07        44.000    41327776.570 6 215204480.96106     -1266.082 6        38.563    41327783.882 6 166409734.63706      -979.052 6        38.125    41327778.584 6 174871238.90706     -1029.009 6        40.031
C08        40.000    36909867.216 7 192199374.60707       886.382 7        43.156    36909860.489 7 148620722.23507       685.384 7        43.656    36909860.134 7 156177704.42507       720.231 7        47.031
C09        49.000    40569871.619 4 211257986.99504      1401.769 4        29.063    40569879.502 5 163358111.71105      1083.651 5        31.094    40569874.216 5 171664444.29405      1138.826 5        31.313
C10        59.000    40832934.180 5 212627739.59005     -1394.288 5        32.594    40832945.496 6 164417251.30106     -1078.299 6        36.281    40832939.356 6 172777435.73306     -1132.990 6        37.813
C13        42.000    37380932.395 7 194652330.94207       936.220 7        43.250    37380935.081 7 150517543.56707       723.830 7        42.250    37380933.143 7 158170970.05807       760.654 7        47.094
C16        41.000    39145869.394 6 203842843.76406      1448.244 6        39.594    39145873.086 6 157624251.39006      1119.901 6        38.406    39145869.586 6 165639027.96106      1176.668 6        37.156
C23        55.000    24655127.073 7 128385835.54607      2904.909 7        44.125                                                                    24655122.065 7 104324038.50907      2360.425 7        46.188
C24        48.000    26189846.952 6 136377404.65006     -1618.134 6        40.875                                                                    26189846.313 7 110817806.51407     -1314.899 7        43.125
C25        23.000    23742070.522 7 123631234.04907       744.771 7        45.844                                                                    23742069.946 8 100460518.53908       605.231 8        48.000
C27        16.000    23659822.918 7 123202871.18307     -2237.676 7        46.219                                                                    23659824.066 8 100112416.06708     -1818.367 8        48.031
C28        46.000    26017775.579 5 135481271.52105     -3055.473 5        34.000                                                                    26017780.538 6 110089615.10806     -2483.000 6        38.219
C30        22.000    24110443.901 7 125549411.60207       124.021 7        44.750                                                                    24110445.935 7 102019193.77707       100.749 7        47.594
C32        50.000    23289004.938 8 121271989.24808      1451.661 8        48.219                                                                    23289005.234 8  98543436.47008      1179.526 8        50.500
C33        51.000    26044479.334 7 135620390.95807     -1939.414 7        42.375                                                                    26044493.858 7 110202721.82407     -1575.937 7        42.844
C38         2.000    36219549.294 8 188604703.45608       685.403 8        48.219                                                                    36219546.512 8 153256758.78908       556.861 8        51.625
C39        19.000    38207193.212 7 198954915.25607      1387.338 7        44.781                                                                    38207191.788 7 161667173.24607      1127.249 7        47.063
C40        27.000    41388446.242 5 215520363.73305     -1520.890 5        34.031                                                                    41388458.685 5 175127941.92105     -1235.603 5        32.031
C41        30.000    22833896.129 8 118902082.40108      -676.284 8        48.875                                                                    22833900.803 8  96617700.48808      -549.563 8        52.469
C59        43.000    37060959.592 7 192986145.33107       189.676 7        46.063                                                                    37060946.172 8 156816995.16408       154.089 8        49.531
C60        47.000    39644051.470 6 206436982.12206       181.436 6        41.406                                                                    39644037.598 7 167746900.24607       147.550 7        42.844
E04        20.000    24646689.251 7 129519257.68407      1344.105 7        46.031    24646689.009 7  96718945.74507      1003.548 7        44.813    24646686.496 7  99242037.17907      1029.815 7        46.594
E10        17.000    24069809.876 7 126487710.79207       819.852 7        47.406    24069808.756 7  94455109.38507       612.268 7        44.375    24069807.055 7  96919147.14107       628.137 7        47.531
E11        12.000    24653051.000 6 129552671.82706      2158.160 6        41.563    24653047.430 6  96743891.89906      1611.636 6        38.594    24653045.916 6  99267640.33206      1653.592 6        41.563
E12        25.000    23883839.332 7 125510415.47207      -602.523 7        42.813    23883836.031 6  93725296.46306      -450.136 6        41.938    23883834.444 7  96170296.04507      -461.709 7        45.125
E19        29.000    23978819.384 7 126009543.41607     -1107.287 7        42.594    23978816.682 6  94098025.07006      -826.769 6        39.156    23978815.030 7  96552748.92307      -848.505 7        42.000
E21        38.000    28429625.715 6 149398694.10906      2284.983 6        37.063    28429632.659 5 111563995.94405      1706.553 5        32.906    28429629.932 6 114474352.41206      1751.023 6        36.500
E27        35.000    28828179.448 6 151493109.39806       939.743 6        38.594    28828183.819 5 113127985.23705       701.556 5        34.844    28828180.940 6 116079140.71906       719.961 6        38.125
E33        21.000    26287798.275 6 138143265.59406     -2763.434 6        40.438    26287802.286 6 103158918.38206     -2063.607 6        39.438    26287799.793 7 105850013.94407     -2117.534 7        42.156
G05         5.000    20590852.822 7 108205662.67607      -106.813 7        46.969    20590847.733 8  84316080.06508       -83.231 8        49.438    20590848.325 7  84316078.07307       -83.190 7        46.000
G07         7.000    26129100.107 5 137309318.70205     -2797.910 5        30.594    26129096.984 3 106994253.69603     -2180.144 3        18.781    26129096.691 4 106994277.65004     -2179.897 4        27.656
G11        11.000    23575572.746 6 123890411.84206     -3400.967 6        41.094    23575573.083 4  96537953.19304     -2650.105 4        27.500    23575572.832 6  96537951.18706     -2650.212 6        41.281    23575578.604 6  92515556.31806     -2539.714 6        40.594
G13        13.000    20103221.174 7 105643149.70707      -796.444 7        47.219    20103214.962 6  82319315.18706      -620.606 6        39.594
G14        31.000    25190717.355 6 132378127.47106      1873.261 6        36.500    25190718.247 3 103151795.52703      1459.689 3        20.750    25190718.673 6 103151801.52306      1459.656 6        39.594    25190723.548 6  98853824.85706      1398.785 6        38.031
G15        15.000    20663975.652 8 108589954.78508      1477.411 8        48.250    20663971.077 8  84615550.93508      1151.228 8        48.406    20663970.804 7  84615550.94307      1151.219 7        44.438
G18        39.000    23164374.034 7 121729649.99407      3040.829 7        43.344    23164370.559 5  94854284.74405      2369.477 5        31.000    23164371.732 7  94854279.75107      2369.427 7        42.281    23164375.913 6  90902041.64306      2270.605 6        41.406
G20         4.000    21277337.727 7 111813143.56507     -1363.985 7        46.219    21277333.068 6  87127097.66706     -1062.841 6        37.063
G22        34.000    25359587.404 5 133265537.10105      2157.872 5        31.219    25359589.644 1 103843289.62701      1681.455 1        11.406
G24         6.000    23719254.277 5 124645553.82205      4099.997 5        35.656    23719258.293 4  97126443.38104      3194.790 4        28.063    23719258.491 5  97126438.37805      3194.985 5        34.938    23719259.693 5  93079518.50005      3061.680 5        34.375
G29         3.000    24111018.297 6 126704207.52106     -2033.159 6        41.719    24111019.019 6  98730529.87906     -1584.276 6        36.531    24111019.385 6  98730532.90006     -1584.679 6        37.875
G30         1.000    23409335.705 6 123016880.43506     -2119.060 6        41.375    23409334.740 6  95857298.68006     -1651.216 6        38.313    23409334.770 6  95857297.69306     -1651.258 6        39.406    23409335.335 6  91863250.11906     -1582.466 6        41.969
J02        54.000    37947869.933 6 199417446.15606       353.906 6        37.750    37947878.905 6 155390274.69206       275.743 6        37.594    37947883.501 6 148915705.86806       264.223 6        37.719
J03        26.000    37206964.241 7 195523908.26607       401.107 7        45.250    37206961.678 7 152356274.11907       312.501 7        45.094    37206964.067 7 146008107.37307       299.464 7        43.688
J07        57.000    37285874.302 6 195938593.22306       176.145 6        37.344    37285871.762 7 152679408.42307       137.160 7        44.094    37285874.409 7 146317782.94807       131.428 7        43.844
R01         8.000    21492472.876 7 114889561.90407     -1824.032 7        45.750    21492472.958 6  89358538.52806     -1418.783 6        41.344
R02        24.000    20341446.874 8 108545873.72308       269.898 8        51.000    20341446.520 8  84424573.85408       209.824 8        48.281
R03        33.000    22722950.610 7 121637834.21807      2308.641 7        45.125    22722949.058 7  94607266.06607      1795.588 7        42.875
R11        37.000    22279775.404 7 119056408.36007        48.711 7        46.813    22279774.804 7  92599444.48407        37.851 7        46.750
R12        36.000    22284826.200 7 119041723.79307      3420.697 7        46.375    22284829.887 7  92588151.85007      2660.557 7        45.125
R17        32.000    20112551.476 8 107626321.68808      -573.462 8        51.313    20112549.252 8  83709351.97408      -446.061 8        48.438
R18        56.000    22125857.895 7 118109368.29307      2959.772 7        46.000    22125859.678 7  91862859.34207      2302.038 7        45.656
R24        18.000    21873098.401 7 116965226.34507     -3888.662 7        47.969    21873100.254 7  90972932.53307     -3024.425 7        42.844
> 2024 06 24 08 20  4.0000000  0 57
C01         9.000    36842298.255 7 191847517.26407       161.726 7        44.188    36842296.052 7 148348663.43207       125.123 7        45.406    36842297.839 7 155891822.13807       131.410 7        46.813
C02        60.000    39115461.776 6 203684485.73006       210.866 6        36.594    39115461.027 6 157501753.03806       163.098 6        40.625    39115462.683 6 165510326.85406       171.294 6        40.375
C03        10.000    37529029.348 7 195423506.81007       172.759 7        44.219    37529025.076 7 151113834.13607       133.691 7        42.500    37529026.871 7 158797595.87207       140.444 7        45.906
C04        14.000    37744117.788 7 196543528.24407       147.002 7        42.875    37744113.470 7 151979904.94307       113.594 7        43.156    37744114.773 7 159707702.31407       119.434 7        43.406
C05        58.000    41807817.197 6 217704268.39406       214.648 6        36.063    41807821.773 6 168342780.63206       166.218 6        38.438    41807820.796 6 176902573.92906       174.554 6        41.281
C06        45.000    39080451.943 5 203502186.92905      1504.620 5        35.406    39080451.195 6 157360833.93506      1163.504 6        36.188    39080450.138 6 165362215.37206      1222.647 6        40.594
C07        44.000    41328019.430 6 215205746.38806     -1265.506 6        38.656    41328026.836 6 166410713.10106      -978.376 6        38.813    41328021.693 6 174872267.13506     -1028.244 6        40.125
C08        40.000    36909696.686 7 192198487.57707       886.905 7        43.156    36909690.051 7 148620036.32207       685.834 7        44.094    36909689.806 7 156176983.62707       720.659 7        47.063
C09        49.000    40569602.940 4 211256585.01104      1401.862 4        28.906    40569610.267 5 163357027.59405      1084.391 5        31.906    40569604.699 5 171663305.08105      1138.919 5        31.188
C10        59.000    40833202.115 5 212629133.26005     -1394.115 5        32.563    40833213.248 6 164418328.93106     -1077.697 6        36.781    40833206.971 6 172778568.18706     -1132.590 6        37.719
C13        42.000    37380752.448 7 194651394.13307       936.807 7        43.063    37380755.163 7 150516819.15907       724.379 7        42.656    37380753.256 7 158170208.81207       761.273 7        46.969
C16        41.000    39145591.129 6 203841395.00706      1448.687 6        39.594    39145594.878 6 157623131.11406      1120.312 6        38.656    39145591.386 6 165637850.72506      1177.114 6        37.063
C23        55.000    24654569.203 7 128382930.14507      2905.259 7        44.156                                                                    24654564.147 7 104321677.62807      2360.822 7        46.344
C24        48.000    26190157.420 6 136379022.39906     -1618.127 6        40.844                                                                    26190157.069 7 110819121.05207     -1314.804 7        43.188
C25        23.000    23741927.384 7 123630488.87407       744.808 7        45.844                                                                    23741926.872 8 100459913.01908       605.260 8        48.000
C27        16.000    23660252.538 7 123205108.43307     -2237.480 7        46.281                                                                    23660253.717 8 100114234.00108     -1818.123 8        48.063
C28        46.000    26018362.091 5 135484326.39505     -3054.880 5        34.063                                                                    26018367.155 6 110092097.43206     -2482.279 6        38.531
C30        22.000    24110420.007 7 125549287.18507       124.134 7        44.625                                                                    24110422.013 7 102019092.67007       100.894 7        47.719
C32        50.000    23288726.021 8 121270536.99708      1452.126 8        48.125                                                                    23288726.319 8  98542256.38708      1179.976 8        50.531
C33        51.000    26044851.612 7 135622329.73007     -1938.864 7        42.250                                                                    26044866.126 7 110204297.22607     -1575.412 7        42.750
C38         2.000    36219417.542 8 188604017.48008       685.919 8        48.156                                                                    36219414.795 8 153256201.36908       557.357 8        51.656
C39        19.000    38206926.781 7 198953527.32407      1387.797 7        44.719                                                                    38206925.232 7 161666045.42507      1127.788 7        47.188
C40        27.000    41388738.101 5 215521883.92605     -1519.915 5        33.688                                                                    41388750.950 5 175129177.22905     -1235.257 5        32.438
C41        30.000    22834025.799 8 118902758.10708      -675.825 8        48.844                                                                    22834030.576 8  96618249.54608      -549.134 8        52.531
C59        43.000    37060923.036 7 192985955.01807       190.254 7        46.094                                                                    37060909.616 8 156816840.51908       154.600 8        49.531
C60        47.000    39644016.493 6 206436800.04506       182.025 6        41.531                                                                    39644002.630 7 167746752.30307       147.951 7        43.000
E04        20.000    24646433.449 7 129517913.09307      1344.418 7        45.969    24646433.151 7  96717941.65107      1003.971 7        45.406    24646430.679 7  99241006.89407      1030.185 7        47.000
E10        17.000    24069653.870 7 126486890.52907       820.014 7        47.469    24069652.619 7  94454496.85207       612.294 7        45.031    24069650.983 7  96918518.62807       628.300 7        47.969
E11        12.000    24652640.275 6 129550513.27506      2158.223 6        41.625    24652636.508 6  96742279.98906      1611.642 6        39.125    24652635.075 7  99265986.37307      1653.664 7        42.031
E12        25.000    23883953.961 7 125511017.65207      -602.417 7        42.813    23883950.634 7  93725746.13407      -449.833 7        42.688    23883949.020 7  96170757.45107      -461.635 7        45.563
E19        29.000    23979029.953 7 126010650.02107     -1106.693 7        42.531    23979027.345 6  94098851.44306      -826.464 6        39.531    23979025.603 7  96553596.83207      -847.923 7        42.438
E21        38.000    28429190.849 6 149396408.32106      2285.716 6        37.094    28429197.612 5 111562289.02105      1706.526 5        33.531    28429195.041 6 114472600.98206      1751.369 6        36.813
E27        35.000    28828000.401 6 151492169.26606       939.904 6        38.781    28828004.835 5 113127283.17305       701.902 5        35.844    28828002.134 6 116078420.34406       720.276 6        38.531
E33        21.000    26288324.031 6 138146028.48906     -2763.041 6        40.344    26288328.083 6 103160981.55506     -2063.143 6        39.969    26288325.596 7 105852130.94507     -2117.156 7        42.594
G05         5.000    20590873.056 7 108205768.97007      -106.560 7        47.000    20590867.958 8  84316162.89008       -83.032 8        49.438    20590868.621 7  84316160.89307       -82.946 7        46.031
G07         7.000    26129632.245 5 137312115.90605     -2797.658 5        30.875    26129629.259 2 106996433.30902     -2179.961 2        17.938    26129629.850 4 106996457.23004     -2179.274 4        27.531
G11        11.000    23576219.879 6 123893812.37106     -3400.777 6        40.938    23576220.172 4  96540602.94804     -2649.947 4        27.531    23576219.715 6  96540600.92006     -2649.826 6        41.156    23576225.600 6  92518095.65106     -2539.302 6        41.094
G13        13.000    20103372.681 7 105643945.69807      -796.295 7        47.250    20103366.424 6  82319935.44006      -620.490 6        39.594
G14        31.000    25190360.777 6 132376253.84006      1873.486 6        36.188    25190361.729 3 103150335.54303      1459.865 3        20.688    25190362.083 6 103150341.53906      1459.966 6        39.688    25190366.940 6  98852425.71606      1398.941 6        38.813
G15        15.000    20663694.427 8 108588476.92908      1477.604 8        48.219    20663689.848 8  84614399.35908      1151.379 8        48.438    20663689.566 7  84614399.36307      1151.391 7        44.344
G18        39.000    23163795.219 7 121726608.74107      3041.013 7        43.344    23163791.815 5  94851914.93305      2369.624 5        30.938    23163792.893 7  94851909.94207      2369.677 7        42.188    23163797.154 6  90899770.56606      2270.955 6        41.969
G20         4.000    21277597.197 7 111814507.07607     -1363.809 7        46.281    21277592.547 6  87128160.13806     -1062.703 6        37.031
G22        34.000    25359176.546 5 133263378.59505      2158.656 5        30.531    25359178.867 1 103841607.67401      1682.101 1        10.656
G24         6.000    23718474.053 5 124641453.24905      4100.421 5        35.313    23718477.964 4  97123248.13904      3195.131 4        28.063    23718478.740 5  97123243.17505      3194.908 5        34.844    23718479.542 5  93076456.40105      3061.973 5        35.375
G29         3.000    24111405.068 6 126706240.16406     -2032.876 6        41.625    24111405.806 6  98732113.75106     -1584.055 6        36.500    24111406.283 6  98732116.72706     -1583.900 6        37.813
G30         1.000    23409738.877 6 123018998.99106     -2118.754 6        41.469    23409737.883 6  95858949.50006     -1650.972 6        38.406    23409737.930 6  95858948.49606     -1650.999 6        39.375    23409738.496 7  91864832.14407     -1582.112 7        42.656
J02        54.000    37947802.569 6 199417091.61606       354.595 6        37.531    37947811.720 6 155389998.41906       276.201 6        37.469    37947816.054 6 148915441.11706       264.688 6        38.031
J03        26.000    37206887.807 7 195523506.54207       401.612 7        45.250    37206885.270 7 152355961.08607       312.967 7        45.063    37206887.634 7 146007807.37107       299.930 7        44.313
J07        57.000    37285840.909 6 195938416.49406       176.876 6        37.156    37285838.162 7 152679270.72507       137.646 7        44.031    37285840.812 7 146317650.98507       131.936 7        44.375
R01         8.000    21492814.101 7 114891385.37507     -1823.659 7        45.750    21492814.105 6  89359956.76606     -1418.346 6        41.688
R02        24.000    20341396.142 8 108545603.29308       270.262 8        51.031    20341395.758 8  84424363.50808       210.246 8        48.250
R03        33.000    22722519.231 7 121635525.01707      2309.092 7        45.219    22722517.973 7  94605470.01707      1796.012 7        42.875
R11        37.000    22279766.249 7 119056359.43807        48.447 7        46.813    22279765.740 7  92599406.42107        37.693 7        46.844
R12        36.000    22284185.815 7 119038302.59907      3420.858 7        46.344    22284189.580 7  92585490.92607      2660.678 7        45.156
R17        32.000    20112658.525 8 107626894.94208      -573.778 8        51.344    20112656.392 8  83709797.82608      -446.249 8        48.563
R18        56.000    22125303.443 7 118106408.21807      2959.706 7        45.906    22125305.253 7  91860557.05307      2302.009 7        45.781
R24        18.000    21873825.343 7 116969114.44207     -3888.292 7        47.844    21873827.188 7  90975956.60307     -3024.244 7        42.969
> 2024 06 24 08 20  5.0000000  0 57
C01         9.000    36842267.320 7 191847355.63707       161.272 7        44.313    36842264.992 7 148348538.47007       124.674 7        44.313    36842266.797 7 155891690.82407       130.989 7        46.813
C02        60.000    39115421.625 6 203684275.02406       210.225 6        36.688    39115420.487 6 157501590.12906       162.727 6        39.531    39115422.269 6 165510155.65406       170.875 6        40.406
C03        10.000    37528996.214 7 195423334.13307       172.207 7        44.125    37528991.923 6 151113700.62406       133.213 6        41.375    37528993.687 7 158797455.56907       140.017 7        46.031
C04        14.000    37744089.666 7 196543381.43307       146.490 7        42.938    37744085.254 7 151979791.42407       113.221 7        42.063    37744086.624 7 159707583.03207       119.053 7        43.406
C05        58.000    41807776.044 5 217704053.66205       214.348 5        35.875    41807780.594 6 168342614.61206       165.677 6        37.000    41807779.639 6 176902399.45406       174.201 6        41.125
C06        45.000    39080162.908 5 203500682.47605      1504.078 5        35.625    39080162.513 5 157359670.61305      1163.055 5        35.156    39080161.231 6 165360992.90506      1222.163 6        40.813
C07        44.000    41328262.309 6 215207011.87006     -1265.740 6        38.563    41328269.627 6 166411691.67006      -978.684 6        37.750    41328264.844 6 174873295.45406     -1028.558 6        40.563
C08        40.000    36909526.355 7 192197600.70907       886.497 7        43.156    36909519.790 7 148619350.55107       685.410 7        42.875    36909519.488 7 156176262.99207       720.370 7        47.094
C09        49.000    40569333.735 4 211255183.25004      1401.031 4        28.719    40569341.102 5 163355943.69505      1083.350 5        30.719    40569335.498 5 171662166.03905      1138.871 5        31.531
C10        59.000    40833469.847 5 212630527.03405     -1393.937 5        32.531    40833480.848 5 164419406.71305     -1078.005 5        35.594    40833474.633 6 172779700.77106     -1132.875 6        37.875
C13        42.000    37380572.514 7 194650457.46607       936.293 7        43.219    37380575.319 6 150516094.86706       723.994 6        41.625    37380573.387 7 158169447.70507       760.767 7        47.219
C16        41.000    39145312.820 6 203839946.54206      1448.114 6        39.656    39145316.741 6 157622011.07406      1119.741 6        37.719    39145313.413 6 165636673.72506      1176.783 6        37.344
C23        55.000    24654011.368 7 128380025.09907      2904.615 7        44.219                                                                    24654006.275 7 104319317.05607      2360.256 7        46.469
C24        48.000    26190468.182 6 136380640.74806     -1618.930 6        40.813                                                                    26190467.953 7 110820436.10107     -1315.495 7        43.125
C25        23.000    23741784.455 7 123629744.40707       743.873 7        45.844                                                                    23741783.910 8 100459308.08908       604.475 8        48.094
C27        16.000    23660682.271 7 123207346.17407     -2238.237 7        46.281                                                                    23660683.434 8 100116052.35908     -1818.775 8        48.188
C28        46.000    26018948.872 5 135487381.42305     -3055.259 5        34.219                                                                    26018953.804 6 110094579.88206     -2482.802 6        38.656
C30        22.000    24110396.261 7 125549163.50207       123.079 7        44.625                                                                    24110398.307 7 102018992.17807        99.995 7        47.750
C32        50.000    23288447.251 8 121269085.05108      1451.484 8        48.188                                                                    23288447.481 8  98541076.57208      1179.514 8        50.563
C33        51.000    26045224.023 7 135624268.70907     -1939.367 7        42.281                                                                    26045238.570 7 110205872.81607     -1575.894 7        42.813
C38         2.000    36219285.851 8 188603331.70608       685.406 8        48.156                                                                    36219283.082 8 153255644.13208       556.949 8        51.656
C39        19.000    38206660.382 7 198952139.68907      1387.171 7        44.688                                                                    38206658.761 7 161664917.87607      1127.232 7        47.188
C40        27.000    41389030.273 5 215523404.25105     -1520.346 5        34.188                                                                    41389043.124 5 175130412.58105     -1235.727 5        32.594
C41        30.000    22834155.612 8 118903434.12008      -676.444 8        48.938                                                                    22834160.422 8  96618798.87908      -549.699 8        52.594
C59        43.000    37060886.566 7 192985764.90607       189.770 7        46.094                                                                    37060873.128 8 156816686.05008       154.116 8        49.594
C60        47.000    39643981.614 6 206436618.18506       181.497 6        41.500                                                                    39643967.693 7 167746604.53207       147.489 7        43.156
E04        20.000    24646177.684 7 129516568.92607      1343.694 7        46.125    24646177.336 7  96716937.90407      1003.368 7        43.625    24646174.852 7  99239976.95807      1029.626 7        45.844
E10        17.000    24069497.875 7 126486070.92607       819.023 7        47.500    24069496.626 7  94453884.82107       611.630 7        43.250    24069494.999 7  96917890.63007       627.531 7        46.781
E11        12.000    24652229.508 6 129548355.24006      2157.364 6        41.656    24652225.754 6  96740668.48406      1611.118 6        37.313    24652224.524 6  99264332.82006      1653.275 6        40.844
E12        25.000    23884068.704 7 125511620.47807      -603.386 7        42.875    23884065.316 6  93726196.30806      -450.610 6        40.875    23884063.755 7  96171219.36707      -462.346 7        44.375
E19        29.000    23979240.587 7 126011756.96307     -1107.356 7        42.469    23979238.033 6  94099678.06906      -826.904 6        37.938    23979236.344 6  96554445.03006      -848.454 6        41.281
E21        38.000    28428755.992 6 149394122.82906      2285.273 6        37.156    28428762.674 5 111560582.32505      1706.567 5        31.531    28428760.206 5 114470849.77205      1750.866 5        35.750
E27        35.000    28827821.603 6 151491229.68106       938.855 6        38.719    28827825.993 5 113126581.51805       701.307 5        34.125    28827823.230 6 116077700.40506       719.740 6        37.406
E33        21.000    26288849.902 6 138148791.74906     -2763.684 6        40.375    26288853.998 6 103163045.04206     -2063.868 6        38.156    26288851.359 6 105854248.25206     -2117.602 6        41.156
G05         5.000    20590893.346 7 108205875.80607      -107.343 7        47.094    20590888.281 8  84316246.13808       -83.641 8        49.500    20590888.948 7  84316244.14807       -83.611 7        46.125
G07         7.000    26130164.320 5 137314913.46905     -2798.427 5        32.156    26130161.633 2 106998613.22602     -2180.580 2        17.188    26130163.338 4 106998637.28304     -2180.340 4        26.750
G11        11.000    23576867.063 6 123897213.29106     -3401.318 6        40.813    23576867.332 4  96543253.00404     -2650.373 4        27.594    23576866.906 6  96543250.99306     -2650.444 6        41.344    23576872.767 6  92520635.32106     -2540.056 6        39.469
G13        13.000    20103524.292 7 105644742.30007      -797.152 7        47.313    20103518.008 6  82320556.16806      -621.159 6        39.656
G14        31.000    25190004.260 6 132374380.64106      1872.762 6        36.094    25190005.278 3 103148875.91803      1459.287 3        21.000    25190005.700 6 103148881.92206      1459.293 6        40.219    25190010.494 6  98851026.90106      1398.575 6        37.250
G15        15.000    20663413.299 8 108586999.63608      1476.784 8        48.219    20663408.726 8  84613248.22408      1150.739 8        48.500    20663408.517 7  84613248.23607      1150.754 7        44.438
G18        39.000    23163216.557 7 121723568.06307      3040.242 7        43.281    23163213.205 5  94849545.57905      2369.016 5        30.875    23163214.324 7  94849540.60207      2368.766 7        42.406    23163218.518 6  90897499.95006      2270.228 6        40.156
G20         4.000    21277856.828 7 111815871.14107     -1364.595 7        46.250    21277852.125 6  87129223.04306     -1063.315 6        37.063
G22        34.000    25358765.751 5 133261220.41405      2158.088 5        30.625    25358768.162 1 103839925.98601      1681.547 1        10.563
G24         6.000    23717693.829 5 124637353.05005      4099.774 5        35.625    23717697.764 4  97120053.18204      3194.627 4        28.156    23717698.259 5  97120048.19605      3194.489 5        35.125    23717699.311 5  93073394.54405      3061.845 5        33.438
G29         3.000    24111791.913 6 126708273.30106     -2033.666 6        41.531    24111792.695 6  98733698.01106     -1584.670 6        36.500    24111792.859 6  98733700.99806     -1584.465 6        38.031
G30         1.000    23410142.175 6 123021118.17606     -2119.772 6        41.375    23410141.148 6  95860600.80906     -1651.768 6        38.469    23410141.582 6  95860599.83706     -1651.992 6        39.313    23410141.803 6  91866414.66806     -1582.981 6        40.844
J02        54.000    37947735.137 6 199416737.21406       354.119 6        37.625    37947744.429 6 155389722.28206       275.926 6        37.719    37947748.566 6 148915176.47706       264.432 6        36.625
J03        26.000    37206811.420 7 195523105.09307       401.028 7        45.313    37206808.986 7 152355648.27507       312.460 7        45.250    37206811.256 7 146007507.59807       299.492 7        42.500
J07        57.000    37285807.257 6 195938239.98906       176.111 6        37.500    37285804.588 7 152679133.19607       137.234 7        44.094    37285807.283 7 146317519.18107       131.587 7        42.688
R01         8.000    21493155.462 7 114893209.09707     -1824.135 7        45.906    21493155.182 6  89361375.23006     -1418.807 6        41.531
R02        24.000    20341345.465 8 108545333.24308       269.541 8        51.219    20341345.127 8  84424153.48208       209.713 8        48.281
R03        33.000    22722087.914 7 121633216.15707      2308.505 7        45.469    22722086.882 7  94603674.26107      1795.416 7        43.188
R11        37.000    22279757.272 7 119056311.54407        47.162 7        47.063    22279756.900 7  92599369.19707        36.673 7        46.688
R12        36.000    22283545.681 7 119034881.96707      3420.104 7        46.500    22283549.297 7  92582830.45607      2660.014 7        45.188
R17        32.000    20112765.937 8 107627469.27408      -575.170 8        51.375    20112763.725 8  83710244.54208      -447.371 8        48.688
R18        56.000    22124749.186 7 118103449.00807      2958.466 7        45.844    22124750.984 7  91858255.46307      2301.028 7        45.844
R24        18.000    21874552.410 8 116973003.03408     -3889.093 8        48.000    21874554.213 7  90978981.07407     -3024.997 7        43.000
> 2024 06 24 08 20  6.0000000  0 57
C01         9.000    36842236.430 7 191847194.12307       161.173 7        44.313    36842234.026 7 148348413.56507       124.705 7        45.125    36842235.777 7 155891559.55807       130.986 7        46.781
C02        60.000    39115380.987 6 203684064.40406       210.234 6        36.688    39115380.345 6 157501427.24106       162.694 6        40.156    39115381.850 6 165509984.50306       170.826 6        40.438
C03        10.000    37528962.985 7 195423161.54707       172.282 7        44.156    37528958.797 7 151113567.16007       133.283 7        42.219    37528960.534 7 158797315.32707       140.014 7        45.969
C04        14.000    37744061.450 7 196543234.71807       146.428 7        42.781    37744057.078 7 151979677.96407       113.226 7        42.688    37744058.449 7 159707463.79407       119.115 7        43.250
C05        58.000    41807734.561 5 217703839.05405       214.217 5        35.906    41807739.254 6 168342448.63306       165.769 6        37.938    41807738.375 6 176902225.03806       174.258 6        41.031
C06        45.000    39079873.981 5 203499178.20805      1503.878 5        35.500    39079873.624 6 157358507.41806      1162.878 6        36.063    39079872.320 6 165359770.53306      1222.211 6        40.656
C07        44.000    41328504.986 6 215208277.36206     -1265.596 6        38.531    41328512.539 6 166412670.21806      -978.983 6        38.344    41328507.976 6 174874323.76006     -1028.514 6        40.344
C08        40.000    36909356.063 7 192196713.93207       886.464 7        43.094    36909349.401 7 148618664.81807       685.529 7        43.531    36909349.219 7 156175542.40007       720.370 7        47.000
C09        49.000    40569064.186 4 211253781.55704      1401.615 4        28.563    40569071.537 5 163354859.85605      1083.695 5        31.188    40569066.218 5 171661027.05905      1138.862 5        31.344
C10        59.000    40833737.729 5 212631920.85005     -1393.915 5        32.906    40833748.197 6 164420484.48806     -1077.948 6        36.375    40833742.381 6 172780833.32206     -1132.787 6        37.406
C13        42.000    37380392.623 7 194649520.85007       936.338 7        43.125    37380395.537 7 150515370.62007       724.042 7        42.281    37380393.478 7 158168686.62107       760.924 7        47.063
C16        41.000    39145034.833 6 203838498.24206      1447.910 6        39.563    39145038.620 6 157620891.16306      1119.605 6        38.156    39145035.338 6 165635496.85406      1176.586 6        36.594
C23        55.000    24653453.484 7 128377120.31207      2904.440 7        44.094                                                                    24653448.428 7 104316956.67707      2360.103 7        46.375
C24        48.000    26190779.029 6 136382259.61306     -1619.535 6        40.625                                                                    26190778.824 7 110821751.54907     -1315.807 7        43.094
C25        23.000    23741641.491 7 123629000.54407       743.202 7        45.781                                                                    23741641.025 8 100458703.63308       603.980 8        48.000
C27        16.000    23661112.122 7 123209584.31207     -2238.607 7        46.219                                                                    23661113.233 8 100117871.00908     -1818.930 8        48.063
C28        46.000    26019535.425 5 135490436.44405     -3055.166 5        34.063                                                                    26019540.528 6 110097062.30606     -2482.654 6        38.813
C30        22.000    24110372.689 7 125549040.44307       122.513 7        44.656                                                                    24110374.660 7 102018892.17007        99.575 7        47.719
C32        50.000    23288168.418 8 121267633.30408      1451.416 8        48.094                                                                    23288168.683 8  98539896.90108      1179.438 8        50.500
C33        51.000    26045596.464 7 135626207.81907     -1939.496 7        42.125                                                                    26045610.944 7 110207448.48107     -1575.921 7        42.781
C38         2.000    36219154.146 8 188602646.03008       685.415 8        48.125                                                                    36219151.408 8 153255086.95708       556.971 8        51.594
C39        19.000    38206393.941 7 198950752.25607      1387.179 7        44.594                                                                    38206392.325 7 161663790.46907      1127.131 7        47.063
C40        27.000    41389322.255 5 215524924.51505     -1520.613 5        34.938                                                                    41389335.165 5 175131647.89405     -1235.435 5        32.594
C41        30.000    22834285.495 8 118904110.34608      -676.563 8        48.906                                                                    22834290.280 8  96619348.35208      -549.705 8        52.531
C59        43.000    37060850.113 7 192985574.89707       189.731 7        46.000                                                                    37060836.617 8 156816531.63808       154.207 8        49.500
C60        47.000    39643946.632 6 206436436.41306       181.517 6        41.313                                                                    39643932.766 7 167746456.81707       147.513 7        42.969
E04        20.000    24645921.880 7 129515225.07507      1343.421 7        46.156    24645921.571 7  96715934.37307      1003.271 7        44.656    24645919.116 7  99238947.24807      1029.406 7        46.406
E10        17.000    24069342.014 7 126485251.86707       818.530 7        47.438    24069340.705 7  94453273.17907       611.289 7        44.313    24069339.137 7  96917263.03007       627.198 7        47.406
E11        12.000    24651818.928 6 129546197.60006      2157.140 6        41.688    24651815.231 6  96739057.25306      1610.965 6        38.344    24651813.915 6  99262679.57306      1652.836 6        41.563
E12        25.000    23884183.484 7 125512223.86807      -603.923 7        42.875    23884180.137 7  93726646.86007      -450.729 7        42.063    23884178.580 7  96171681.69707      -462.712 7        45.094
E19        29.000    23979451.270 7 126012864.14207     -1107.536 7        42.469    23979448.787 6  94100504.85706      -827.208 6        39.031    23979447.066 6  96555293.37006      -848.639 6        41.938
E21        38.000    28428321.233 6 149391837.54706      2284.827 6        37.125    28428327.830 5 111558875.78305      1706.174 5        32.844    28428325.342 6 114469098.68106      1750.874 6        36.344
E27        35.000    28827642.894 6 151490290.56106       938.652 6        38.531    28827647.446 5 113125880.25905       700.841 5        35.094    28827644.522 6 116076980.82806       719.365 6        38.063
E33        21.000    26289375.760 6 138151555.27606     -2763.790 6        40.438    26289379.870 6 103165108.71406     -2063.978 6        39.344    26289377.293 7 105856365.75907     -2117.796 7        42.156
G05         5.000    20590913.884 7 108205983.09407      -107.815 7        47.125    20590908.703 8  84316329.73908       -84.010 8        49.531    20590909.411 7  84316327.73507       -83.891 7        46.156
G07         7.000    26130696.595 5 137317711.20405     -2797.917 5        32.906    26130694.002 2 107000793.30902     -2180.222 2        16.938
G11        11.000    23577514.411 6 123900614.51106     -3401.700 6        40.719    23577514.550 4  96545903.30404     -2650.665 4        27.594    23577514.078 6  96545901.26406     -2650.400 6        41.219    23577520.022 6  92523175.15806     -2540.078 6        40.469
G13        13.000    20103675.952 7 105645539.43107      -797.612 7        47.406    20103669.699 6  82321177.31006      -621.517 6        39.719
G14        31.000    25189647.829 6 132372507.78006      1872.343 6        36.125    25189648.907 3 103147416.55503      1458.965 3        21.188    25189649.270 6 103147422.56806      1458.969 6        40.000    25189654.174 6  98849628.33806      1398.373 6        38.188
G15        15.000    20663132.270 8 108585522.81708      1476.348 8        48.188    20663127.693 8  84612097.46008      1150.397 8        48.500    20663127.513 7  84612097.45207      1150.545 7        44.375
G18        39.000    23162638.002 7 121720527.86907      3039.697 7        43.281    23162634.662 5  94847176.60005      2368.591 5        30.938    23162635.626 7  94847171.59907      2368.668 7        42.188    23162640.007 6  90895229.65606      2270.001 6        41.281
G20         4.000    21278116.560 7 111817235.67207     -1365.004 7        46.281    21278111.787 6  87130286.31406     -1063.636 6        37.125
G22        34.000    25358354.642 5 133259062.40705      2157.489 5        30.875    25358357.528 1 103838244.45301      1681.147 1        10.438
G24         6.000    23716913.934 5 124633253.04805      4099.421 5        35.719    23716917.591 4  97116858.38804      3194.360 4        28.219    23716918.355 5  97116853.40405      3194.422 5        35.438    23716919.285 5  93070332.88605      3061.278 5        34.531
G29         3.000    24112178.716 6 126710306.81006     -2033.900 6        41.531    24112179.665 6  98735282.56006     -1584.849 6        36.531    24112179.958 6  98735285.55206     -1584.928 6        38.000
G30         1.000    23410545.662 6 123023237.87706     -2120.124 6        41.344    23410544.510 6  95862252.52506     -1652.042 6        38.500    23410544.987 6  95862251.50906     -1651.923 6        39.313    23410545.177 6  91867997.55206     -1583.307 6        41.906
J02        54.000    37947667.538 6 199416382.85306       354.111 6        37.656    37947676.922 6 155389446.12506       276.101 6        38.094    37947681.206 6 148914911.86306       264.357 6        37.781
J03        26.000    37206735.021 7 195522703.81307       400.933 7        45.219    37206732.627 7 152355335.57607       312.549 7        45.156    37206734.873 7 146007207.93307       299.417 7        43.656
J07        57.000    37285773.750 6 195938063.56206       176.343 6        37.563    37285771.231 7 152678995.70707       137.347 7        44.000    37285773.672 7 146317387.43207       131.668 7        43.500
R01         8.000    21493496.517 7 114895033.00307     -1824.302 7        45.719    21493496.181 6  89362793.81106     -1418.803 6        41.500
R02        24.000    20341294.724 8 108545063.50908       269.334 8        51.313    20341294.660 8  84423943.68308       209.535 8        48.250
R03        33.000    22721656.585 7 121630907.53207      2308.206 7        45.438    22721655.683 7  94601878.65707      1795.358 7        43.281
R11        37.000    22279748.495 7 119056264.59507        46.283 7        47.125    22279748.068 7  92599332.66107        36.092 7        46.844
R12        36.000    22282905.634 7 119031461.78707      3419.714 7        46.344    22282909.075 7  92580170.31207      2659.854 7        45.000
R17        32.000    20112873.414 8 107628044.63208      -576.160 8        51.313    20112871.214 8  83710692.02908      -448.031 8        48.656
R18        56.000    22124194.849 7 118100490.54907      2957.824 7        45.688    22124196.720 7  91855954.43307      2300.556 7        45.719
R24        18.000    21875279.584 7 116976892.06807     -3889.524 7        47.906    21875281.719 7  90982005.85907     -3025.139 7        42.906
> 2024 06 24 08 20  7.0000000  0 57
C01         9.000    36842205.406 7 191847032.57807       162.197 7        44.219    36842202.998 7 148348288.65107       125.431 7        44.625    36842204.739 7 155891428.30407       131.894 7        46.813
C02        60.000    39115340.541 6 203683853.79806       211.142 6        36.406    39115339.953 6 157501264.39206       163.432 6        39.625    39115341.359 6 165509813.35706       171.661 6        40.438
C03        10.000    37528929.922 7 195422988.96507       173.270 7        44.156    37528925.649 6 151113433.70906       133.940 6        41.656    37528927.395 7 158797175.09307       140.786 7        46.000
C04        14.000    37744033.256 7 196543087.97807       147.406 7        42.938    37744029.064 7 151979564.49507       113.992 7        42.344    37744030.255 7 159707344.57207       119.815 7        43.469
C05        58.000    41807693.373 6 217703624.39706       215.364 6        36.031    41807697.878 6 168342282.67106       166.405 6        37.625    41807697.191 6 176902050.63806       174.895 6        41.125
C06        45.000    39079585.281 5 203497673.98705      1504.884 5        35.594    39079584.786 5 157357344.26105      1163.391 5        35.500    39079583.419 6 165358548.24506      1222.909 6        40.719
C07        44.000    41328747.777 6 215209542.73206     -1264.613 6        38.719    41328755.406 6 166413648.67906      -977.907 6        37.906    41328751.106 6 174875351.97406     -1027.669 6        40.625
C08        40.000    36909185.875 7 192195827.11707       887.453 7        42.906    36909179.074 7 148617979.08707       686.194 7        43.125    36909178.910 7 156174821.80107       721.105 7        47.156
C09        49.000    40568793.847 4 211252379.97904      1402.341 4        28.719    40568802.714 5 163353776.07205      1084.305 5        30.906    40568797.124 5 171659888.15605      1139.367 5        31.750
C10        59.000    40834005.387 5 212633314.60505     -1393.501 5        32.656    40834015.522 5 164421562.17505     -1076.985 5        35.594    40834010.033 6 172781965.82706     -1132.069 6        37.188
C13        42.000    37380212.870 7 194648584.19307       937.385 7        43.250    37380215.514 6 150514646.35306       724.752 6        41.813    37380213.600 7 158167925.51607       761.603 7        47.188
C16        41.000    39144756.557 6 203837050.04306      1448.824 6        39.563    39144760.534 6 157619771.32406      1120.272 6        37.938    39144757.296 6 165634320.07206      1177.399 6        37.094
C23        55.000    24652895.702 7 128374215.68607      2905.193 7        44.188                                                                    24652890.620 7 104314596.43207      2360.786 7        46.406
C24        48.000    26191090.123 6 136383878.87806     -1618.813 6        40.594                                                                    26191089.789 7 110823067.33707     -1315.417 7        43.156
C25        23.000    23741498.672 7 123628257.17307       743.809 7        45.781                                                                    23741498.246 8 100458099.58608       604.419 8        48.125
C27        16.000    23661541.952 7 123211822.73807     -2237.913 7        46.250                                                                    23661543.126 8 100119689.92308     -1818.480 8        48.125
C28        46.000    26020121.626 5 135493491.34805     -3053.979 5        34.063                                                                    26020127.287 6 110099544.67706     -2481.889 6        38.813
C30        22.000    24110349.029 7 125548917.91807       122.902 7        44.719                                                                    24110351.140 7 102018792.61407        99.867 7        47.844
C32        50.000    23287889.624 8 121266181.65808      1452.249 8        48.094                                                                    23287889.898 8  98538717.32508      1180.069 8        50.563
C33        51.000    26045968.707 7 135628146.92307     -1938.448 7        42.219                                                                    26045983.343 7 110209024.16107     -1575.160 7        42.906
C38         2.000    36219022.484 8 188601960.36108       686.314 8        48.188                                                                    36219019.749 8 153254529.79908       557.719 8        51.625
C39        19.000    38206127.416 7 198949364.93307      1387.872 7        44.625                                                                    38206125.938 7 161662663.15607      1127.792 7        47.188
C40        27.000    41389614.256 5 215526444.65205     -1519.640 5        35.031                                                                    41389627.093 5 175132883.11705     -1234.403 5        33.063
C41        30.000    22834415.311 8 118904786.67908      -675.758 8        48.875                                                                    22834420.198 8  96619897.92808      -549.074 8        52.531
C59        43.000    37060813.549 7 192985384.87807       190.644 7        46.000                                                                    37060800.142 8 156816377.23508       154.984 8        49.531
C60        47.000    39643911.660 6 206436254.64206       182.365 6        41.625                                                                    39643897.923 7 167746309.11507       148.306 7        43.219
E04        20.000    24645666.249 7 129513881.44407      1344.210 7        46.156    24645665.904 7  96714931.02407      1003.790 7        44.094    24645663.405 7  99237917.72907      1029.920 7        46.094
E10        17.000    24069186.195 7 126484433.24107       819.149 7        47.375    24069184.831 7  94452661.87307       611.630 7        43.594    24069183.376 7  96916635.78007       627.616 7        46.969
E11        12.000    24651408.378 6 129544040.28406      2157.834 6        41.594    24651404.742 6  96737446.27106      1611.327 6        37.500    24651403.314 6  99261026.55106      1653.474 6        40.969
E12        25.000    23884298.415 7 125512827.70707      -603.379 7        42.844    23884295.009 6  93727097.80006      -450.671 6        41.281    23884293.459 7  96172144.38307      -462.368 7        44.656
E19        29.000    23979662.055 7 126013971.47007     -1106.732 7        42.500    23979659.560 6  94101331.75406      -826.560 6        38.406    23979657.743 6  96556141.85906      -848.150 6        41.531
E21        38.000    28427886.476 6 149389552.32206      2285.742 6        37.281    28427893.087 5 111557169.30105      1706.686 5        32.188    28427890.613 6 114467347.67506      1751.672 6        36.156
E27        35.000    28827464.350 6 151489351.81906       939.232 6        38.406    28827468.799 5 113125179.26705       701.092 5        34.688    28827465.874 6 116076261.55306       719.672 6        37.375
E33        21.000    26289901.746 6 138154318.98506     -2763.191 6        40.344    26289905.695 6 103167172.50306     -2063.277 6        38.531    26289903.294 6 105858483.39906     -2117.260 6        41.688
G05         5.000    20590934.381 7 108206090.71307      -107.168 7        47.125    20590929.179 8  84316413.59808       -83.509 8        49.531    20590929.883 7  84316411.60007       -83.440 7        46.063
G07         7.000    26131228.666 5 137320509.19405     -2797.229 5        30.875    26131226.469 2 107002973.58802     -2179.679 2        16.688    26131226.677 4 107002997.64204     -2179.372 4        27.063
G11        11.000    23578161.716 6 123904015.92606     -3400.835 6        40.906    23578161.817 4  96548553.75204     -2649.996 4        27.625    23578161.392 6  96548551.72706     -2649.957 6        41.219    23578167.330 6  92525715.16506     -2539.538 6        39.656
G13        13.000    20103827.773 7 105646336.96907      -797.101 7        47.406    20103821.466 6  82321798.76906      -621.119 6        39.688
G14        31.000    25189290.934 6 132370635.18506      1873.275 6        36.188    25189292.541 3 103145957.38703      1459.692 3        21.375    25189292.610 6 103145963.39906      1459.434 6        39.656    25189297.940 6  98848229.98306      1398.821 6        37.563
G15        15.000    20662851.346 8 108584046.36308      1476.961 8        48.188    20662846.732 8  84610946.97708      1150.879 8        48.531    20662846.467 7  84610946.98607      1150.774 7        44.219
G18        39.000    23162059.641 7 121717488.05107      3040.328 7        43.219    23162056.222 5  94844807.91105      2369.084 5        30.906    23162057.138 7  94844802.92407      2369.078 7        42.188    23162061.529 6  90892959.67106      2270.464 6        40.469
G20         4.000    21278376.293 7 111818600.55407     -1364.379 7        46.219    21278371.522 6  87131349.85706     -1063.152 6        37.094
G22        34.000    25357943.740 5 133256904.40805      2158.441 5        30.156    25357946.886 1 103836562.88401      1681.917 1        10.281
G24         6.000    23716133.906 5 124629153.16705      4100.542 5        35.594    23716137.423 4  97113663.68404      3195.223 4        28.188    23716137.854 5  97113658.70605      3195.151 5        35.500    23716139.322 5  93067271.29105      3061.931 5        33.688
G29         3.000    24112565.655 6 126712340.59906     -2033.194 6        41.500    24112566.661 6  98736867.32906     -1584.302 6        36.500    24112566.824 6  98736870.33606     -1584.368 6        38.125
G30         1.000    23410949.028 6 123025357.98206     -2119.589 6        41.313    23410947.931 6  95863904.55206     -1651.627 6        38.500    23410948.189 6  95863903.55606     -1651.690 6        39.250    23410948.674 6  91869580.74506     -1582.939 6        41.125
J02        54.000    37947600.046 6 199416028.41106       355.168 6        37.813    37947609.539 6 155389169.94906       276.759 6        38.219    37947613.788 6 148914647.17606       265.133 6        36.844
J03        26.000    37206658.625 7 195522302.59507       401.867 7        45.188    37206656.172 7 152355022.94107       313.135 7        45.219    37206658.527 7 146006908.32407       300.170 7        42.813
J07        57.000    37285740.052 6 195937887.13206       177.159 6        37.656    37285737.602 7 152678858.24807       137.970 7        44.219    37285740.033 7 146317255.69807       132.192 7        42.906
R01         8.000    21493837.650 7 114896856.95407     -1823.296 7        46.000    21493837.520 6  89364212.44506     -1418.224 6        41.469
R02        24.000    20341244.260 8 108544794.00308       270.056 8        51.500    20341244.147 8  84423734.06808       210.072 8        48.250
R03        33.000    22721225.388 7 121628599.04107      2309.109 7        45.594    22721224.444 7  94600083.16607      1795.984 7        43.281
R11        37.000    22279739.896 7 119056218.43607        46.454 7        47.250    22279739.579 7  92599296.76807        36.097 7        47.094
R12        36.000    22282265.513 7 119028041.99407      3420.293 7        46.563    22282268.986 7  92577510.48307      2660.194 7        45.094
R17        32.000    20112981.161 8 107628620.92308      -576.078 8        51.438    20112979.024 8  83711140.26308      -448.067 8        48.625
R18        56.000    22123640.804 7 118097532.76307      2958.147 7        45.844    22123642.571 7  91853653.92907      2300.848 7        45.906
R24        18.000    21876006.840 8 116980781.44208     -3888.823 8        48.000    21876009.018 7  90985030.92407     -3024.673 7        42.844
> 2024 06 24 08 20  8.0000000  0 57
C01         9.000    36842174.467 7 191846871.11507       161.393 7        44.250    36842172.068 7 148348163.78907       124.848 7        45.500    36842173.706 7 155891297.12607       131.159 7        46.781
C02        60.000    39115300.328 6 203683643.23806       210.464 6        36.500    39115299.230 6 157501101.57406       162.786 6        40.594    39115300.878 6 165509642.26406       170.903 6        40.438
C03        10.000    37528896.859 7 195422816.44907       172.370 7        44.125    37528892.443 7 151113300.31807       133.221 7        42.406    37528894.287 7 158797034.90107       140.111 7        46.031
C04        14.000    37744005.286 7 196542941.32007       146.509 7        42.938    37744000.906 7 151979451.08907       113.268 7        43.125    37744002.071 7 159707225.38807       119.149 7        43.344
C05        58.000    41807652.283 5 217703409.82905       214.456 5        35.875    41807656.529 6 168342116.74506       165.643 6        38.375    41807655.954 6 176901876.27406       174.266 6        41.031
C06        45.000    39079296.365 5 203496169.90705      1504.146 5        35.656    39079296.062 6 157356181.20206      1163.092 6        36.313    39079294.615 6 165357326.08006      1221.997 6        40.875
C07        44.000    41328990.553 6 215210808.05906     -1265.233 6        38.563    41328998.282 6 166414627.09306      -978.423 6        38.563    41328994.174 6 174876380.12606     -1027.994 6        40.344
C08        40.000    36909015.605 7 192194940.35507       886.667 7        42.938    36909008.811 7 148617293.38907       685.585 7        44.188    36909008.608 7 156174101.23307       720.482 7        47.063
C09        49.000    40568524.486 4 211250978.47104      1401.814 4        28.781    40568533.771 5 163352692.29505      1083.891 5        31.688    40568527.864 5 171658749.32905      1138.447 5        31.594
C10        59.000    40834273.091 5 212634708.32405     -1393.920 5        32.625    40834282.945 6 164422639.90206     -1077.818 6        36.406    40834277.701 6 172783098.34006     -1132.573 6        37.094
C13        42.000    37380033.164 7 194647647.56007       936.551 7        43.094    37380035.624 7 150513922.07407       724.241 7        42.813    37380033.699 7 158167164.42107       761.007 7        47.125
C16        41.000    39144478.590 6 203835601.97106      1448.015 6        39.406    39144482.299 6 157618651.59106      1119.564 6        38.750    39144479.252 6 165633143.41306      1176.765 6        37.031
C23        55.000    24652338.028 7 128371311.28907      2904.189 7        44.188                                                                    24652332.820 7 104312236.37907      2359.876 7        46.375
C24        48.000    26191401.048 6 136385498.62806     -1619.981 6        40.625                                                                    26191400.792 7 110824383.50807     -1316.352 7        42.844
C25        23.000    23741356.081 7 123627514.39207       742.388 7        45.813                                                                    23741355.592 8 100457496.01008       603.298 8        48.031
C27        16.000    23661971.862 7 123214061.53407     -2239.019 7        46.219                                                                    23661973.080 8 100121509.11808     -1819.432 8        48.094
C28        46.000    26020708.456 5 135496546.26905     -3054.715 5        34.031                                                                    26020713.986 6 110102027.04006     -2482.380 6        38.500
C30        22.000    24110325.569 7 125548795.98507       121.655 7        44.625                                                                    24110327.720 7 102018693.53107        98.732 7        47.750
C32        50.000    23287610.918 8 121264730.18008      1451.361 8        48.031                                                                    23287611.156 8  98537537.87908      1179.319 8        50.531
C33        51.000    26046341.021 7 135630086.09507     -1939.334 7        42.125                                                                    26046355.762 7 110210599.89507     -1575.899 7        42.781
C38         2.000    36218890.823 8 188601274.76608       685.468 8        48.125                                                                    36218888.094 8 153253972.69008       557.018 8        51.563
C39        19.000    38205861.017 7 198947977.77607      1386.944 7        44.656                                                                    38205859.534 7 161661535.98107      1126.963 7        47.125
C40        27.000    41389906.155 5 215527964.73205     -1520.090 5        35.188                                                                    41389919.099 5 175134118.33005     -1235.457 5        33.406
C41        30.000    22834545.265 8 118905463.18808      -676.657 8        48.938                                                                    22834550.098 8  96620447.64808      -549.869 8        52.500
C59        43.000    37060777.100 7 192985194.92407       189.832 7        46.000                                                                    37060763.667 8 156816222.88308       154.286 8        49.500
C60        47.000    39643876.754 6 206436072.92606       181.741 6        41.688                                                                    39643863.084 7 167746161.45207       147.657 7        43.156
E04        20.000    24645410.628 7 129512538.10207      1343.185 7        46.094    24645410.286 7  96713927.87407      1002.955 7        45.406    24645407.748 7  99236888.40507      1029.126 7        46.875
E10        17.000    24069030.520 7 126483615.14207       817.769 7        47.344    24069029.124 7  94452050.94707       610.674 7        44.813    24069027.693 7  96916008.91507       626.584 7        47.875
E11        12.000    24650997.871 6 129541883.34606      2156.792 6        41.594    24650994.305 6  96735835.58006      1610.432 6        39.000    24650992.824 6  99259373.83906      1652.549 6        41.875
E12        25.000    23884413.453 7 125513432.08607      -604.706 7        42.938    23884410.066 7  93727549.11407      -451.535 7        42.594    23884408.491 7  96172607.47007      -463.371 7        45.594
E19        29.000    23979872.799 7 126015079.01707     -1107.725 7        42.406    23979870.277 6  94102158.80206      -827.278 6        39.656    23979868.470 7  96556990.47507      -848.737 7        42.438
E21        38.000    28427451.563 6 149387267.27806      2284.751 6        37.563    28427458.319 5 111555462.92705      1706.062 5        33.719    28427455.807 6 114465596.77606      1750.760 6        37.156
E27        35.000    28827285.845 6 151488413.50906       938.178 6        38.438    28827290.311 5 113124478.57005       700.428 5        35.938    28827287.345 6 116075542.59506       718.716 6        38.313
E33        21.000    26290427.683 6 138157082.92206     -2764.098 6        40.281    26290431.608 6 103169236.48006     -2064.155 6        39.750    26290429.192 7 105860601.20807     -2117.992 7        42.563
G05         5.000    20590955.004 7 108206198.76007      -108.299 7        47.000    20590949.739 8  84316497.79108       -84.385 8        49.500    20590950.317 7  84316495.79307       -84.440 7        46.063
G07         7.000    26131760.885 5 137323307.35205     -2797.939 5        30.188    26131758.986 2 107005154.00302     -2180.255 2        16.469    26131759.569 4 107005178.03504     -2180.050 4        27.781
G11        11.000    23578809.113 6 123907417.60906     -3401.895 6        40.938    23578809.152 4  96551204.40904     -2650.818 4        27.563    23578808.623 6  96551202.38406     -2650.719 6        41.000    23578814.708 6  92528255.37806     -2540.329 6        41.094
G13        13.000    20103979.629 7 105647135.00707      -798.340 7        47.344    20103973.331 6  82322420.61606      -622.082 6        39.781
G14        31.000    25188934.345 5 132368762.86805      1872.155 5        35.969    25188936.193 3 103144498.44603      1458.821 3        21.313    25188936.451 6 103144504.44906      1458.927 6        39.750    25188941.700 6  98846831.83906      1398.068 6        39.250
G15        15.000    20662570.507 8 108582570.33908      1475.778 8        48.188    20662565.847 8  84609796.83208      1149.958 8        48.531    20662565.529 7  84609796.83107      1149.974 7        44.188
G18        39.000    23161481.269 7 121714448.67307      3039.095 7        43.031    23161477.835 5  94842439.57105      2368.116 5        30.906    23161478.751 7  94842434.57507      2368.129 7        42.125    23161483.166 7  90890690.00907      2269.513 7        42.031
G20         4.000    21278636.109 7 111819965.87007     -1365.557 7        46.250    21278631.350 6  87132413.73906     -1064.065 6        37.063
G22        34.000    25357533.764 5 133254746.62405      2157.457 5        30.094    25357536.279 1 103834881.53201      1681.137 1         9.406
G24         6.000    23715353.843 5 124625053.51405      4099.413 5        35.469    23715357.277 4  97110469.15404      3194.347 4        28.250    23715357.285 5  97110464.13805      3194.520 5        35.375    23715358.960 5  93064209.84905      3061.401 5        35.094
G29         3.000    24112952.752 6 126714374.74606     -2034.385 6        41.438    24112953.743 6  98738452.37306     -1585.227 6        36.469    24112954.121 6  98738455.36206     -1585.261 6        37.813
G30         1.000    23411352.513 6 123027478.57506     -2120.890 6        41.188    23411351.464 6  95865556.96406     -1652.640 6        38.438    23411351.621 6  95865555.96806     -1652.690 6        39.375    23411352.230 7  91871164.30207     -1583.789 7        42.500
J02        54.000    37947532.506 6 199415673.96006       354.344 6        38.031    37947542.530 6 155388893.77606       276.023 6        38.281    37947546.330 6 148914382.49706       264.687 6        38.250
J03        26.000    37206582.322 7 195521901.52307       400.931 7        45.125    37206579.785 7 152354710.41207       312.445 7        45.125    37206582.233 7 146006608.81607       299.408 7        44.250
J07        57.000    37285706.670 6 195937710.76006       176.383 6        37.344    37285703.938 7 152678720.81407       137.392 7        44.094    37285706.473 7 146317123.99107       131.608 7        44.344
R01         8.000    21494179.071 7 114898681.04607     -1824.215 7        46.031    21494178.703 6  89365631.18206     -1418.850 6        41.344
R02        24.000    20341193.726 8 108544524.80308       268.975 8        51.469    20341193.608 8  84423524.68908       209.216 8        48.281
R03        33.000    22720794.174 7 121626290.75607      2308.089 7        45.406    22720793.120 7  94598287.83407      1795.146 7        43.281
R11        37.000    22279731.442 7 119056173.16707        44.709 7        47.125    22279731.152 7  92599261.55607        34.745 7        47.188
R12        36.000    22281625.577 7 119024622.66507      3419.025 7        46.781    22281628.903 7  92574851.00307      2659.235 7        45.094
R17        32.000    20113089.027 8 107629198.21408      -577.862 8        51.438    20113086.831 8  83711589.25208      -449.414 8        48.563
R18        56.000    22123086.791 7 118094575.71007      2956.627 7        45.406    22123088.613 7  91851354.00407      2299.630 7        46.000
R24        18.000    21876734.154 7 116984671.18407     -3890.006 7        47.813    21876736.264 7  90988056.27007     -3025.591 7        43.000
> 2024 06 24 08 20  9.0000000  0 57
C01         9.000    36842143.349 7 191846709.63307       161.307 7        44.375    36842140.950 7 148348038.92807       124.775 7        44.750    36842142.687 7 155891165.92107       131.029 7        46.750
C02        60.000    39115259.869 6 203683432.65506       210.232 6        36.781    39115258.641 6 157500938.72306       162.813 6        39.781    39115260.427 6 165509471.14806       170.974 6        40.500
C03        10.000    37528863.755 7 195422643.92107       172.286 7        44.125    37528859.290 6 151113166.89506       133.298 6        41.844    37528861.157 7 158796894.70807       140.023 7        45.969
C04        14.000    37743977.066 7 196542794.64907       146.403 7        42.938    37743972.806 7 151979337.68107       113.223 7        42.625    37743973.895 7 159707106.21607       118.975 7        43.406
C05        58.000    41807611.095 5 217703195.25805       214.136 5        35.781    41807615.072 6 168341950.81506       165.667 6        37.750    41807614.748 6 176901701.91806       174.192 6        41.125
C06        45.000    39079007.722 6 203494665.91006      1503.824 6        36.000    39079007.211 5 157355018.24605      1162.565 5        35.594    39079005.771 6 165356103.94606      1221.944 6        40.813
C07        44.000    41329233.501 6 215212073.29806     -1265.476 6        38.500    41329241.143 6 166415605.42406      -978.347 6        37.875    41329237.149 6 174877408.23706     -1028.251 6        40.313
C08        40.000    36908845.364 7 192194053.54407       886.594 7        42.938    36908838.571 7 148616607.65707       685.601 7        43.406    36908838.295 7 156173380.63207       720.423 7        47.031
C09        49.000    40568255.177 4 211249577.01704      1401.618 4        29.031    40568264.498 5 163351608.58105      1083.809 5        31.063    40568258.635 5 171657610.51305      1139.033 5        31.531
C10        59.000    40834540.499 5 212636101.96205     -1393.990 5        32.813    40834550.321 5 164423717.52005     -1077.624 5        35.656    40834545.332 6 172784230.76706     -1132.554 6        37.125
C13        42.000    37379853.427 7 194646710.86307       936.515 7        43.063    37379855.706 7 150513197.76207       724.187 7        42.094    37379853.822 7 158166403.28207       760.978 7        47.188
C16        41.000    39144200.513 6 203834153.99806      1447.690 6        39.625    39144204.296 6 157617531.91306      1119.602 6        38.344    39144201.057 6 165631966.82106      1176.261 6        37.125
C23        55.000    24651780.392 7 128368407.04007      2904.002 7        44.281                                                                    24651775.088 7 104309876.45407      2359.672 7        46.344
C24        48.000    26191712.041 6 136387118.78306     -1620.611 6        40.719                                                                    26191711.844 7 110825700.01707     -1316.875 7        42.688
C25        23.000    23741213.553 7 123626772.08907       741.825 7        45.781                                                                    23741213.039 8 100456892.83508       602.797 8        48.000
C27        16.000    23662401.867 7 123216300.62507     -2239.470 7        46.156                                                                    23662403.065 8 100123328.56208     -1819.791 8        48.063
C28        46.000    26021295.107 5 135499601.05505     -3055.082 5        33.438                                                                    26021300.839 6 110104509.31906     -2482.486 6        38.344
C30        22.000    24110302.238 7 125548674.57507       121.027 7        44.719                                                                    24110304.424 7 102018594.87907        98.225 7        47.688
C32        50.000    23287332.182 8 121263278.80008      1451.115 8        48.063                                                                    23287332.439 8  98536358.51808      1179.152 8        50.531
C33        51.000    26046713.461 7 135632025.26507     -1939.424 7        42.031                                                                    26046728.179 7 110212175.64007     -1575.990 7        42.813
C38         2.000    36218759.152 8 188600589.16508       685.305 8        48.094                                                                    36218756.437 8 153253415.59108       556.862 8        51.625
C39        19.000    38205594.553 7 198946590.70907      1386.801 7        44.656                                                                    38205593.145 7 161660408.87707      1126.888 7        47.188
C40        27.000    41390198.244 5 215529484.68705     -1520.107 5        35.094                                                                    41390210.967 5 175135353.38905     -1235.337 5        33.500
C41        30.000    22834675.123 8 118906139.80008      -676.898 8        49.031                                                                    22834680.041 8  96620997.45408      -550.065 8        52.594
C59        43.000    37060740.612 7 192985004.95907       189.749 7        46.094                                                                    37060727.192 8 156816068.52308       154.179 8        49.531
C60        47.000    39643841.822 6 206435891.21006       181.454 6        41.594                                                                    39643828.183 7 167746013.80307       147.463 7        43.250
E04        20.000    24645155.091 7 129511194.97507      1342.789 7        46.125    24645154.670 7  96712924.89007      1002.690 7        44.313    24645152.171 7  99235859.25907      1028.876 7        46.219
E10        17.000    24068874.908 7 126482797.47007       817.172 7        47.406    24068873.540 7  94451440.34807       610.313 7        43.906    24068872.139 7  96915382.39207       626.241 7        47.188
E11        12.000    24650587.447 6 129539726.72706      2156.300 6        41.719    24650583.965 6  96734225.12206      1610.044 6        38.250    24650582.496 6  99257721.38306      1652.141 6        41.156
E12        25.000    23884528.557 7 125514036.89707      -605.306 7        42.906    23884525.180 6  93728000.75606      -451.904 6        41.531    23884523.571 7  96173070.89407      -463.760 7        44.906
E19        29.000    23980083.665 7 126016186.65007     -1107.923 7        42.688    23980081.017 6  94102985.94606      -827.413 6        38.531    23980079.223 6  96557839.19606      -848.948 6        41.719
E21        38.000    28427016.889 6 149384982.29006      2284.749 6        37.594    28427023.714 5 111553756.60005      1706.248 5        32.750    28427021.072 6 114463845.97806      1750.323 6        36.438
E27        35.000    28827107.313 6 151487475.56406       937.553 6        38.219    28827111.919 5 113123778.18305       699.845 5        34.781    28827108.908 6 116074823.91806       718.213 6        37.750
E33        21.000    26290953.699 6 138159847.03006     -2764.525 6        40.344    26290957.608 6 103171300.58406     -2064.245 6        38.781    26290955.196 6 105862719.15206     -2118.220 6        41.875
G05         5.000    20590975.768 7 108206307.14207      -108.741 7        47.031    20590970.358 8  84316582.24308       -84.730 8        49.531    20590970.932 7  84316580.25407       -84.812 7        46.188
G07         7.000    26132293.056 4 137326105.64504     -2798.489 4        26.656    26132291.476 2 107007334.53302     -2180.634 2        16.063    26132292.037 4 107007358.58904     -2180.848 4        28.438
G11        11.000    23579456.321 6 123910819.48306     -3402.251 6        41.063    23579456.527 4  96553855.21204     -2651.103 4        27.531    23579456.144 6  96553853.19906     -2651.140 6        41.063    23579462.129 6  92530795.73506     -2540.475 6        39.969
G13        13.000    20104131.619 7 105647933.44807      -798.906 7        47.281    20104125.259 6  82323042.77506      -622.519 6        39.781
G14        31.000    25188578.140 6 132366890.84606      1871.704 6        36.344    25188579.961 3 103143039.72003      1458.468 3        21.313    25188580.059 6 103143045.73206      1458.394 6        39.719    25188585.508 6  98845433.87706      1397.783 6        38.000
G15        15.000    20662289.712 8 108581094.67208      1475.243 8        48.188    20662285.030 8  84608646.96108      1149.539 8        48.531    20662284.544 7  84608646.96807      1149.553 7        44.281
G18        39.000    23160902.928 7 121711409.67307      3038.538 7        43.125    23160899.520 5  94840071.52105      2367.688 5        30.938    23160900.147 7  94840066.52807      2367.782 7        42.125    23160904.829 6  90888420.64206      2269.082 6        40.875
G20         4.000    21278896.022 7 111821331.53507     -1366.100 7        46.250    21278891.236 6  87133477.89006     -1064.489 6        37.031
G22        34.000    25357122.945 5 133252588.85905      2157.205 5        30.344    25357125.650 1 103833200.10501      1680.883 1         8.094
G24         6.000    23714573.780 5 124620953.95205      4099.257 5        35.438    23714577.139 4  97107274.70104      3194.217 4        28.281    23714577.213 5  97107269.71605      3194.211 5        35.531    23714578.766 5  93061148.51605      3061.243 5        34.156
G29         3.000    24113339.878 6 126716409.16306     -2034.841 6        41.469    24113340.865 6  98740037.62606     -1585.587 6        36.469    24113341.373 6  98740040.60706     -1585.395 6        38.156
G30         1.000    23411756.172 6 123029599.58206     -2121.461 6        41.188    23411755.068 6  95867209.69406     -1653.089 6        38.406    23411755.054 6  95867208.69906     -1652.987 6        39.250    23411755.815 6  91872748.17606     -1584.201 6        41.250
J02        54.000    37947465.325 6 199415319.45206       354.200 6        37.938    37947474.898 6 155388617.54206       275.980 6        38.625    37947478.847 6 148914117.75506       264.829 6        37.625
J03        26.000    37206506.031 7 195521500.50307       400.753 7        45.125    37206503.582 7 152354397.94307       312.237 7        45.281    37206505.947 7 146006309.35407       299.319 7        43.063
J07        57.000    37285673.029 6 195937534.40806       176.097 6        37.375    37285670.257 7 152678583.37907       137.266 7        44.188    37285672.910 7 146316992.27707       131.544 7        43.250
R01         8.000    21494520.370 7 114900505.19307     -1824.437 7        46.094    21494519.939 6  89367049.96506     -1419.127 6        41.688
R02        24.000    20341143.339 8 108544255.82608       268.624 8        51.656    20341143.202 8  84423315.49308       208.911 8        48.344
R03        33.000    22720362.997 7 121623982.58107      2307.935 7        45.375    22720361.991 7  94596492.59607      1795.050 7        43.344
R11        37.000    22279722.977 7 119056128.69407        43.821 7        46.750    22279722.877 7  92599226.97007        34.088 7        47.375
R12        36.000    22280985.578 7 119021203.68307      3418.570 7        46.750    22280988.808 7  92572191.80707      2658.914 7        45.250
R17        32.000    20113197.051 8 107629776.37808      -578.849 8        51.531    20113194.877 8  83712038.94208      -450.196 8        48.563
R18        56.000    22122532.849 7 118091619.29907      2955.789 7        45.625    22122534.962 7  91849054.58907      2299.015 7        46.156
R24        18.000    21877461.696 7 116988561.19707     -3890.424 7        47.813    21877463.569 7  90991081.82207     -3025.797 7        42.969
> 2024 06 24 08 20 10.0000000  0 57
C01         9.000    36842112.499 7 191846548.40707       161.042 7        44.344    36842109.993 7 148347914.25507       124.554 7        44.781    36842111.734 7 155891034.91007       130.851 7        46.781
C02        60.000    39115219.499 6 203683222.34806       210.043 6        36.625    39115218.325 6 157500776.11206       162.518 6        40.094    39115219.995 6 165509300.26406       170.767 6        40.375
C03        10.000    37528830.688 7 195422471.64007       172.110 7        44.313    37528826.231 6 151113033.68906       133.004 6        41.875    37528828.071 7 158796754.72207       139.761 7        45.969
C04        14.000    37743948.886 7 196542648.22207       146.198 7        43.156    37743944.626 7 151979224.44607       113.080 7        42.469    37743945.706 7 159706987.23407       118.734 7        43.438
C05        58.000    41807570.019 5 217702980.90505       214.178 5        35.719    41807574.126 6 168341785.07406       165.625 6        37.438    41807573.640 6 176901527.76106       173.985 6        40.969
C06        45.000    39078719.275 5 203493162.20705      1503.452 5        35.781    39078718.311 5 157353855.48205      1162.707 5        35.875    39078716.968 6 165354882.08106      1221.640 6        40.813
C07        44.000    41329476.523 6 215213338.63806     -1265.502 6        38.375    41329484.167 6 166416583.88206      -978.641 6        38.031    41329480.211 6 174878436.44106     -1028.419 6        40.375
C08        40.000    36908675.160 7 192193166.94407       886.527 7        43.031    36908668.471 7 148615922.08607       685.449 7        43.281    36908668.021 7 156172660.20007       720.311 7        47.000
C09        49.000    40567985.480 4 211248175.86504      1400.729 4        29.281    40567995.225 5 163350525.18405      1083.019 5        30.500    40567989.607 5 171656471.96705      1138.141 5        31.344
C10        59.000    40834808.036 5 212637495.73605     -1394.063 5        32.531    40834817.927 5 164424795.29105     -1077.760 5        35.219    40834813.022 6 172785363.35006     -1132.762 6        36.906
C13        42.000    37379673.636 7 194645774.41107       936.247 7        43.125    37379675.859 6 150512473.63606       723.952 6        41.969    37379673.997 7 158165642.34207       760.756 7        47.156
C16        41.000    39143922.445 6 203832706.35006      1447.437 6        39.531    39143926.206 6 157616412.52306      1119.110 6        38.156    39143923.035 6 165630790.49706      1176.032 6        37.031
C23        55.000    24651222.846 7 128365503.22307      2903.570 7        44.156                                                                    24651217.468 7 104307516.86707      2359.328 7        46.406
C24        48.000    26192023.170 6 136388739.59106     -1621.267 6        40.719                                                                    26192023.002 7 110827017.07507     -1317.502 7        42.594
C25        23.000    23741071.199 7 123626030.55007       741.115 7        45.875                                                                    23741070.624 7 100456290.28507       602.185 7        47.938
C27        16.000    23662831.972 7 123218540.25807     -2239.937 7        46.250                                                                    23662833.180 8 100125148.44508     -1820.177 8        48.063
C28        46.000    26021881.953 5 135502656.07105     -3055.317 5        33.563                                                                    26021887.616 6 110106991.73106     -2482.672 6        38.063
C30        22.000    24110278.979 7 125548553.95907       120.144 7        44.969                                                                    24110281.261 7 102018496.85707        97.646 7        47.688
C32        50.000    23287053.602 8 121261827.77808      1450.794 8        48.063                                                                    23287053.801 8  98535179.44208      1178.909 8        50.563
C33        51.000    26047085.813 7 135633964.70607     -1939.560 7        42.031                                                                    26047100.634 7 110213751.58607     -1576.059 7        42.656
C38         2.000    36218627.485 8 188599903.81708       685.171 8        48.188                                                                    36218624.823 8 153252858.69108       556.743 8        51.563
C39        19.000    38205328.152 7 198945204.00007      1386.526 7        44.625                                                                    38205326.844 7 161659282.06607      1126.597 7        47.125
C40        27.000    41390490.190 5 215531004.77305     -1520.240 5        35.031                                                                    41390502.950 5 175136588.57605     -1235.385 5        34.031
C41        30.000    22834805.145 8 118906816.77508      -677.213 8        49.031                                                                    22834810.041 8  96621547.55008      -550.302 8        52.500
C59        43.000    37060704.164 7 192984815.23907       189.534 7        46.125                                                                    37060690.780 8 156815914.36408       153.984 8        49.469
C60        47.000    39643806.917 6 206435709.73906       181.273 6        41.594                                                                    39643793.345 7 167745866.34707       147.224 7        43.219
E04        20.000    24644899.569 7 129509852.32807      1342.384 7        45.875    24644899.137 7  96711922.27207      1002.471 7        44.344    24644896.705 7  99234830.48007      1028.613 7        46.219
E10        17.000    24068719.433 7 126481980.50707       816.521 7        47.406    24068718.088 7  94450830.28307       609.708 7        43.813    24068716.681 7  96914756.41107       625.637 7        47.156
E11        12.000    24650177.210 6 129537570.68006      2155.723 6        41.344    24650173.623 6  96732615.08506      1609.838 6        37.969    24650172.152 6  99256069.32806      1651.919 6        41.094
E12        25.000    23884643.784 7 125514642.40307      -605.950 7        42.844    23884640.442 6  93728452.92806      -452.426 6        41.469    23884638.827 7  96173534.85907      -464.295 7        44.906
E19        29.000    23980294.417 7 126017294.69307     -1108.247 7        42.594    23980291.824 6  94103813.37506      -827.682 6        38.563    23980290.040 6  96558688.20906      -849.166 6        41.750
E21        38.000    28426582.069 6 149382697.64506      2284.429 6        37.656    28426588.961 5 111552050.55405      1705.792 5        33.000    28426586.227 6 114462095.39106      1750.389 6        36.563
E27        35.000    28826928.946 6 151486538.27006       936.984 6        38.125    28826933.599 5 113123078.22005       699.738 5        34.875    28826930.508 6 116074105.71506       718.042 6        37.625
E33        21.000    26291479.724 6 138162611.55306     -2764.754 6        40.313    26291483.699 6 103173364.99606     -2064.551 6        38.750    26291481.352 6 105864837.42806     -2118.551 6        41.969
G05         5.000    20590996.447 7 108206416.14107      -109.360 7        46.906    20590991.093 8  84316667.17608       -85.214 8        49.563    20590991.701 7  84316665.19207       -85.274 7        46.188
G07         7.000    26132825.060 3                     -2799.651 3        22.063                                                                    26132824.415 4 107009539.41504     -2180.957 4        29.750
G11        11.000    23580103.775 6 123914221.81306     -3402.661 6        40.938    23580103.991 4  96556506.37104     -2651.416 4        27.656    23580103.695 6  96556504.35206     -2651.324 6        40.969    23580109.587 6  92533336.43906     -2540.895 6        39.969
G13        13.000    20104283.656 7 105648732.56407      -799.469 7        47.344    20104277.325 6  82323665.46106      -622.961 6        39.781
G14        31.000    25188222.122 6 132365019.27706      1871.163 6        36.531    25188223.779 3 103141581.36003      1458.045 3        21.375    25188223.676 6 103141587.37306      1458.148 6        39.656    25188229.384 6  98844036.29506      1397.407 6        38.094
G15        15.000    20662008.923 8 108579619.63108      1474.678 8        48.125    20662004.337 8  84607497.58008      1149.095 8        48.531    20662003.821 7  84607497.59007      1149.087 7        44.125
G18        39.000    23160324.789 7 121708371.29907      3038.039 7        43.063    23160321.330 5  94837703.95805      2367.301 5        30.938    23160321.988 7  94837698.97107      2367.321 7        42.063    23160326.643 6  90886151.73606      2268.584 6        40.875
G20         4.000    21279155.998 7 111822697.81807     -1366.585 7        46.219    21279151.238 6  87134542.51806     -1064.866 6        37.031
G22        34.000    25356713.016 4 133250431.45304      2157.383 4        29.563    25356715.110 1 103831519.08701      1681.075 1         7.250
G24         6.000    23713793.801 5 124616854.78205      4098.965 5        35.719    23713797.074 4  97104080.54604      3193.988 4        28.375    23713797.141 5  97104075.57705      3193.886 5        35.625    23713798.831 5  93058087.45905      3061.124 5        34.344
G29         3.000    24113727.105 6 126718444.09906     -2035.229 6        41.281    24113728.098 6  98741623.28706     -1585.888 6        36.500    24113728.893 6  98741626.27906     -1585.854 6        38.000
G30         1.000    23412159.999 6 123031721.26106     -2121.999 6        40.969    23412158.820 6  95868862.94706     -1653.505 6        38.406    23412158.677 6  95868861.94706     -1653.470 6        39.313    23412159.530 6  91874332.54806     -1584.777 6        41.438
J02        54.000    37947397.824 6 199414965.11806       354.222 6        37.875    37947407.168 6 155388341.43706       275.881 6        38.531    37947411.338 6 148913853.18606       264.549 6        37.500
J03        26.000    37206429.819 7 195521099.82107       400.440 7        45.094    37206427.238 7 152354085.71407       312.088 7        45.156    37206429.742 7 146006010.14907       299.080 7        43.125
J07        57.000    37285639.446 6 195937358.27206       176.092 6        37.406    37285636.781 7 152678446.13407       137.141 7        44.125    37285639.438 7 146316860.76107       131.418 7        43.281
R01         8.000    21494861.680 7 114902329.66407     -1824.696 7        46.125    21494861.193 6  89368468.99906     -1419.237 6        41.438
R02        24.000    20341093.087 8 108543987.32708       268.234 8        51.750    20341092.771 8  84423106.65908       208.575 8        48.281
R03        33.000    22719931.843 7 121621674.80607      2307.442 7        45.406    22719930.964 7  94594697.67107      1794.669 7        43.281
R11        37.000    22279714.837 7 119056085.33807        42.687 7        46.750    22279714.746 7  92599193.24407        33.261 7        47.438
R12        36.000    22280345.504 7 119017785.30207      3418.025 7        46.688    22280348.914 7  92569533.07507      2658.451 7        45.344
R17        32.000    20113305.275 8 107630355.68908      -579.942 8        51.500    20113303.349 8  83712489.51808      -451.092 8        48.594
R18        56.000    22121979.147 7 118088663.82107      2954.911 7        45.688    22121981.372 7  91846755.87907      2298.265 7        46.094
R24        18.000    21878189.508 7 116992451.74407     -3890.890 7        47.625    21878191.122 7  90994107.80507     -3026.207 7        42.781
> 2024 06 24 08 20 11.0000000  0 57
C01         9.000    36842081.564 7 191846386.99507       161.664 7        44.313    36842078.919 7 148347789.44407       125.037 7        44.656    36842080.759 7 155890903.73807       131.414 7        46.781
C02        60.000    39115179.165 6 203683011.85206       210.693 6        36.531    39115177.964 6 157500613.35106       162.876 6        39.844    39115179.509 6 165509129.20906       171.268 6        40.469
C03        10.000    37528797.602 7 195422299.17007       172.779 7        44.250    37528793.177 6 151112900.32606       133.589 6        41.813    37528794.959 7 158796614.57707       140.361 7        45.875
C04        14.000    37743920.822 7 196542501.60307       146.798 7        42.969    37743916.330 7 151979111.07407       113.646 7        42.281    37743917.557 7 159706868.08707       119.385 7        43.344
C05        58.000    41807528.692 5 217702766.37705       214.738 5        35.875    41807533.067 6 168341619.18806       165.987 6        37.406    41807532.452 6 176901353.42106       174.549 6        41.031
C06        45.000    39078430.683 6 203491658.39506      1504.003 6        36.031    39078429.612 5 157352692.63105      1163.180 5        35.813    39078428.113 6 165353660.10806      1222.137 6        40.750
C07        44.000    41329719.563 6 215214603.71506     -1264.812 6        38.469    41329727.222 6 166417562.10006      -978.144 6        37.719    41329723.126 6 174879464.38306     -1027.656 6        40.125
C08        40.000    36908505.060 7 192192280.15207       886.986 7        42.969    36908498.220 7 148615236.35707       686.022 7        43.219    36908497.727 7 156171939.59907       720.875 7        47.000
C09        49.000    40567716.728 4 211246774.50504      1401.609 4        28.906    40567726.269 5 163349441.55405      1083.698 5        30.531    40567720.359 5 171655333.27205      1139.267 5        31.719
C10        59.000    40835075.745 5 212638889.29605     -1393.272 5        32.313    40835085.786 5 164425872.86605     -1077.354 5        35.406    40835080.542 6 172786495.71006     -1132.128 6        37.063
C13        42.000    37379493.718 7 194644837.71307       936.946 7        43.188    37379495.919 6 150511749.32406       724.616 6        41.719    37379494.114 7 158164881.19007       761.371 7        47.094
C16        41.000    39143644.496 6 203831258.58806      1448.041 6        39.688    39143648.233 6 157615293.01806      1119.832 6        38.094    39143645.043 6 165629614.06206      1176.566 6        37.250
C23        55.000    24650665.252 7 128362599.38707      2904.020 7        44.313                                                                    24650659.811 7 104305157.26407      2359.708 7        46.375
C24        48.000    26192334.648 6 136390360.61506     -1620.983 6        40.625                                                                    26192334.217 7 110828334.28707     -1317.137 7        42.563
C25        23.000    23740928.921 7 123625289.33907       741.217 7        45.875                                                                    23740928.277 7 100455687.98307       602.398 7        47.875
C27        16.000    23663262.117 7 123220780.00507     -2239.659 7        46.219                                                                    23663263.278 8 100126968.41808     -1819.881 8        48.156
C28        46.000    26022468.687 5 135505710.73905     -3054.287 5        33.750                                                                    26022474.262 6 110109473.90906     -2481.966 6        38.219
C30        22.000    24110255.796 7 125548433.67307       120.257 7        44.875                                                                    24110258.185 7 102018399.12007        97.730 7        47.594
C32        50.000    23286775.009 8 121260376.66608      1451.330 8        48.125                                                                    23286775.109 8  98534000.29608      1179.363 8        50.563
C33        51.000    26047458.183 7 135635903.97907     -1939.029 7        42.094                                                                    26047473.089 7 110215327.40007     -1575.660 7        42.656
C38         2.000    36218495.861 8 188599218.29608       685.810 8        48.188                                                                    36218493.163 8 153252301.64608       557.313 8        51.531
C39        19.000    38205061.874 7 198943817.21807      1386.967 7        44.750                                                                    38205060.492 7 161658155.18807      1127.108 7        47.156
C40        27.000    41390782.160 5 215532524.56705     -1519.720 5        35.313                                                                    41390794.767 5 175137823.49105     -1234.631 5        33.781
C41        30.000    22834935.130 8 118907493.67508      -676.718 8        48.969                                                                    22834940.022 8  96622097.58508      -549.836 8        52.500
C59        43.000    37060667.680 7 192984625.34107       190.148 7        46.094                                                                    37060654.291 8 156815760.05108       154.571 8        49.469
C60        47.000    39643772.114 6 206435528.08406       181.915 6        41.531                                                                    39643758.480 7 167745718.72907       147.802 7        43.094
E04        20.000    24644644.080 7 129508509.70107      1342.794 7        45.938    24644643.674 7  96710919.66007      1002.715 7        43.938    24644641.203 7  99233801.72007      1028.896 7        46.031
E10        17.000    24068564.070 7 126481163.79807       816.717 7        47.313    24068562.676 7  94450220.40307       610.033 7        43.469    24068561.290 7  96914130.61907       625.848 7        47.000
E11        12.000    24649766.929 6 129535414.74206      2155.976 6        41.594    24649763.430 6  96731005.12406      1609.968 6        37.594    24649761.906 6  99254417.37806      1652.131 6        40.750
E12        25.000    23884759.004 7 125515248.18107      -605.867 7        42.625    23884755.764 6  93728905.29606      -452.391 6        41.281    23884754.050 7  96173999.01807      -464.074 7        44.656
E19        29.000    23980505.349 7 126018402.66207     -1107.778 7        42.375    23980502.573 6  94104640.76306      -827.307 6        38.250    23980500.873 6  96559537.18006      -848.825 6        41.500
E21        38.000    28426147.235 6 149380412.90006      2285.002 6        37.469    28426154.175 5 111550344.40705      1706.511 5        32.625    28426151.324 6 114460344.74806      1750.801 6        36.531
E27        35.000    28826750.442 6 151485601.14406       937.204 6        38.031    28826755.413 5 113122378.43505       699.666 5        34.500    28826752.171 6 116073387.67206       718.071 6        37.469
E33        21.000    26292005.764 6 138165376.05806     -2764.333 6        40.375    26292009.769 6 103175429.39006     -2064.143 6        38.719    26292007.413 6 105866955.67606     -2118.078 6        41.781
G05         5.000    20591017.203 7 108206525.28607      -109.021 7        46.906    20591011.859 8  84316752.22108       -84.954 8        49.563    20591012.340 7  84316750.23007       -84.950 7        46.219
G07         7.000    26133357.438 4                     -2799.247 4        24.844                                                                    26133356.870 5 107011720.22205     -2181.073 5        30.438
G11        11.000    23580751.265 6 123917624.16906     -3402.270 6        40.906    23580751.450 4  96559157.55104     -2651.115 4        27.688    23580751.272 6  96559155.53406     -2650.987 6        41.063    23580757.067 6  92535877.14706     -2540.387 6        39.906
G13        13.000    20104435.737 7 105649531.90807      -799.338 7        47.344    20104429.437 6  82324288.32706      -622.860 6        39.750
G14        31.000    25187866.447 6 132363147.76906      1871.784 6        36.906    25187867.583 3 103140123.04803      1458.505 3        21.344    25187867.833 6 103140129.06306      1458.556 6        39.531    25187873.252 6  98842638.76406      1397.514 6        38.000
G15        15.000    20661728.299 8 108578144.76408      1474.912 8        48.188    20661723.675 8  84606348.33508      1149.279 8        48.563    20661723.399 7  84606348.33907      1149.390 7        44.188
G18        39.000    23159746.531 7 121705333.13707      3038.240 7        43.094    23159743.194 5  94835336.55805      2367.458 5        30.875    23159743.845 6  94835331.57306      2367.443 6        41.938    23159748.525 6  90883882.97306      2268.807 6        40.781
G20         4.000    21279416.074 7 111824064.27907     -1366.356 7        46.219    21279411.263 6  87135607.29106     -1064.691 6        37.063
G22        34.000    25356302.643 4 133248273.96804      2157.481 4        29.156    25356304.544 1 103829837.95701      1681.212 1         6.500
G24         6.000    23713013.712 5 124612755.56405      4099.443 5        35.750    23713017.022 4  97100886.36304      3194.360 4        28.406    23713016.614 5  97100881.37905      3194.490 5        35.406    23713018.692 5  93055026.37805      3061.075 5        34.281
G29         3.000    24114114.456 6 126720479.14106     -2034.794 6        41.219    24114115.345 6  98743209.02806     -1585.553 6        36.531    24114115.503 6  98743212.01406     -1585.591 6        38.188
G30         1.000    23412564.018 6 123033843.16906     -2121.864 6        40.906    23412562.603 6  95870516.38206     -1653.402 6        38.406    23412562.433 6  95870515.38006     -1653.405 6        39.375    23412563.271 6  91875917.07106     -1584.400 6        41.281
J02        54.000    37947330.184 6 199414610.53106       354.910 6        38.250    37947339.720 6 155388065.13906       276.416 6        38.625    37947343.921 6 148913588.39906       264.913 6        37.344
J03        26.000    37206353.648 7 195520699.02207       400.976 7        45.156    37206350.879 7 152353773.41007       312.450 7        45.281    37206353.470 7 146005710.84607       299.461 7        42.750
J07        57.000    37285605.977 6 195937181.93206       176.726 6        37.406    37285603.222 7 152678308.74107       137.588 7        44.219    37285605.837 7 146316729.08307       131.908 7        42.969
R01         8.000    21495202.897 7 114904154.01107     -1824.127 7        45.969    21495202.577 6  89369887.91806     -1418.632 6        41.438
R02        24.000    20341042.796 8 108543718.82408       268.677 8        51.875    20341042.416 8  84422897.82208       208.976 8        48.438
R03        33.000    22719500.880 7 121619367.00107      2308.013 7        45.438    22719499.812 7  94592902.70707      1795.151 7        43.406
R11        37.000    22279706.786 7 119056042.63207        42.547 7        46.813    22279706.722 7  92599160.03407        33.086 7        47.406
R12        36.000    22279705.475 7 119014367.10007      3418.259 7        46.813    22279708.875 7  92566874.47707      2658.712 7        45.531
R17        32.000    20113413.728 8 107630935.74208      -580.315 8        51.500    20113411.822 8  83712940.66608      -451.318 8        48.625
R18        56.000    22121425.780 7 118085708.79507      2954.971 7        45.844    22121427.768 7  91844457.53007      2298.284 7        46.031
R24        18.000    21878917.197 7 116996342.43907     -3890.622 7        47.531    21878918.769 7  90997133.88507     -3026.013 7        42.969
> 2024 06 24 08 20 12.0000000  0 57
C01         9.000    36842050.500 7 191846225.39607       161.433 7        44.313    36842047.926 7 148347664.48707       124.846 7        45.156    36842049.735 7 155890772.42907       131.223 7        46.688
C02        60.000    39115138.630 6 203682801.17706       210.494 6        36.813    39115137.514 6 157500450.43606       162.883 6        40.344    39115139.112 6 165508958.01406       171.183 6        40.563
C03        10.000    37528764.485 7 195422126.53107       172.534 7        44.188    37528760.043 7 151112766.82507       133.298 7        42.281    37528761.815 7 158796474.28107       140.182 7        45.813
C04        14.000    37743892.753 7 196542354.81107       146.666 7        43.031    37743888.123 7 151978997.55907       113.400 7        42.906    37743889.292 7 159706748.80207       119.169 7        43.281
C05        58.000    41807487.338 5 217702551.66305       214.699 5        35.969    41807491.732 6 168341453.16606       165.830 6        38.000    41807491.130 6 176901178.94806       174.457 6        40.969
C06        45.000    39078141.403 5 203490154.50005      1503.843 5        35.906    39078140.691 6 157351529.72106      1162.776 6        36.125    39078139.257 6 165352438.05006      1221.985 6        40.625
C07        44.000    41329962.446 6 215215868.47506     -1264.882 6        38.500    41329969.964 6 166418540.09506      -977.983 6        37.875    41329965.921 6 174880492.11206     -1027.750 6        39.969
C08        40.000    36908334.779 7 192191393.14007       886.929 7        43.031    36908327.849 7 148614550.46207       685.774 7        43.906    36908327.386 7 156171218.83407       720.670 7        47.063
C09        49.000    40567447.813 4 211245373.00604      1401.769 4        29.438    40567456.646 5 163348357.84605      1083.666 5        31.063    40567451.210 5 171654194.46305      1138.579 5        31.688
C10        59.000    40835343.077 5 212640282.56805     -1393.341 5        32.438    40835353.952 5 164426950.22205     -1077.460 5        35.938    40835348.036 6 172787627.87806     -1132.334 6        36.906
C13        42.000    37379313.686 7 194643900.79207       936.864 7        43.281    37379315.882 7 150511024.82907       724.371 7        42.375    37379314.171 7 158164119.86007       761.252 7        47.063
C16        41.000    39143366.432 6 203829810.74606      1447.717 6        39.531    39143370.532 6 157614173.45406      1119.374 6        38.563    39143366.946 6 165628437.57206      1176.444 6        37.344
C23        55.000    24650107.471 7 128359695.52907      2903.660 7        44.313                                                                    24650102.115 7 104302797.63307      2359.525 7        46.375
C24        48.000    26192646.133 6 136391981.89206     -1621.709 6        40.688                                                                    26192645.393 7 110829651.69907     -1317.722 7        42.469
C25        23.000    23740786.652 7 123624548.45407       740.582 7        45.750                                                                    23740786.007 7 100455085.95607       601.675 7        47.906
C27        16.000    23663692.222 7 123223019.87007     -2240.189 7        46.281                                                                    23663693.430 8 100128788.48308     -1820.263 8        48.094
C28        46.000    26023055.070 5 135508765.20905     -3054.530 5        33.750                                                                    26023060.787 6 110111955.88106     -2482.050 6        38.250
C30        22.000    24110232.815 7 125548313.75107       119.494 7        44.875                                                                    24110235.147 7 102018301.66107        97.165 7        47.563
C32        50.000    23286496.339 8 121258925.49808      1450.967 8        48.094                                                                    23286496.414 8  98532821.09408      1179.025 8        50.625
C33        51.000    26047830.587 6 135637843.09806     -1939.318 6        41.875                                                                    26047845.488 7 110216903.07007     -1575.747 7        42.531
C38         2.000    36218364.229 8 188598532.60508       685.557 8        48.188                                                                    36218361.474 8 153251744.46008       557.113 8        51.563
C39        19.000    38204795.508 7 198942430.36007      1386.675 7        44.750                                                                    38204794.158 7 161657028.25307      1126.760 7        47.188
C40        27.000    41391073.822 5 215534043.99905     -1519.505 5        35.656                                                                    41391086.518 5 175139058.16105     -1234.795 5        33.906
C41        30.000    22835065.089 8 118908170.52308      -677.027 8        48.969                                                                    22835070.000 8  96622647.57108      -550.126 8        52.469
C59        43.000    37060631.227 7 192984435.26307       189.943 7        46.125                                                                    37060617.776 8 156815605.59508       154.376 8        49.469
C60        47.000    39643737.316 6 206435346.24806       181.758 6        41.625                                                                    39643723.547 7 167745570.97607       147.605 7        43.000
E04        20.000    24644388.609 7 129507167.14607      1342.317 7        46.000    24644388.198 7  96709917.09407      1002.384 7        44.969    24644385.741 7  99232772.99507      1028.600 7        46.844
E10        17.000    24068408.719 7 126480347.35907       816.055 7        47.281    24068407.303 7  94449610.72207       609.370 7        44.531    24068405.923 7  96913505.02907       625.289 7        47.625
E11        12.000    24649356.774 6 129533258.93906      2155.477 6        41.469    24649353.240 6  96729395.27406      1609.468 6        38.531    24649351.628 6  99252765.52306      1651.659 6        41.438
E12        25.000    23884874.405 7 125515854.22807      -606.424 7        42.469    23884871.065 7  93729357.85607      -452.895 7        42.250    23884869.362 7  96174463.39207      -464.652 7        45.469
E19        29.000    23980716.220 7 126019510.63007     -1108.320 7        42.406    23980713.369 6  94105468.11406      -827.535 6        39.344    23980711.710 7  96560386.11907      -849.134 7        42.125
E21        38.000    28425712.554 6 149378128.10706      2284.363 6        37.531    28425719.423 5 111548638.21105      1705.962 5        33.875    28425716.586 6 114458594.04606      1750.575 6        37.000
E27        35.000    28826572.307 6 151484664.20806       936.519 6        37.500    28826577.002 5 113121678.77605       699.356 5        35.438    28826573.839 6 116072669.74506       717.636 6        38.156
E33        21.000    26292531.726 6 138168140.56306     -2764.678 6        40.219    26292535.858 6 103177493.79606     -2064.635 6        39.594    26292533.532 7 105869073.92607     -2118.428 7        42.313
G05         5.000    20591037.953 7 108206634.60307      -109.613 7        46.844    20591032.661 8  84316837.40208       -85.413 8        49.625    20591033.169 7  84316835.40507       -85.407 7        46.031
G07         7.000    26133889.740 4                     -2799.036 4        28.313                                                                    26133888.707 5 107013900.96905     -2181.102 5        31.156
G11        11.000    23581398.719 6 123921026.53606     -3402.516 6        40.875    23581398.905 4  96561808.74004     -2651.305 4        27.750    23581398.777 6  96561806.72606     -2651.507 6        40.938    23581404.534 6  92538417.87406     -2540.871 6        40.656
G13        13.000    20104587.924 7 105650331.50707      -799.911 7        47.375    20104581.588 6  82324911.39206      -623.308 6        39.813
G14        31.000    25187510.504 6 132361276.35006      1871.236 6        37.406    25187511.472 3 103138664.80403      1458.106 3        21.531    25187511.285 6 103138670.82106      1457.915 6        39.406    25187517.287 6  98841241.26606      1397.322 6        38.781
G15        15.000    20661447.696 8 108576670.09208      1474.341 8        48.219    20661443.045 8  84605199.24408      1148.835 8        48.625    20661442.662 7  84605199.23707      1148.894 7        44.063
G18        39.000    23159168.261 7 121702295.17007      3037.617 7        43.125    23159165.112 5  94832969.31705      2366.975 5        30.906    23159165.759 6  94832964.31406      2367.031 6        41.719    23159170.413 6  90881614.34706      2268.437 6        41.625
G20         4.000    21279676.149 7 111825430.92107     -1366.994 7        46.281    21279671.315 6  87136672.20606     -1065.189 6        37.188
G22        34.000    25355891.889 4 133246116.27604      2157.848 4        29.531    25355893.968 1 103828156.60101      1681.461 1         6.875
G24         6.000    23712233.300 5 124608656.28305      4099.021 5        35.781    23712236.951 4  97097692.12304      3194.029 4        28.563    23712236.584 5  97097687.14705      3193.905 5        35.406    23712238.643 5  93051965.22305      3060.965 5        35.000
G29         3.000    24114501.783 6 126722514.28906     -2035.413 6        41.094    24114502.632 6  98744794.85206     -1586.034 6        36.563    24114502.957 6  98744797.82906     -1585.910 6        38.000
G30         1.000    23412967.715 6 123035965.31606     -2122.418 6        40.906    23412966.426 6  95872170.00206     -1653.831 6        38.438    23412966.431 6  95872168.99106     -1653.825 6        39.094    23412967.045 7  91877501.79007     -1584.970 7        42.281
J02        54.000    37947262.776 6 199414255.68906       354.669 6        38.125    37947271.897 6 155387788.63706       276.510 6        38.594    37947276.480 6 148913323.41106       264.847 6        38.281
J03        26.000    37206277.404 7 195520298.11507       400.719 7        45.063    37206274.490 7 152353461.00307       312.284 7        45.125    37206277.180 7 146005411.46107       299.340 7        43.813
J07        57.000    37285572.121 6 195937005.44606       176.281 6        37.094    37285569.497 7 152678171.20007       137.514 7        44.063    37285572.281 7 146316597.27707       131.679 7        43.906
R01         8.000    21495543.979 7 114905978.24607     -1824.405 7        45.781    21495544.005 6  89371306.76806     -1418.963 6        41.344
R02        24.000    20340992.512 8 108543450.29908       268.314 8        51.813    20340992.128 8  84422688.95808       208.673 8        48.406
R03        33.000    22719069.758 7 121617059.18307      2307.635 7        45.563    22719068.889 7  94591107.72907      1794.830 7        43.469
R11        37.000    22279698.895 7 119056000.56707        41.513 7        46.656    22279699.037 7  92599127.30707        32.278 7        47.281
R12        36.000    22279065.367 7 119010949.12007      3417.614 7        46.781    22279069.046 7  92564216.03407      2658.208 7        45.469
R17        32.000    20113522.157 8 107631516.53008      -581.441 8        51.438    20113520.199 8  83713392.37808      -452.163 8        48.656
R18        56.000    22120872.223 7 118082754.26307      2954.054 7        45.781    22120874.243 7  91842159.55407      2297.598 7        46.156
R24        18.000    21879644.899 7 117000233.31907     -3891.238 7        47.563    21879646.255 7  91000160.11907     -3026.545 7        42.781
> 2024 06 24 08 20 13.0000000  0 57
C01         9.000    36842019.297 7 191846063.65707       161.919 7        44.438    36842016.925 7 148347539.41507       125.245 7        45.719    36842018.666 7 155890640.99707       131.591 7        46.750
C02        60.000    39115098.242 6 203682590.35106       210.981 6        36.813    39115097.140 6 157500287.41806       163.244 6        40.719    39115098.671 6 165508786.71006       171.504 6        40.406
C03        10.000    37528731.275 7 195421953.73707       172.877 7        44.219    37528726.689 7 151112633.20807       133.746 7        42.719    37528728.654 7 158796333.87207       140.587 7        45.906
C04        14.000    37743864.595 7 196542207.86407       147.062 7        42.969    37743859.822 7 151978883.94307       113.693 7        43.375    37743861.147 7 159706629.39807       119.565 7        43.281
C05        58.000    41807446.083 5 217702336.81505       214.973 5        35.719    41807450.378 6 168341287.01806       166.260 6        38.344    41807449.843 6 176901004.36706       174.692 6        40.969
C06        45.000    39077852.545 6 203488650.51006      1504.057 6        36.000    39077852.084 6 157350366.75106      1163.135 6        36.688    39077850.443 6 165351215.94906      1222.220 6        40.813
C07        44.000    41330205.731 6 215217133.00906     -1264.286 6        38.156    41330212.869 6 166419517.89206      -977.600 6        38.188    41330208.732 6 174881519.63806     -1027.367 6        40.094
C08        40.000    36908164.408 7 192190505.92807       887.421 7        43.063    36908157.371 7 148613864.40807       686.260 7        44.250    36908157.014 7 156170497.90007       721.093 7        47.000
C09        49.000    40567178.979 4 211243971.47504      1401.459 4        29.313    40567187.167 5 163347274.08605      1083.783 5        31.750    40567181.906 5 171653055.55505      1139.168 5        31.688
C10        59.000    40835610.972 5 212641675.64405     -1392.917 5        32.188    40835621.670 6 164428027.42106     -1077.013 6        36.344    40835615.684 6 172788759.83506     -1131.720 6        36.781
C13        42.000    37379133.674 7 194642963.69407       937.399 7        43.375    37379135.957 7 150510300.21007       724.730 7        42.875    37379134.219 7 158163358.39107       761.733 7        47.063
C16        41.000    39143088.367 6 203828362.84006      1447.995 6        39.656    39143092.462 6 157613053.84406      1119.679 6        39.094    39143088.942 6 165627261.02306      1176.755 6        37.031
C23        55.000    24649549.792 7 128356791.68907      2903.970 7        44.281                                                                    24649544.475 7 104300438.03207      2359.684 7        46.375
C24        48.000    26192957.743 6 136393603.42506     -1621.496 6        40.594                                                                    26192956.631 7 110830969.33107     -1317.642 7        42.250
C25        23.000    23740644.470 7 123623807.93507       740.341 7        45.875                                                                    23740643.837 7 100454484.21707       601.694 7        47.875
C27        16.000    23664122.452 7 123225259.88807     -2240.020 7        46.313                                                                    23664123.627 8 100130608.68108     -1820.159 8        48.156
C28        46.000    26023641.750 5 135511819.42405     -3054.122 5        33.813                                                                    26023647.427 6 110114437.68006     -2481.619 6        38.250
C30        22.000    24110209.878 7 125548194.20207       119.513 7        44.938                                                                    24110212.192 7 102018204.52307        97.043 7        47.500
C32        50.000    23286217.641 8 121257474.26408      1451.437 8        48.125                                                                    23286217.725 8  98531641.85608      1179.385 8        50.563
C33        51.000    26048203.100 6 135639782.05806     -1938.905 6        41.844                                                                    26048217.812 7 110218478.64007     -1575.455 7        42.469
C38         2.000    36218232.536 8 188597846.76908       686.029 8        48.219                                                                    36218229.766 8 153251187.16308       557.497 8        51.531
C39        19.000    38204529.223 7 198941043.45607      1386.949 7        44.719                                                                    38204527.791 7 161655901.27707      1127.102 7        47.094
C40        27.000    41391365.677 5 215535563.19205     -1519.001 5        35.813                                                                    41391378.413 5 175140292.60705     -1234.209 5        34.063
C41        30.000    22835195.048 8 118908847.32008      -676.664 8        48.969                                                                    22835199.971 8  96623197.52508      -549.837 8        52.438
C59        43.000    37060594.765 7 192984245.03307       190.404 7        46.125                                                                    37060581.261 8 156815451.01308       154.762 8        49.438
C60        47.000    39643702.477 6 206435164.26806       182.247 6        41.563                                                                    39643688.588 7 167745423.09207       148.114 7        43.094
E04        20.000    24644133.139 7 129505824.63707      1342.568 7        45.906    24644132.738 7  96708914.57907      1002.539 7        45.594    24644130.299 7  99231744.32907      1028.698 7        47.063
E10        17.000    24068253.405 7 126479531.22107       816.094 7        47.344    24068252.043 7  94449001.25907       609.464 7        45.219    24068250.602 8  96912879.67108       625.349 8        48.125
E11        12.000    24648946.652 6 129531103.28806      2155.622 6        41.313    24648943.013 6  96727785.53506      1609.763 6        39.344    24648941.437 7  99251113.79807      1651.784 7        42.000
E12        25.000    23884989.802 7 125516460.59107      -606.428 7        42.531    23884986.409 7  93729810.65607      -452.858 7        42.844    23884984.769 7  96174928.00507      -464.581 7        45.813
E19        29.000    23980927.072 7 126020618.58507     -1107.791 7        42.438    23980924.355 6  94106295.49406      -827.342 6        40.000    23980922.563 7  96561235.07907      -848.905 7        42.688
E21        38.000    28425277.792 6 149375843.20306      2285.095 6        37.531    28425284.647 5 111546931.96105      1706.341 5        34.313    28425281.630 6 114456843.28106      1750.871 6        37.813
E27        35.000    28826393.995 6 151483727.49806       936.713 6        37.594    28826398.696 5 113120979.28805       699.301 5        35.750    28826395.646 6 116071952.02006       717.652 6        38.469
E33        21.000    26293057.804 6 138170905.09206     -2764.418 6        40.188    26293061.978 6 103179558.20506     -2064.406 6        40.063    26293059.462 7 105871192.19307     -2118.237 7        42.625
G05         5.000    20591058.711 7 108206744.12607      -109.568 7        46.750    20591053.503 8  84316922.74308       -85.377 8        49.531    20591053.987 7  84316920.74907       -85.310 7        45.938
G07         7.000    26134422.132 5                     -2798.876 5        30.906                                                                    26134421.686 5 107016081.69205     -2180.676 5        30.656
G11        11.000    23582046.144 6 123924428.97306     -3402.346 6        40.781    23582046.387 4  96564459.98104     -2651.176 4        27.688    23582046.207 6  96564457.95806     -2651.152 6        41.094    23582051.989 6  92540958.63106     -2540.640 6        41.469
G13        13.000    20104740.117 7 105651131.36607      -799.942 7        47.500    20104733.793 6  82325534.65706      -623.324 6        39.750
G14        31.000    25187154.686 6 132359405.04206      1871.499 6        37.156    25187155.347 3 103137206.63703      1458.321 3        21.594    25187155.404 6 103137212.64106      1458.205 6        39.406    25187161.296 6  98839843.85306      1397.557 6        39.438
G15        15.000    20661167.104 8 108575195.62608      1474.509 8        48.219    20661162.451 8  84604050.30808      1148.968 8        48.563    20661162.111 7  84604050.31907      1148.849 7        43.875
G18        39.000    23158590.358 7 121699257.43307      3037.677 7        42.969    23158587.061 5  94830602.24705      2367.022 5        30.750    23158587.674 6  94830597.25106      2367.058 6        41.625    23158592.355 7  90879345.91607      2268.363 7        42.469
G20         4.000    21279936.285 7 111826797.76507     -1366.841 7        46.313    21279931.416 6  87137737.27706     -1065.066 6        37.094
G22        34.000    25355481.256 4 133243958.56004      2158.203 4        29.969    25355483.370 1 103826475.24801      1681.730 1         7.250
G24         6.000    23711453.308 5 124604556.97805      4099.487 5        35.906    23711456.868 4  97094497.86204      3194.398 4        28.531    23711456.572 5  97094492.88205      3194.332 5        35.438    23711458.671 5  93048904.06805      3060.957 5        35.719
G29         3.000    24114889.131 6 126724549.54906     -2035.198 6        40.906    24114889.929 6  98746380.76306     -1585.863 6        36.406    24114890.356 6  98746383.74906     -1585.725 6        37.844
G30         1.000    23413371.566 6 123038087.72306     -2122.408 6        40.875    23413370.308 6  95873823.82206     -1653.817 6        38.406    23413370.400 6  95873822.82006     -1653.825 6        39.063    23413370.872 7  91879086.70207     -1584.998 7        42.813
J02        54.000    37947195.423 6 199413900.62506       355.271 6        37.719    37947204.289 6 155387511.97206       277.004 6        38.438    37947208.865 6 148913058.29206       265.296 6        39.063
J03        26.000    37206201.151 7 195519897.13607       401.112 7        45.094    37206198.284 7 152353148.55207       312.570 7        45.094    37206200.844 7 146005112.02307       299.545 7        44.469
J07        57.000    37285538.283 6 195936828.77706       176.889 6        37.281    37285535.954 7 152678033.55207       137.742 7        44.156    37285538.618 7 146316465.35807       132.083 7        44.563
R01         8.000    21495885.195 7 114907802.38707     -1823.972 7        45.719    21495885.255 6  89372725.54806     -1418.705 6        41.438
R02        24.000    20340942.165 8 108543181.79008       268.576 8        51.844    20340941.837 8  84422480.12008       208.914 8        48.375
R03        33.000    22718638.447 7 121614751.37107      2307.899 7        45.531    22718637.628 7  94589312.77007      1794.990 7        43.500
R11        37.000    22279691.113 7 119055959.16807        41.225 7        46.813    22279691.158 7  92599095.11207        31.981 7        47.250
R12        36.000    22278425.454 7 119007531.37507      3417.784 7        46.563    22278429.215 7  92561557.79707      2658.251 7        45.500
R17        32.000    20113630.909 8 107632098.09408      -581.861 8        51.469    20113628.895 8  83713844.70308      -452.475 8        48.688
R18        56.000    22120318.922 7 118079800.25007      2953.881 7        45.656    22120320.882 7  91839861.99507      2297.454 7        46.156
R24        18.000    21880372.702 7 117004124.37007     -3890.964 7        47.500    21880373.793 7  91003186.49007     -3026.398 7        42.688
> 2024 06 24 08 20 14.0000000  0 57
C01         9.000    36841988.273 7 191845902.14207       161.526 7        44.375    36841985.950 7 148347414.52407       124.862 7        45.063    36841987.633 7 155890509.75307       131.199 7        46.781
C02        60.000    39115057.546 6 203682379.75906       210.835 6        36.719    39115056.658 6 157500124.57106       162.930 6        40.281    39115058.243 6 165508615.59006       171.280 6        40.406
C03        10.000    37528698.024 7 195421781.18007       172.425 7        44.344    37528693.558 7 151112499.78007       133.403 7        42.156    37528695.506 7 158796193.65807       140.284 7        46.000
C04        14.000    37743836.371 7 196542061.15207       146.686 7        43.031    37743831.655 7 151978770.49107       113.415 7        42.656    37743833.021 7 159706510.18507       119.200 7        43.406
C05        58.000    41807404.806 5 217702122.17605       214.705 5        35.875    41807409.346 6 168341121.03706       166.074 6        37.500    41807408.696 6 176900829.95706       174.325 6        40.969
C06        45.000    39077563.961 5 203487146.84705      1503.747 5        35.906    39077563.119 6 157349204.02806      1162.554 6        36.156    39077561.707 6 165349994.09806      1221.713 6        40.844
C07        44.000    41330448.755 6 215218397.66506     -1264.392 6        38.219    41330455.428 6 166420495.79406      -978.031 6        37.250    41330451.616 6 174882547.26906     -1027.678 6        40.000
C08        40.000    36907994.054 7 192189618.93707       887.084 7        43.125    36907986.910 7 148613178.53307       686.023 7        43.563    36907986.652 7 156169777.14407       720.750 7        46.938
C09        49.000    40566910.580 4 211242570.14604      1400.947 4        28.688    40566917.974 5 163346190.49405      1083.651 5        30.750    40566912.698 5 171651916.90505      1138.473 5        31.000
C10        59.000    40835878.498 5 212643068.90805     -1393.344 5        32.438    40835889.261 5 164429104.76305     -1077.319 5        35.750    40835883.279 6 172789891.96206     -1132.262 6        36.906
C13        42.000    37378953.686 7 194642026.77207       937.060 7        43.219    37378955.836 7 150509575.72707       724.587 7        42.250    37378954.320 7 158162597.07407       761.351 7        47.188
C16        41.000    39142810.321 6 203826915.23806      1447.588 6        39.594    39142814.462 6 157611934.46406      1119.304 6        38.594    39142811.008 6 165626084.73106      1176.262 6        37.094
C23        55.000    24648992.228 7 128353888.24607      2903.408 7        44.281                                                                    24648986.905 7 104298078.75107      2359.229 7        46.375
C24        48.000    26193269.563 6 136395225.60406     -1622.283 6        40.594                                                                    26193268.046 7 110832287.49107     -1318.331 7        42.250
C25        23.000    23740502.496 7 123623068.14207       739.526 7        45.813                                                                    23740501.777 7 100453883.08607       600.909 7        47.906
C27        16.000    23664552.658 7 123227500.43507     -2240.633 7        46.250                                                                    23664553.924 8 100132429.31008     -1820.782 8        48.063
C28        46.000    26024228.223 5 135514873.82205     -3054.458 5        33.594                                                                    26024234.037 6 110116919.59106     -2481.933 6        38.156
C30        22.000    24110187.117 7 125548075.42807       118.559 7        44.906                                                                    24110189.363 7 102018108.01207        96.287 7        47.594
C32        50.000    23285939.020 8 121256023.38808      1450.844 8        48.125                                                                    23285939.117 8  98530462.89708      1178.919 8        50.625
C33        51.000    26048575.427 6 135641721.27506     -1939.254 6        41.688                                                                    26048590.282 7 110220054.40507     -1575.784 7        42.531
C38         2.000    36218100.840 8 188597161.17508       685.605 8        48.156                                                                    36218098.104 8 153250630.06308       557.079 8        51.531
C39        19.000    38204262.838 7 198939656.88707      1386.543 7        44.688                                                                    38204261.544 7 161654774.58207      1126.616 7        47.125
C40        27.000    41391657.327 5 215537082.50505     -1519.337 5        35.719                                                                    41391670.187 5 175141527.14005     -1234.303 5        33.969
C41        30.000    22835325.052 8 118909524.47608      -677.215 8        48.969                                                                    22835330.023 8  96623747.77008      -550.297 8        52.469
C59        43.000    37060558.304 7 192984055.03407       190.043 7        46.156                                                                    37060544.795 8 156815296.63108       154.349 8        49.500
C60        47.000    39643667.697 6 206434982.51806       181.839 6        41.656                                                                    39643653.665 7 167745275.41407       147.686 7        43.063
E04        20.000    24643877.758 7 129504482.60107      1341.950 7        46.000    24643877.348 7  96707912.41807      1002.055 7        44.594    24643874.943 7  99230716.01907      1028.178 7        46.406
E10        17.000    24068098.218 7 126478715.76807       815.187 7        47.281    24068096.928 7  94448392.32607       608.730 7        44.156    24068095.430 7  96912254.84807       624.625 7        47.438
E11        12.000    24648536.571 6 129528948.19806      2154.932 6        41.531    24648532.941 6  96726176.22206      1609.124 6        38.313    24648531.390 6  99249462.49806      1651.103 6        41.188
E12        25.000    23885105.292 7 125517067.64307      -607.252 7        42.625    23885101.886 6  93730263.98406      -453.454 6        41.875    23885100.284 7  96175393.15307      -465.419 7        45.188
E19        29.000    23981137.984 7 126021726.90307     -1108.329 7        42.281    23981135.303 6  94107123.15306      -827.711 6        38.938    23981133.493 6  96562084.30906      -849.263 6        41.906
E21        38.000    28424842.983 6 149373558.65006      2284.549 6        37.219    28424849.985 5 111545225.97305      1706.135 5        33.656    28424846.787 6 114455092.79406      1750.410 6        37.031
E27        35.000    28826215.865 6 151482791.41006       935.913 6        37.531    28826220.593 5 113120280.25505       698.862 5        34.438    28826217.551 6 116071234.73806       717.161 6        37.625
E33        21.000    26293584.008 6 138173670.02906     -2765.065 6        40.156    26293588.139 6 103181622.91806     -2064.843 6        39.219    26293585.572 7 105873310.77407     -2118.604 7        42.063
G05         5.000    20591079.636 7 108206854.23007      -110.239 7        46.844    20591074.453 8  84317008.53908       -85.901 8        49.531    20591074.962 7  84317006.54807       -85.931 7        46.063
G07         7.000    26134954.930 5                     -2799.371 5        30.188                                                                    26134955.265 5 107018262.72405     -2180.867 5        30.156
G11        11.000    23582693.706 6 123927831.82406     -3402.839 6        41.156    23582693.937 4  96567111.55204     -2651.555 4        27.813    23582693.693 6  96567109.53406     -2651.630 6        41.281    23582699.562 6  92543499.74306     -2541.306 6        40.469
G13        13.000    20104892.406 7 105651931.89007      -800.684 7        47.438    20104886.119 6  82326158.44306      -623.908 6        39.750
G14        31.000    25186798.644 6 132357534.21306      1870.757 6        37.250    25186799.335 3 103135748.85403      1457.725 3        21.594    25186799.405 6 103135754.86006      1457.633 6        39.438    25186805.323 6  98838446.80406      1396.981 6        38.344
G15        15.000    20660886.644 8 108573721.77408      1473.689 8        48.156    20660881.969 8  84602901.85408      1148.328 8        48.531    20660881.686 7  84602901.85507      1148.338 7        44.094
G18        39.000    23158012.353 7 121696220.31207      3036.943 7        43.000    23158009.117 5  94828235.66205      2366.444 5        30.688    23158009.721 6  94828230.66706      2366.397 6        41.844    23158014.475 6  90877077.93706      2267.749 6        41.281
G20         4.000    21280196.432 7 111828165.21407     -1367.576 7        46.250    21280191.633 6  87138802.82106     -1065.641 6        37.156
G22        34.000    25355070.670 5 133241801.21905      2157.400 5        30.344    25355072.867 1 103824794.20901      1681.037 1         6.625
G24         6.000    23710673.280 5 124600458.06105      4098.909 5        35.531    23710676.847 4  97091303.90804      3193.955 4        28.688    23710676.448 5  97091298.94905      3193.762 5        35.344    23710678.744 5  93045843.17605      3060.917 5        34.750
G29         3.000    24115276.670 6 126726585.34206     -2035.846 6        40.875    24115277.319 6  98747967.09106     -1586.367 6        36.406    24115277.949 6  98747970.07706     -1586.348 6        38.125
G30         1.000    23413775.462 6 123040210.80806     -2123.299 6        41.063    23413774.314 6  95875478.17006     -1654.520 6        38.438    23413774.374 6  95875477.15706     -1654.500 6        39.156    23413774.825 7  91880672.10807     -1585.472 7        42.000
J02        54.000    37947127.980 6 199413545.74406       354.984 6        37.750    37947136.753 6 155387235.45706       276.499 6        38.500    37947141.384 6 148912793.28106       265.066 6        38.031
J03        26.000    37206124.940 7 195519496.46507       400.595 7        45.094    37206122.021 7 152352836.34407       312.168 7        45.250    37206124.581 7 146004812.82807       299.135 7        43.406
J07        57.000    37285504.755 6 195936652.36706       176.525 6        37.375    37285502.459 7 152677896.07807       137.483 7        44.188    37285505.056 7 146316333.61407       131.642 7        43.656
R01         8.000    21496226.493 7 114909626.83807     -1824.456 7        45.750    21496226.587 6  89374144.57006     -1419.203 6        41.594
R02        24.000    20340891.919 8 108542913.74108       267.935 8        52.000    20340891.657 8  84422271.64208       208.316 8        48.469
R03        33.000    22718207.362 7 121612443.94207      2307.414 7        45.438    22718206.637 7  94587518.12107      1794.593 7        43.438
R11        37.000    22279683.570 7 119055918.84307        39.910 7        47.063    22279683.615 7  92599063.75407        31.055 7        47.125
R12        36.000    22277785.591 7 119004114.24707      3417.001 7        46.563    22277789.621 7  92558900.05007      2657.622 7        45.375
R17        32.000    20113739.759 8 107632680.80008      -583.129 8        51.531    20113737.806 8  83714297.92608      -453.557 8        48.750
R18        56.000    22119766.010 7 118076847.13607      2952.808 7        45.844    22119767.600 7  91837565.13407      2296.550 7        46.031
R24        18.000    21881100.346 7 117008015.96407     -3891.702 7        47.375    21881101.596 7  91006213.27407     -3026.897 7        42.656
> 2024 06 24 08 20 15.0000000  0 57
C01         9.000    36841957.249 7 191845740.61707       161.463 7        44.313    36841954.952 7 148347289.62307       124.864 7        44.813    36841956.654 7 155890378.50707       131.150 7        46.781
C02        60.000    39115017.292 6 203682169.15906       210.615 6        36.750    39115016.123 6 157499961.72606       162.901 6        40.094    39115017.717 6 165508444.45606       171.175 6        40.531
C03        10.000    37528664.911 7 195421608.59907       172.527 7        44.250    37528660.473 6 151112366.32506       133.497 6        41.969    37528662.344 7 158796053.43407       140.186 7        45.969
C04        14.000    37743808.137 7 196541914.43307       146.629 7        43.063    37743803.475 7 151978657.03307       113.370 7        42.438    37743804.809 7 159706390.96207       119.205 7        43.250
C05        58.000    41807363.819 5 217701907.54405       214.417 5        35.938    41807368.185 6 168340955.09106       165.863 6        37.563    41807367.427 6 176900655.54406       174.375 6        41.031
C06        45.000    39077275.293 5 203485643.23505      1503.497 5        35.938    39077274.916 5 157348041.33205      1162.682 5        35.906    39077273.006 6 165348772.30206      1221.732 6        40.719
C07        44.000    41330691.884 6 215219662.20406     -1264.733 6        38.031    41330698.494 6 166421473.61406      -977.882 6        36.844    41330694.395 6 174883574.79006     -1027.486 6        40.000
C08        40.000    36907823.909 7 192188731.90407       886.881 7        43.063    36907816.423 7 148612492.61707       685.917 7        43.375    36907816.314 7 156169056.34607       720.798 7        47.000
C09        49.000    40566641.233 4 211241168.86104      1401.149 4        28.219    40566648.923 5 163345106.96605      1083.541 5        30.688    40566643.561 5 171650778.27505      1138.367 5        31.688
C10        59.000    40836145.812 5 212644462.03405     -1393.188 5        32.188    40836156.454 5 164430182.02705     -1077.367 5        35.719    40836150.844 6 172791023.99806     -1132.143 6        36.844
C13        42.000    37378773.775 7 194641089.81407       936.938 7        43.281    37378776.007 6 150508851.21006       724.517 6        41.875    37378774.399 7 158161835.71407       761.396 7        47.000
C16        41.000    39142532.329 6 203825467.70506      1447.490 6        39.750    39142536.448 6 157610815.14806      1119.228 6        38.438    39142532.998 6 165624908.50706      1176.215 6        37.156
C23        55.000    24648434.800 7 128350984.95907      2903.137 7        44.313                                                                    24648429.355 7 104295719.59907      2358.995 7        46.375
C24        48.000    26193581.061 6 136396848.19406     -1622.904 6        40.688                                                                    26193579.577 7 110833605.97407     -1318.623 7        42.031
C25        23.000    23740360.431 7 123622328.85407       738.927 7        45.969                                                                    23740359.802 8 100453282.35008       600.458 8        48.000
C27        16.000    23664982.944 7 123229741.27507     -2241.047 7        46.219                                                                    23664984.283 8 100134250.17708     -1821.040 8        48.094
C28        46.000    26024814.664 5 135517928.08505     -3054.245 5        34.000                                                                    26024820.429 6 110119401.42506     -2481.787 6        38.281
C30        22.000    24110164.518 7 125547957.18107       117.865 7        44.875                                                                    24110166.621 7 102018011.91907        95.872 7        47.625
C32        50.000    23285660.434 8 121254572.59708      1450.637 8        48.031                                                                    23285660.497 8  98529284.01308      1178.818 8        50.625
C33        51.000    26048947.712 6 135643660.48306     -1939.215 6        41.688                                                                    26048962.684 7 110221630.17607     -1575.746 7        42.531
C38         2.000    36217969.170 8 188596475.58108       685.524 8        48.156                                                                    36217966.434 8 153250072.96208       557.058 8        51.563
C39        19.000    38203996.649 7 198938270.42007      1386.320 7        44.719                                                                    38203995.257 7 161653647.96707      1126.552 7        47.219
C40        27.000    41391949.177 5 215538601.66205     -1519.265 5        35.500                                                                    41391961.939 5 175142761.58805     -1234.308 5        33.844
C41        30.000    22835455.089 8 118910201.72608      -677.363 8        48.906                                                                    22835460.088 8  96624298.09308      -550.434 8        52.469
C59        43.000    37060521.748 7 192983865.03807       189.880 7        46.188                                                                    37060508.311 8 156815142.23908       154.351 8        49.500
C60        47.000    39643632.841 6 206434800.76106       181.659 6        41.688                                                                    39643618.679 7 167745127.72607       147.604 7        43.063
E04        20.000    24643622.421 7 129503140.78007      1341.679 7        45.906    24643621.975 7  96706910.40807      1001.823 7        44.188    24643619.602 7  99229687.87107      1027.999 7        46.188
E10        17.000    24067943.120 7 126477900.74007       814.717 7        47.250    24067941.872 7  94447783.70507       608.420 7        43.875    24067940.323 7  96911630.34907       624.339 7        47.250
E11        12.000    24648126.525 6 129526793.41506      2154.625 6        41.500    24648122.856 6  96724567.12406      1608.990 6        38.000    24648121.361 6  99247811.43806      1650.982 6        40.969
E12        25.000    23885220.937 7 125517675.13907      -607.851 7        42.500    23885217.481 6  93730717.62306      -453.903 6        41.531    23885215.894 7  96175858.63507      -465.691 7        44.969
E19        29.000    23981348.823 7 126022835.36107     -1108.642 7        42.250    23981346.243 6  94107950.88006      -827.869 6        38.500    23981344.382 6  96562933.64006      -849.349 6        41.719
E21        38.000    28424408.151 6 149371274.18706      2284.342 6        37.063    28424415.159 5 111543520.04305      1705.606 5        33.375    28424412.150 6 114453342.34106      1750.556 6        36.656
E27        35.000    28826037.850 6 151481855.67206       935.412 6        37.313    28826042.409 5 113119581.47205       698.610 5        34.156    28826039.512 6 116070517.75906       716.791 6        37.219
E33        21.000    26294110.148 6 138176435.12506     -2765.219 6        40.156    26294114.408 6 103183687.77106     -2065.069 6        38.531    26294111.772 6 105875429.49006     -2118.889 6        41.688
G05         5.000    20591100.611 7 108206964.68307      -110.643 7        46.844    20591095.469 8  84317094.60608       -86.221 8        49.531    20591096.037 7  84317092.61507       -86.242 7        46.156
G07         7.000    26135487.827 5                     -2799.445 5        31.563                                                                    26135488.505 4 107020443.86404     -2181.235 4        29.094
G11        11.000    23583341.405 6 123931234.88906     -3403.273 6        41.094    23583341.521 4  96569763.28204     -2651.893 4        27.719    23583341.315 6  96569761.26906     -2651.907 6        41.375    23583347.272 6  92546040.96606     -2541.306 6        40.125
G13        13.000    20105044.813 7 105652732.82307      -801.223 7        47.469    20105038.539 6  82326782.54706      -624.333 6        39.781
G14        31.000    25186442.977 6 132355663.59206      1870.467 6        36.938    25186443.371 3 103134291.23103      1457.491 3        21.750    25186443.681 6 103134297.24506      1457.561 6        39.406    25186449.402 6  98837049.92506      1396.837 6        38.000
G15        15.000    20660606.238 8 108572248.27608      1473.224 8        48.125    20660601.558 8  84601753.67708      1147.961 8        48.531    20660601.426 7  84601753.67707      1148.081 7        44.250
G18        39.000    23157434.478 7 121693183.55707      3036.487 7        42.875    23157431.236 5  94825869.36305      2366.091 5        30.625    23157431.733 6  94825864.36206      2366.149 6        41.750    23157436.607 6  90874810.24506      2267.429 6        40.969
G20         4.000    21280456.686 7 111829533.02807     -1368.080 7        46.188    21280451.935 6  87139868.64606     -1066.033 6        37.094
G22        34.000    25354659.920 5 133239643.87605      2157.826 5        30.250    25354662.327 1 103823113.13401      1681.381 1         8.188
G24         6.000    23709893.105 5 124596359.26005      4098.703 5        35.469    23709896.884 4  97088110.04104      3193.782 4        28.656    23709897.354 5  97088105.05705      3193.850 5        35.500    23709898.511 5  93042782.37605      3060.600 5        34.219
G29         3.000    24115664.212 6 126728621.40306     -2036.237 6        40.781    24115664.771 6  98749553.62806     -1586.675 6        36.344    24115665.617 6  98749556.60906     -1586.704 6        38.031
G30         1.000    23414179.433 6 123042334.26906     -2123.740 6        41.063    23414178.392 6  95877132.81606     -1654.865 6        38.469    23414178.560 6  95877131.81406     -1654.826 6        39.219    23414178.999 6  91882257.82906     -1585.832 6        41.469
J02        54.000    37947060.389 6 199413190.77406       354.928 6        37.875    37947069.422 6 155386958.86206       276.526 6        38.406    37947073.817 6 148912528.23106       264.859 6        37.531
J03        26.000    37206048.767 7 195519095.86007       400.449 7        45.125    37206045.900 7 152352524.18307       312.033 7        45.156    37206048.333 7 146004513.67007       299.076 7        43.094
J07        57.000    37285471.307 6 195936475.92206       176.470 6        37.281    37285468.993 7 152677758.58407       137.478 7        44.125    37285471.450 7 146316201.85407       131.778 7        43.188
R01         8.000    21496567.817 7 114911451.36207     -1824.655 7        45.844    21496568.044 6  89375563.63406     -1419.139 6        41.469
R02        24.000    20340841.693 8 108542645.94008       267.598 8        51.969    20340841.505 8  84422063.35008       208.122 8        48.531
R03        33.000    22717776.050 7 121610136.64107      2307.139 7        45.500    22717775.555 7  94585723.55607      1794.444 7        43.188
R11        37.000    22279676.325 7 119055879.35907        39.013 7        47.000    22279676.047 7  92599033.04407        30.322 7        47.094
R12        36.000    22277145.919 7 119000697.46407      3416.539 7        46.625    22277149.801 7  92556242.55707      2657.342 7        45.250
R17        32.000    20113848.691 8 107633264.41108      -584.140 8        51.563    20113846.880 8  83714751.84808      -454.290 8        48.719
R18        56.000    22119213.012 7 118073894.67207      2952.072 7        45.656    22119214.319 7  91835268.77607      2296.037 7        45.875
R24        18.000    21881828.088 7 117011907.80407     -3892.119 7        47.469    21881829.688 7  91009240.25107     -3027.124 7        42.750
> 2024 06 24 08 20 16.0000000  0 57
C01         9.000    36841926.185 7 191845579.06107       161.238 7        44.531    36841923.848 7 148347164.70307       124.731 7        44.688    36841925.589 7 155890247.19207       131.177 7        46.781
C02        60.000    39114976.981 6 203681958.53006       210.222 6        36.875    39114975.610 6 157499798.84706       162.650 6        40.031    39114977.316 6 165508273.29606       170.805 6        40.531
C03        10.000    37528631.759 7 195421436.00107       172.263 7        44.250    37528627.365 6 151112232.86806       133.063 6        41.875    37528629.205 7 158795913.17707       139.989 7        46.000
C04        14.000    37743779.903 7 196541767.67007       146.467 7        43.094    37743775.411 7 151978543.55907       113.158 7        42.375    37743776.620 7 159706271.71107       119.050 7        43.313
C05        58.000    41807322.662 5 217701692.85905       214.243 5        35.781    41807326.809 6 168340789.07606       165.807 6        37.219    41807326.167 6 176900481.10406       174.179 6        40.938
C06        45.000    39076986.357 6 203484139.66306      1503.092 6        36.188    39076985.953 5 157346878.67005      1162.481 5        35.688    39076984.314 6 165347550.52306      1221.433 6        40.906
C07        44.000    41330934.848 6 215220926.59206     -1264.685 6        37.969    41330941.430 6 166422451.30106      -977.733 6        36.875    41330937.168 6 174884602.21806     -1027.652 6        39.625
C08        40.000    36907653.388 7 192187844.80607       886.789 7        43.125    36907646.056 7 148611806.66807       685.755 7        43.313    36907645.971 7 156168335.52107       720.560 7        46.906
C09        49.000    40566372.534 4 211239767.60704      1400.810 4        28.344    40566379.753 5 163344023.41605      1083.234 5        30.875    40566374.741 5 171649639.61705      1138.125 5        31.594
C10        59.000    40836413.085 5 212645855.06705     -1393.128 5        32.375    40836424.025 5 164431259.20105     -1077.348 5        35.813    40836418.342 6 172792155.95206     -1132.255 6        36.656
C13        42.000    37378593.830 7 194640152.76707       936.715 7        43.281    37378596.064 6 150508126.63106       724.326 6        41.906    37378594.471 7 158161074.29407       761.192 7        47.063
C16        41.000    39142254.288 6 203824020.24406      1447.035 6        39.656    39142258.628 6 157609695.88306      1118.896 6        38.219    39142255.020 6 165623732.30906      1175.954 6        37.063
C23        55.000    24647877.365 7 128348081.79907      2902.733 7        44.531                                                                    24647871.801 7 104293360.55007      2358.743 7        46.406
C24        48.000    26193892.973 6 136398471.16406     -1623.566 6        40.750                                                                    26193891.255 7 110834924.75907     -1319.148 7        42.219
C25        23.000    23740218.506 7 123621590.03507       738.199 7        45.969                                                                    23740217.904 8 100452682.00308       599.829 8        48.000
C27        16.000    23665413.395 7 123231982.37207     -2241.577 7        46.219                                                                    23665414.662 8 100136071.24508     -1821.473 8        48.125
C28        46.000    26025400.640 5 135520982.23605     -3054.383 5        34.188                                                                    26025406.891 6 110121883.16506     -2481.964 6        38.125
C30        22.000    24110141.892 7 125547839.41807       117.103 7        45.031                                                                    24110144.014 7 102017916.23007        95.261 7        47.594
C32        50.000    23285381.963 8 121253121.88008      1450.299 8        48.094                                                                    23285381.892 8  98528105.19008      1178.473 8        50.531
C33        51.000    26049320.127 6 135645599.67706     -1939.567 6        41.719                                                                    26049335.036 7 110223205.92407     -1575.989 7        42.469
C38         2.000    36217837.602 8 188595789.95908       685.194 8        48.250                                                                    36217834.764 8 153249515.83708       556.803 8        51.531
C39        19.000    38203730.581 7 198936884.01807      1385.979 7        44.813                                                                    38203729.016 7 161652521.40907      1126.204 7        47.125
C40        27.000    41392240.989 5 215540120.67005     -1519.333 5        35.375                                                                    41392253.564 5 175143995.92005     -1234.719 5        33.750
C41        30.000    22835585.146 8 118910879.06208      -677.776 8        49.000                                                                    22835590.179 8  96624848.48108      -550.689 8        52.438
C59        43.000    37060485.242 7 192983674.99907       189.698 7        46.188                                                                    37060471.840 8 156814987.82208       154.118 8        49.469
C60        47.000    39643597.824 6 206434618.97506       181.537 6        41.688                                                                    39643583.760 7 167744980.01007       147.352 7        42.969
E04        20.000    24643367.126 7 129501799.12907      1341.229 7        45.969    24643366.687 7  96705908.53407      1001.537 7        44.125    24643364.314 7  99228659.86207      1027.655 7        46.094
E10        17.000    24067788.147 7 126477086.13507       813.989 7        47.406    24067786.925 7  94447175.39807       607.837 7        43.656    24067785.282 7  96911006.17407       623.792 7        47.156
E11        12.000    24647716.492 6 129524638.91906      2153.945 6        41.656    24647712.891 6  96722958.25606      1608.495 6        37.625    24647711.373 6  99246160.59206      1650.408 6        41.063
E12        25.000    23885336.598 7 125518283.04907      -608.498 7        42.625    23885333.155 6  93731171.58706      -454.412 6        41.156    23885331.638 7  96176324.44507      -466.278 7        44.719
E19        29.000    23981559.671 7 126023943.90107     -1109.025 7        42.469    23981557.095 6  94108778.69206      -828.153 6        38.438    23981555.364 6  96563783.05906      -849.789 6        41.656
E21        38.000    28423973.493 6 149368989.75206      2283.983 6        37.250    28423980.137 5 111541814.14405      1705.740 5        32.875    28423977.472 6 114451591.96006      1750.076 6        36.688
E27        35.000    28825859.841 6 151480920.27906       934.730 6        37.250    28825864.388 5 113118882.98405       698.158 5        33.844    28825861.541 6 116069801.02306       716.265 6        37.063
E33        21.000    26294636.333 6 138179200.35606     -2765.564 6        40.281    26294640.694 6 103185752.72306     -2065.384 6        38.500    26294637.980 6 105877548.29706     -2119.142 6        41.750
G05         5.000    20591121.698 7 108207075.44807      -111.316 7        46.938    20591116.549 8  84317180.91608       -86.740 8        49.531    20591117.020 7  84317178.92207       -86.686 7        46.188
G07         7.000    26136020.437 5                     -2799.490 5        31.781
G11        11.000    23583989.177 6 123934638.10606     -3403.602 6        40.938    23583989.115 4  96572415.13504     -2652.155 4        27.688    23583989.179 6  96572413.13306     -2652.099 6        41.219    23583994.971 6  92548582.34206     -2541.678 6        39.875
G13        13.000    20105197.305 7 105653534.14907      -801.927 7        47.500    20105191.030 6  82327406.95806      -624.880 6        39.813
G14        31.000    25186087.027 6 132353793.20506      1869.874 6        37.031    25186087.448 3 103132833.79103      1457.045 3        21.656    25186087.908 6 103132839.79806      1457.120 6        39.750    25186093.496 6  98835653.21306      1396.343 6        37.813
G15        15.000    20660325.872 8 108570775.10608      1472.662 8        48.094    20660321.214 8  84600605.75408      1147.526 8        48.531    20660321.043 7  84600605.75707      1147.562 7        44.219
G18        39.000    23156856.748 7 121690147.15307      3035.898 7        42.844    23156853.404 5  94823503.33605      2365.633 5        30.594    23156854.179 6  94823498.34406      2365.719 6        41.875    23156858.776 6  90872542.80106      2267.089 6        40.719
G20         4.000    21280717.036 7 111830901.15507     -1368.699 7        46.125    21280712.295 6  87140934.71906     -1066.518 6        37.094
G22        34.000    25354249.802 4 133237486.57904      2157.512 4        29.813    25354251.832 1 103821432.12001      1681.222 1         9.031
G24         6.000    23709113.028 5 124592260.54905      4098.429 5        35.594    23709116.948 4  97084916.25004      3193.576 4        28.594    23709116.952 5  97084911.29405      3193.451 5        35.625    23709118.525 5  93039721.67705      3060.423 5        33.969
G29         3.000    24116051.704 6 126730657.71406     -2036.826 6        40.625    24116052.278 6  98751140.36006     -1587.130 6        36.281    24116053.151 6  98751143.34006     -1586.983 6        38.031
G30         1.000    23414583.408 6 123044458.13206     -2124.420 6        40.938    23414582.555 6  95878787.77506     -1655.392 6        38.469    23414582.489 6  95878786.76906     -1655.389 6        39.156    23414583.199 6  91883843.82006     -1586.254 6        41.406
J02        54.000    37946992.643 6 199412835.72306       354.748 6        37.844    37947001.953 6 155386682.18406       276.532 6        38.031    37947006.172 6 148912263.09506       264.966 6        37.344
J03        26.000    37205972.516 7 195518695.28407       400.127 7        45.219    37205969.733 7 152352212.04707       311.896 7        45.250    37205972.116 7 146004214.54007       298.906 7        42.938
J07        57.000    37285437.720 6 195936299.43206       176.240 6        37.688    37285435.313 7 152677621.07207       137.304 7        44.188    37285437.848 7 146316070.06807       131.660 7        43.125
R01         8.000    21496909.157 7 114913275.91807     -1824.994 7        45.875    21496909.175 6  89376982.72706     -1419.361 6        41.531
R02        24.000    20340791.551 8 108542378.34608       267.084 8        52.063    20340791.423 8  84421855.22808       207.792 8        48.563
R03        33.000    22717344.960 7 121607829.44507      2306.746 7        45.625    22717344.361 7  94583929.08507      1794.102 7        43.125
R11        37.000    22279669.290 7 119055840.65907        37.908 7        47.094    22279668.786 7  92599002.95407        29.510 7        47.156
R12        36.000    22276506.261 7 118997280.99307      3415.892 7        46.688    22276510.288 7  92553585.30907      2656.841 7        45.281
R17        32.000    20113957.812 8 107633848.92008      -585.335 8        51.594    20113955.952 8  83715206.47308      -455.235 8        48.844
R18        56.000    22118659.969 7 118070942.85107      2951.078 7        45.594    22118661.253 7  91832972.91607      2295.328 7        45.844
R24        18.000    21882555.898 7 117015799.92107     -3892.720 7        47.500    21882557.556 7  91012267.44707     -3027.587 7        42.781
> 2024 06 24 08 20 17.0000000  0 57
C01         9.000    36841895.169 7 191845417.46307       162.009 7        44.406    36841892.810 7 148347039.74207       125.337 7        44.688    36841894.579 7 155890115.88407       131.748 7        46.719
C02        60.000    39114936.481 6 203681747.83806       211.154 6        36.875    39114934.846 6 157499635.92106       163.370 6        39.906    39114936.964 6 165508102.09106       171.573 6        40.656
C03        10.000    37528598.606 7 195421263.36707       172.970 7        44.375    37528594.136 6 151112099.36606       133.865 6        41.906    37528596.070 7 158795772.89107       140.662 7        46.000
C04        14.000    37743751.615 7 196541620.87407       147.348 7        43.031    37743747.208 7 151978430.03907       113.977 7        42.531    37743748.476 7 159706152.42207       119.717 7        43.313
C05        58.000    41807281.286 5 217701478.13205       215.051 5        35.594    41807285.541 6 168340623.05006       166.283 6        37.313    41807284.966 6 176900306.63306       174.916 6        41.000
C06        45.000    39076697.358 6 203482636.13206      1503.849 6        36.250    39076696.914 5 157345716.06205      1162.978 5        35.719    39076695.580 6 165346328.78106      1222.039 6        40.656
C07        44.000    41331177.729 6 215222190.84606     -1263.674 6        37.875    41331184.172 6 166423428.88106      -977.082 6        37.094    41331179.828 6 174885629.51806     -1027.011 6        39.594
C08        40.000    36907482.881 7 192186957.64507       887.598 7        43.125    36907475.855 7 148611120.64307       686.419 7        43.375    36907475.585 7 156167614.61507       721.352 7        46.906
C09        49.000    40566102.829 4 211238366.32004      1401.786 4        28.781    40566110.747 5 163342939.81905      1084.306 5        30.625    40566105.698 5 171648500.97805      1138.661 5        31.031
C10        59.000    40836680.537 5 212647247.98905     -1392.408 5        32.375    40836691.504 5 164432336.28705     -1076.635 5        35.875    40836685.974 6 172793287.80506     -1131.538 6        37.063
C13        42.000    37378413.869 7 194639215.65407       937.573 7        43.281    37378416.168 6 150507401.99206       724.905 6        41.938    37378414.508 7 158160312.80207       761.895 7        46.938
C16        41.000    39141976.296 6 203822572.82206      1447.902 6        39.625    39141980.780 6 157608576.64806      1119.375 6        38.406    39141977.107 6 165622556.18006      1176.364 6        37.125
C23        55.000    24647319.923 7 128345178.77007      2903.411 7        44.469                                                                    24647314.315 7 104291001.60107      2359.229 7        46.344
C24        48.000    26194204.742 6 136400094.50306     -1623.251 6        40.469                                                                    26194203.067 7 110836243.85307     -1318.743 7        42.375
C25        23.000    23740076.631 7 123620851.69207       738.467 7        45.906                                                                    23740076.135 8 100452082.03508       600.131 8        48.000
C27        16.000    23665843.818 7 123234223.73107     -2241.046 7        46.438                                                                    23665845.084 8 100137892.52708     -1821.011 8        48.094
C28        46.000    26025986.906 5 135524036.24705     -3053.557 5        34.563                                                                    26025993.305 6 110124364.78606     -2481.054 6        38.031
C30        22.000    24110119.395 7 125547722.16207       117.392 7        45.031                                                                    24110121.498 7 102017820.95107        95.414 7        47.625
C32        50.000    23285103.445 7 121251671.22407      1451.001 7        47.969                                                                    23285103.303 8  98526926.41208      1179.077 8        50.500
C33        51.000    26049692.586 6 135647538.84406     -1938.658 6        41.781                                                                    26049707.472 7 110224781.65707     -1575.309 7        42.406
C38         2.000    36217705.953 8 188595104.29908       686.126 8        48.219                                                                    36217703.081 8 153248958.68108       557.560 8        51.469
C39        19.000    38203464.426 7 198935497.68707      1386.782 7        44.813                                                                    38203462.769 7 161651394.90007      1126.854 7        47.125
C40        27.000    41392532.640 5 215541639.53905     -1518.484 5        35.031                                                                    41392545.216 5 175145230.09605     -1233.827 5        33.875
C41        30.000    22835715.230 8 118911556.47408      -677.044 8        49.094                                                                    22835720.295 8  96625398.93108      -550.102 8        52.438
C59        43.000    37060448.669 7 192983484.92107       190.478 7        46.250                                                                    37060435.338 8 156814833.36108       154.806 8        49.438
C60        47.000    39643562.909 6 206434437.13706       182.329 6        41.719                                                                    39643548.819 7 167744832.25507       148.074 7        43.000
E04        20.000    24643111.897 7 129500457.69307      1341.760 7        46.031    24643111.409 7  96704906.80307      1001.980 7        44.156    24643109.035 7  99227632.00107      1028.173 7        46.188
E10        17.000    24067633.211 7 126476271.94107       814.366 7        47.344    24067631.939 7  94446567.38607       608.196 7        43.844    24067630.388 7  96910382.30907       624.061 7        47.188
E11        12.000    24647306.587 6 129522484.70706      2154.578 6        41.625    24647302.989 6  96721349.57306      1608.938 6        37.813    24647301.402 6  99244509.95006      1650.982 6        40.844
E12        25.000    23885452.416 7 125518891.38007      -608.011 7        42.656    23885448.899 6  93731625.85406      -454.041 6        41.438    23885447.414 7  96176790.55707      -465.917 7        44.906
E19        29.000    23981770.563 7 126025052.56907     -1108.337 7        42.563    23981768.055 6  94109606.58806      -827.827 6        38.656    23981766.374 6  96564632.55306      -849.399 6        41.875
E21        38.000    28423538.680 6 149366705.38706      2284.727 6        37.156    28423545.318 5 111540108.28605      1706.073 5        33.125    28423542.681 6 114449841.59106      1750.600 6        36.594
E27        35.000    28825681.888 6 151479985.22106       935.315 6        36.906    28825686.418 5 113118184.70305       698.596 5        34.313    28825683.550 6 116069084.53406       716.857 6        36.844
E33        21.000    26295162.663 6 138181965.72106     -2765.063 6        40.219    26295166.823 6 103187817.74806     -2064.770 6        38.719    26295164.254 6 105879667.21106     -2118.798 6        41.813
G05         5.000    20591142.871 7 108207186.52607      -110.772 7        46.875    20591137.690 8  84317267.46908       -86.314 8        49.563    20591138.264 7  84317265.47007       -86.345 7        46.125
G07         7.000    26136553.647 5                     -2799.555 5        31.313
G11        11.000    23584636.882 6 123938041.50606     -3403.117 6        40.844    23584636.754 4  96575067.13004     -2651.773 4        27.625    23584636.978 6  96575065.10806     -2651.616 6        40.969    23584642.551 6  92551123.81206     -2541.118 6        39.938
G13        13.000    20105349.820 7 105654335.85107      -801.507 7        47.500    20105343.588 6  82328031.66106      -624.550 6        39.844
G14        31.000    25185731.145 6 132351923.04606      1870.548 6        36.563    25185731.529 3 103131376.52103      1457.560 3        21.938    25185731.646 6 103131382.50606      1457.657 6        39.688    25185737.495 6  98834256.64606      1396.825 6        37.906
G15        15.000    20660045.623 8 108569302.27108      1473.108 8        48.125    20660040.932 8  84599458.09108      1147.874 8        48.531    20660040.809 7  84599458.09707      1147.911 7        44.094
G18        39.000    23156278.965 7 121687111.10307      3036.269 7        42.656    23156275.666 5  94821137.58705      2365.922 5        30.563    23156276.537 6  94821132.59006      2365.891 6        41.781    23156281.137 6  90870275.60406      2267.517 6        40.844
G20         4.000    21280977.438 7 111832269.61307     -1368.206 7        46.125    21280972.714 6  87142001.04906     -1066.133 6        37.063
G22        34.000    25353839.624 5 133235329.36805      2157.508 5        30.281    25353841.324 1 103819751.17001      1681.145 1         8.563
G24         6.000    23708333.243 5 124588161.92905      4099.106 5        35.500    23708337.021 4  97081722.52804      3194.098 4        28.563    23708336.708 5  97081717.54305      3194.043 5        35.188    23708338.303 5  93036661.01005      3061.178 5        34.250
G29         3.000    24116439.088 6 126732694.26006     -2036.278 6        40.594    24116439.802 6  98752727.27606     -1586.704 6        36.188    24116440.961 6  98752730.26106     -1586.741 6        37.875
G30         1.000    23414987.661 6 123046582.37406     -2124.113 6        40.938    23414986.786 6  95880443.02706     -1655.149 6        38.469    23414986.624 6  95880442.01606     -1655.054 6        39.000    23414987.352 6  91885430.09106     -1586.018 6        41.281
J02        54.000    37946925.023 6 199412480.56206       355.591 6        37.656    37946934.537 6 155386405.45106       277.086 6        37.969    37946938.597 6 148911997.85806       265.710 6        37.031
J03        26.000    37205896.221 7 195518294.74907       400.972 7        45.188    37205893.504 7 152351899.93807       312.502 7        45.188    37205895.886 7 146003915.44007       299.456 7        43.156
J07        57.000    37285404.066 6 195936122.92306       177.043 6        37.438    37285401.706 7 152677483.51707       137.870 7        44.219    37285404.329 7 146315938.24707       132.154 7        43.188
R01         8.000    21497250.546 7 114915100.49007     -1824.157 7        45.750    21497250.378 6  89378401.83406     -1418.725 6        41.500
R02        24.000    20340741.491 8 108542110.95008       267.777 8        52.156    20340741.249 8  84421647.25008       208.312 8        48.469
R03        33.000    22716914.129 7 121605522.36507      2307.395 7        45.594    22716913.285 7  94582134.68507      1794.802 7        43.094
R11        37.000    22279662.398 7 119055802.75307        37.899 7        47.094    22279661.683 7  92598973.46707        29.495 7        47.281
R12        36.000    22275866.945 7 118993864.84407      3416.398 7        46.719    22275870.421 7  92550928.30207      2657.211 7        45.250
R17        32.000    20114067.242 8 107634434.34808      -585.424 8        51.625    20114065.431 8  83715661.79608      -455.304 8        48.813
R18        56.000    22118107.013 7 118067991.66207      2951.335 7        45.531    22118108.243 7  91830677.53807      2295.586 7        45.813
R24        18.000    21883283.857 7 117019692.36407     -3892.150 7        47.563    21883285.442 7  91015294.89207     -3027.201 7        42.750
> 2024 06 24 08 20 18.0000000  0 57
C01         9.000    36841864.199 7 191845255.87507       161.586 7        44.500    36841861.728 7 148346914.79607       124.899 7        44.625    36841863.528 7 155889984.59107       131.309 7        46.688
C02        60.000    39114895.955 6 203681537.14806       210.758 6        36.781    39114894.566 6 157499473.01006       162.887 6        40.063    39114896.558 6 165507930.89206       171.155 6        40.531
C03        10.000    37528565.512 7 195421090.71307       172.660 7        44.344    37528561.060 6 151111965.87306       133.439 6        41.656    37528562.918 7 158795632.61507       140.175 7        45.969
C04        14.000    37743723.417 7 196541474.07807       146.833 7        43.156    37743718.818 7 151978316.52607       113.494 7        42.438    37743720.282 7 159706033.14707       119.222 7        43.219
C05        58.000    41807240.147 5 217701263.43105       214.761 5        35.813    41807244.505 6 168340457.01406       166.016 6        37.250    41807243.715 6 176900132.15206       174.439 6        40.906
C06        45.000    39076408.585 5 203481132.66405      1503.404 5        35.906    39076407.989 5 157344553.47505      1162.508 5        35.750    39076406.953 6 165345107.09706      1221.583 6        40.531
C07        44.000    41331420.330 6 215223455.00106     -1264.251 6        38.063    41331427.339 6 166424406.41706      -977.532 6        36.844    41331422.564 6 174886656.72406     -1027.203 6        39.313
C08        40.000    36907312.304 7 192186070.45907       887.142 7        43.031    36907305.609 7 148610434.61307       685.999 7        43.219    36907305.173 7 156166893.70707       720.927 7        46.844
C09        49.000    40565834.538 4 211236965.10604      1400.863 4        28.875    40565842.078 5 163341856.36505      1083.333 5        31.063    40565836.851 5 171647362.31905      1138.729 5        31.594
C10        59.000    40836947.942 5 212648640.88005     -1393.146 5        32.344    40836958.985 5 164433413.31605     -1077.035 5        35.500    40836953.508 6 172794419.61006     -1131.812 6        37.219
C13        42.000    37378233.812 7 194638278.49307       937.186 7        43.313    37378236.160 6 150506677.31906       724.653 6        41.875    37378234.519 7 158159551.29307       761.457 7        46.969
C16        41.000    39141698.293 6 203821125.47906      1447.163 6        39.531    39141702.837 6 157607457.47206      1119.028 6        38.313    39141699.136 6 165621380.09306      1175.979 6        37.188
C23        55.000    24646762.412 7 128342275.90507      2902.811 7        44.438                                                                    24646756.852 7 104288642.80107      2358.647 7        46.281
C24        48.000    26194516.436 6 136401718.26606     -1623.956 6        40.656                                                                    26194515.019 7 110837563.29907     -1319.711 7        42.469
C25        23.000    23739935.010 7 123620113.85007       737.612 7        46.031                                                                    23739934.428 7 100451482.48107       599.292 7        47.906
C27        16.000    23666274.354 7 123236465.39907     -2241.856 7        46.438                                                                    23666275.569 8 100139714.06108     -1821.665 8        48.063
C28        46.000    26026573.301 5 135527090.18705     -3053.674 5        34.281                                                                    26026579.725 6 110126846.37006     -2481.639 6        38.000
C30        22.000    24110097.051 7 125547605.43007       116.452 7        45.125                                                                    24110099.055 7 102017726.09507        94.606 7        47.563
C32        50.000    23284824.966 8 121250220.68108      1450.467 8        48.063                                                                    23284824.714 8  98525747.73208      1178.569 8        50.500
C33        51.000    26050065.112 6 135649478.02606     -1939.064 6        41.813                                                                    26050079.852 7 110226357.40507     -1575.809 7        42.406
C38         2.000    36217574.263 8 188594418.64808       685.664 8        48.250                                                                    36217571.407 8 153248401.53808       557.108 8        51.438
C39        19.000    38203198.165 7 198934111.46407      1386.162 7        44.906                                                                    38203196.570 7 161650268.48707      1126.344 7        47.125
C40        27.000    41392824.511 5 215543158.26805     -1518.926 5        34.719                                                                    41392836.956 5 175146464.16705     -1233.919 5        33.250
C41        30.000    22835845.372 8 118912233.99308      -677.561 8        49.063                                                                    22835850.398 8  96625949.47508      -550.608 8        52.406
C59        43.000    37060412.077 7 192983294.84107       190.059 7        46.281                                                                    37060398.827 8 156814678.91108       154.431 8        49.375
C60        47.000    39643528.106 6 206434255.32006       181.779 6        41.688                                                                    39643513.944 7 167744684.50307       147.756 7        42.906
E04        20.000    24642856.674 7 129499116.46907      1341.131 7        45.906    24642856.230 7  96703905.25107      1001.428 7        44.188    24642853.787 7  99226604.31607      1027.608 7        46.063
E10        17.000    24067478.377 7 126475458.19107       813.519 7        47.438    24067477.035 7  94445959.72207       607.445 7        43.688    24067475.519 7  96909758.78807       623.263 7        47.125
E11        12.000    24646896.730 6 129520330.79106      2153.710 6        41.500    24646893.004 6  96719741.14106      1608.377 6        37.906    24646891.557 6  99242859.55406      1650.228 6        40.813
E12        25.000    23885568.346 7 125519500.16607      -608.970 7        42.500    23885564.790 6  93732080.47006      -454.900 6        41.219    23885563.264 7  96177257.03707      -466.770 7        44.688
E19        29.000    23981981.541 7 126026161.38007     -1108.872 7        42.469    23981979.097 6  94110434.59606      -828.118 6        38.500    23981977.365 6  96565482.15206      -849.642 6        41.594
E21        38.000    28423104.017 6 149364421.10006      2284.238 6        37.188    28423110.479 5 111538402.48605      1705.615 5        32.813    28423108.062 6 114448091.28606      1750.426 6        36.563
E27        35.000    28825504.055 6 151479050.53506       934.446 6        36.594    28825508.566 5 113117486.74305       697.996 5        33.594    28825505.698 6 116068368.35106       715.888 6        36.313
E33        21.000    26295688.863 6 138184731.25706     -2765.645 6        40.156    26295693.031 6 103189882.93306     -2065.432 6        38.469    26295690.591 6 105881786.25306     -2119.179 6        41.719
G05         5.000    20591164.085 7 108207297.96707      -111.591 7        46.875    20591158.895 8  84317354.30608       -86.953 8        49.563    20591159.408 7  84317352.31407       -87.015 7        46.094
G07         7.000    26137086.382 4                     -2800.147 4        29.063
G11        11.000    23585284.530 6 123941445.09106     -3403.632 6        40.719    23585284.455 4  96577719.26804     -2652.175 4        27.719    23585284.638 6  96577717.26106     -2652.215 6        40.969    23585290.168 6  92553665.44306     -2541.634 6        39.719
G13        13.000    20105502.475 7 105655137.97807      -802.302 7        47.406    20105496.227 6  82328656.69506      -625.171 6        39.844
G14        31.000    25185375.117 6 132350053.11706      1869.727 6        36.563    25185375.700 3 103129919.44003      1456.936 3        21.781    25185376.293 6 103129925.44406      1457.029 6        39.906    25185381.535 6  98832860.27606      1396.369 6        37.500
G15        15.000    20659765.446 8 108567829.80508      1472.302 8        48.063    20659760.718 8  84598310.71808      1147.242 8        48.531    20659760.493 7  84598310.72707      1147.132 7        44.094
G18        39.000    23155701.354 7 121684075.42907      3035.436 7        42.469    23155697.990 5  94818772.12805      2365.266 5        30.594    23155698.968 6  94818767.13406      2365.355 6        41.656    23155703.516 6  90868008.72406      2266.617 6        40.781
G20         4.000    21281238.004 7 111833638.43307     -1369.046 7        46.063    21281233.190 6  87143067.65906     -1066.787 6        37.063
G22        34.000    25353429.177 5 133233172.20505      2156.816 5        30.656    25353430.815 1 103818070.27201      1680.655 1         8.656
G24         6.000    23707553.042 5 124584063.45305      4098.459 5        35.375    23707557.117 4  97078528.91804      3193.595 4        28.500    23707557.033 5  97078523.93205      3193.593 5        35.313    23707558.440 5  93033600.47405      3060.596 5        33.625
G29         3.000    24116826.836 6 126734731.08106     -2037.017 6        40.406    24116827.384 6  98754314.40106     -1587.286 6        36.094    24116828.279 6  98754317.39006     -1587.349 6        37.906
G30         1.000    23415392.192 6 123048707.02606     -2124.854 6        40.688    23415391.092 6  95882098.60106     -1655.730 6        38.406    23415390.856 6  95882097.61206     -1655.980 6        39.000    23415391.687 6  91887016.69406     -1586.827 6        41.125
J02        54.000    37946857.347 6 199412125.31806       355.194 6        37.563    37946866.957 6 155386128.65306       276.707 6        38.250    37946871.009 6 148911732.60206       265.261 6        37.031
J03        26.000    37205819.894 7 195517894.28207       400.515 7        45.188    37205817.197 7 152351587.89707       311.928 7        45.156    37205819.725 7 146003616.39707       298.948 7        42.906
J07        57.000    37285370.596 6 195935946.40006       176.398 6        37.563    37285368.096 7 152677345.97407       137.508 7        44.219    37285370.788 7 146315806.43107       131.771 7        42.969
R01         8.000    21497591.861 7 114916925.13007     -1824.669 7        45.688    21497591.681 6  89379820.99906     -1419.276 6        41.625
R02        24.000    20340691.416 8 108541843.73008       267.156 8        52.313    20340691.136 8  84421439.41708       207.736 8        48.531
R03        33.000    22716483.044 7 121603215.42407      2306.892 7        45.625    22716482.668 7  94580340.41207      1794.189 7        43.125
R11        37.000    22279655.450 7 119055765.66207        36.616 7        47.000    22279654.510 7  92598944.61807        28.510 7        47.313
R12        36.000    22275227.377 7 118990449.05507      3415.608 7        46.594    22275230.975 7  92548271.59907      2656.543 7        45.281
R17        32.000    20114176.773 8 107635020.65808      -586.771 8        51.625    20114175.093 8  83716117.81708      -456.388 8        48.688
R18        56.000    22117554.450 7 118065041.13307      2950.160 7        45.656    22117555.459 7  91828382.69007      2294.581 7        45.719
R24        18.000    21884011.832 7 117023585.17107     -3892.985 7        47.594    21884013.420 7  91018322.63707     -3027.952 7        42.625
> 2024 06 24 08 20 19.0000000  0 57
C01         9.000    36841833.108 7 191845094.31507       161.558 7        44.563    36841830.740 7 148346789.85607       125.048 7        44.969    36841832.535 7 155889853.29607       131.277 7        46.688
C02        60.000    39114855.549 6 203681326.51806       210.792 6        36.875    39114854.308 6 157499310.13406       162.921 6        40.094    39114856.139 6 165507759.74306       171.192 6        40.344
C03        10.000    37528532.354 7 195420918.10507       172.803 7        44.281    37528527.836 7 151111832.39607       133.647 7        42.219    37528529.787 7 158795492.35607       140.297 7        45.844
C04        14.000    37743695.179 7 196541327.32207       146.733 7        43.188    37743690.562 7 151978203.03407       113.655 7        42.688    37743692.080 7 159705913.88007       119.406 7        43.313
C05        58.000    41807199.053 5 217701048.71605       214.859 5        35.656    41807203.433 6 168340290.99706       166.112 6        37.500    41807202.554 6 176899957.70606       174.459 6        40.844
C06        45.000    39076119.673 6 203479629.29606      1503.486 6        36.125    39076119.411 6 157343390.99806      1162.457 6        36.063    39076118.237 6 165343885.47906      1221.797 6        40.469
C07        44.000    41331663.150 6 215224719.06006     -1264.040 6        38.156    41331670.126 6 166425383.83006      -977.084 6        36.813    41331665.228 6 174887683.87906     -1027.023 6        39.000
C08        40.000    36907141.770 7 192185183.27807       887.170 7        43.000    36907135.312 7 148609748.59607       686.041 7        43.563    36907134.791 7 156166172.79707       721.082 7        46.875
C09        49.000    40565565.490 4 211235563.94304      1401.547 4        28.906    40565572.460 5 163340772.85105      1083.777 5        30.875    40565567.636 5 171646223.79805      1138.366 5        31.188
C10        59.000    40837215.647 5 212650033.68705     -1392.505 5        32.281    40837226.417 6 164434490.32306     -1076.913 6        36.250    40837221.085 6 172795551.37006     -1131.611 6        37.156
C13        42.000    37378053.829 7 194637341.32907       937.147 7        43.406    37378055.974 7 150505952.64407       724.745 7        42.125    37378054.555 7 158158789.76107       761.628 7        46.969
C16        41.000    39141420.420 6 203819678.26506      1447.143 6        39.688    39141424.951 6 157606338.38006      1119.255 6        38.469    39141421.140 6 165620204.10406      1176.049 6        37.438
C23        55.000    24646204.959 7 128339373.23807      2902.663 7        44.375                                                                    24646199.439 7 104286284.14707      2358.639 7        46.156
C24        48.000    26194828.250 6 136403342.44206     -1624.314 6        40.781                                                                    26194827.066 7 110838883.08207     -1319.780 7        42.375
C25        23.000    23739793.421 7 123619376.56607       737.132 7        46.031                                                                    23739792.841 7 100450883.37507       598.996 7        47.906
C27        16.000    23666704.965 7 123238707.39007     -2242.105 7        46.375                                                                    23666706.109 8 100141535.86008     -1821.799 8        48.063
C28        46.000    26027160.296 5 135530144.09705     -3053.936 5        33.906                                                                    26027166.263 6 110129327.89806     -2481.427 6        38.031
C30        22.000    24110074.740 7 125547489.26407       115.876 7        45.125                                                                    24110076.771 7 102017631.69907        94.285 7        47.531
C32        50.000    23284546.393 8 121248770.27208      1450.424 8        48.125                                                                    23284546.169 8  98524569.14908      1178.636 8        50.438
C33        51.000    26050437.413 6 135651417.26106     -1939.150 6        41.531                                                                    26050452.242 7 110227933.17507     -1575.653 7        42.469
C38         2.000    36217442.554 8 188593733.04108       685.620 8        48.250                                                                    36217439.755 8 153247844.42308       557.221 8        51.375
C39        19.000    38202932.032 7 198932725.39107      1386.017 7        44.844                                                                    38202930.411 7 161649142.17207      1126.412 7        47.031
C40        27.000    41393116.017 5 215544676.90605     -1518.243 5        34.188                                                                    41393128.680 5 175147698.20005     -1234.168 5        33.250
C41        30.000    22835975.501 8 118912911.66608      -677.675 8        48.969                                                                    22835980.531 8  96626500.13308      -550.588 8        52.344
C59        43.000    37060375.683 7 192983104.80407       190.081 7        46.250                                                                    37060362.285 8 156814524.48208       154.578 8        49.375
C60        47.000    39643492.986 6 206434073.53006       181.836 6        41.688                                                                    39643479.008 7 167744536.78207       147.778 7        42.781
E04        20.000    24642601.461 7 129497775.49107      1340.897 7        45.906    24642601.002 7  96702903.85407      1001.401 7        44.594    24642598.583 7  99225576.80907      1027.458 7        46.313
E10        17.000    24067323.603 7 126474644.93407       813.022 7        47.375    24067322.222 7  94445352.41107       607.181 7        44.250    24067320.799 7  96909135.63807       623.052 7        47.438
E11        12.000    24646486.804 6 129518177.23306      2153.459 6        41.500    24646483.253 6  96718132.97106      1608.189 6        38.219    24646481.768 6  99241209.42406      1650.153 6        41.000
E12        25.000    23885684.293 7 125520109.44707      -609.308 7        42.500    23885680.678 6  93732535.45206      -455.177 6        41.844    23885679.185 7  96177723.87907      -466.868 7        45.094
E19        29.000    23982192.564 7 126027270.32607     -1108.954 7        42.375    23982190.142 6  94111262.70306      -828.121 6        38.906    23982188.419 6  96566331.85006      -849.547 6        41.938
E21        38.000    28422669.210 6 149362136.95606      2284.097 6        37.125    28422675.930 5 111536696.78005      1705.882 5        33.063    28422673.459 6 114446341.09706      1750.387 6        36.688
E27        35.000    28825326.373 6 151478116.26606       934.198 6        36.625    28825330.709 5 113116789.05905       697.518 5        34.156    28825327.918 6 116067652.47306       715.956 6        37.031
E33        21.000    26296215.147 6 138187496.99206     -2765.692 6        40.125    26296219.337 6 103191948.23806     -2065.391 6        39.094    26296216.837 6 105883905.44606     -2119.177 6        41.813
G05         5.000    20591185.398 7 108207409.81307      -111.930 7        46.938    20591180.175 8  84317441.45908       -87.219 8        49.531    20591180.788 7  84317439.46507       -87.216 7        46.094
G07         7.000    26137620.075 4                     -2803.555 4        24.781                                                                    26137618.614 4                     -2181.776 4        27.844
G11        11.000    23585932.300 6 123944848.92306     -3403.883 6        40.656    23585932.196 4  96580371.60304     -2652.370 4        27.781    23585932.362 6  96580369.58506     -2652.347 6        41.125    23585937.938 6  92556207.26506     -2541.805 6        40.406
G13        13.000    20105655.139 7 105655940.55407      -802.799 7        47.344    20105648.960 6  82329282.07806      -625.555 6        39.813
G14        31.000    25185019.171 6 132348183.46906      1869.484 6        36.188    25185019.933 3 103128462.57403      1456.744 3        21.594    25185020.533 6 103128468.57006      1456.947 6        39.688    25185025.648 6  98831464.11106      1396.071 6        37.844
G15        15.000    20659485.308 8 108566357.74208      1471.981 8        48.125    20659480.580 8  84597163.65708      1146.996 8        48.563    20659480.369 7  84597163.65507      1147.072 7        44.188
G18        39.000    23155123.713 7 121681040.16507      3035.202 7        42.406    23155120.368 5  94816406.98805      2365.092 5        30.531    23155121.488 6  94816401.99506      2365.140 6        41.906    23155125.884 6  90865742.12506      2266.588 6        41.063
G20         4.000    21281498.358 7 111835007.65107     -1369.339 7        45.938    21281493.752 6  87144134.58106     -1067.018 6        37.063
G22        34.000    25353019.009 5 133231015.13305      2156.921 5        31.688    25353020.307 1 103816389.41601      1680.701 1         8.844
G24         6.000    23706773.026 5 124579965.13705      4098.183 5        35.250    23706777.234 4  97075335.43504      3193.375 4        28.563    23706777.179 5  97075330.47305      3193.397 5        35.625    23706778.627 5  93030540.06405      3060.585 5        34.219
G29         3.000    24117214.418 6 126736768.22206     -2037.214 6        40.344    24117215.038 6  98755901.77706     -1587.431 6        36.063    24117215.835 6  98755904.76906     -1587.491 6        37.750
G30         1.000    23415796.571 6 123050832.13806     -2125.266 6        40.563    23415795.483 6  95883754.52806     -1656.047 6        38.406    23415795.273 6  95883753.51406     -1655.913 6        39.094    23415796.090 6  91888603.62406     -1587.015 6        41.563
J02        54.000    37946789.712 6 199411770.05506       355.362 6        37.500    37946798.952 6 155385851.81206       276.920 6        37.938    37946803.399 6 148911467.31706       265.227 6        37.156
J03        26.000    37205743.687 7 195517493.94107       400.319 7        45.219    37205740.917 7 152351275.92207       312.059 7        45.063    37205743.552 7 146003317.42807       299.008 7        43.406
J07        57.000    37285337.031 6 195935769.89406       176.514 6        37.406    37285334.481 7 152677208.43607       137.675 7        44.063    37285337.146 7 146315674.63007       131.831 7        43.500
R01         8.000    21497932.934 7 114918749.86407     -1824.689 7        45.469    21497933.335 6  89381240.24006     -1419.136 6        41.594
R02        24.000    20340641.425 8 108541576.71308       267.013 8        52.313    20340640.986 8  84421231.73508       207.733 8        48.594
R03        33.000    22716051.998 7 121600908.68207      2306.698 7        45.500    22716051.744 7  94578546.27707      1794.153 7        43.250
R11        37.000    22279648.362 7 119055729.45207        35.809 7        46.875    22279647.725 7  92598916.44907        27.860 7        47.406
R12        36.000    22274588.056 7 118987033.69707      3415.248 7        46.656    22274591.445 7  92545615.20607      2656.382 7        45.156
R17        32.000    20114286.397 8 107635607.86208      -587.580 8        51.688    20114284.760 8  83716574.52808      -456.904 8        48.625
R18        56.000    22117001.956 7 118062091.29807      2949.569 7        45.656    22117003.070 7  91826088.37507      2294.123 7        45.719
R24        18.000    21884739.891 7 117027478.32607     -3893.246 7        47.438    21884741.490 7  91021350.62507     -3027.978 7        42.594
> 2024 06 24 08 20 20.0000000  0 57
C01         9.000    36841802.173 7 191844933.05607       160.996 7        44.594    36841799.725 7 148346665.17007       124.555 7        44.844    36841801.573 7 155889722.26707       130.969 7        46.750
C02        60.000    39114815.394 6 203681116.19606       210.127 6        36.813    39114814.019 6 157499147.49806       162.476 6        40.031    39114815.733 6 165507588.84006       170.688 6        40.313
C03        10.000    37528499.202 7 195420745.80407       172.105 7        44.438    37528494.705 6 151111699.17006       133.046 6        41.938    37528496.675 7 158795352.34707       139.843 7        45.813
C04        14.000    37743667.084 7 196541180.85307       146.247 7        43.188    37743662.507 7 151978089.79807       113.137 7        42.563    37743664.016 7 159705794.87907       118.850 7        43.344
C05        58.000    41807158.039 5 217700834.33005       214.140 5        35.656    41807162.298 6 168340125.21806       165.421 6        37.406    41807161.370 6 176899783.49206       174.146 6        40.844
C06        45.000    39075830.958 6 203478126.28906      1502.882 6        36.469    39075830.808 5 157342228.79205      1162.169 5        35.656    39075829.554 6 165342664.19906      1221.051 6        40.625
C07        44.000    41331905.767 6 215225983.33806     -1264.433 6        38.250    41331913.055 6 166426361.44006      -977.603 6        36.656    41331907.901 6 174888711.20806     -1027.599 6        38.938
C08        40.000    36906971.300 7 192184296.36807       886.693 7        43.125    36906964.968 7 148609062.79307       685.716 7        43.500    36906964.499 7 156165452.12807       720.479 7        46.906
C09        49.000    40565295.928 4 211234163.14604      1400.372 4        28.594    40565303.749 5 163339689.68205      1083.181 5        30.938    40565298.603 5 171645085.53305      1138.172 5        31.469
C10        59.000    40837483.176 5 212651426.69705     -1393.057 5        32.906    40837493.916 6 164435567.50506     -1077.248 6        36.313    40837488.612 6 172796683.32206     -1131.898 6        37.125
C13        42.000    37377873.829 7 194636404.45907       936.703 7        43.625    37377876.038 7 150505228.19307       724.292 7        42.031    37377874.660 7 158158028.48207       761.134 7        47.000
C16        41.000    39141142.739 6 203818231.42806      1446.417 6        39.688    39141147.111 6 157605219.61606      1118.512 6        38.563    39141143.350 6 165619028.43706      1175.592 6        37.188
C23        55.000    24645647.616 7 128336471.04607      2901.926 7        44.375                                                                    24645642.094 7 104283925.88307      2358.001 7        46.219
C24        48.000    26195140.313 6 136404967.37706     -1625.403 6        40.906                                                                    26195139.296 7 110840203.47007     -1320.736 7        42.281
C25        23.000    23739651.933 7 123618640.08107       736.050 7        46.125                                                                    23739651.375 7 100450284.92907       598.097 7        47.938
C27        16.000    23667135.662 7 123240949.98207     -2242.936 7        46.500                                                                    23667136.744 8 100143358.15508     -1822.597 8        48.125
C28        46.000    26027746.633 5 135533198.19405     -3054.015 5        33.563                                                                    26027752.829 6 110131809.60206     -2481.639 6        37.750
C30        22.000    24110052.742 7 125547373.94107       114.825 7        45.281                                                                    24110054.627 7 102017537.99207        93.281 7        47.500
C32        50.000    23284268.040 8 121247320.27708      1449.713 8        48.188                                                                    23284267.677 8  98523390.91808      1178.049 8        50.500
C33        51.000    26050810.080 6 135653356.81706     -1939.742 6        41.563                                                                    26050824.693 7 110229509.22007     -1576.126 7        42.375
C38         2.000    36217310.914 8 188593047.74108       685.068 8        48.313                                                                    36217308.166 8 153247287.57108       556.663 8        51.469
C39        19.000    38202665.937 7 198931339.70007      1385.495 7        44.906                                                                    38202664.317 7 161648016.20107      1125.798 7        47.094
C40        27.000    41393407.466 5 215546195.72405     -1518.782 5        34.531                                                                    41393420.316 5 175148932.34605     -1234.157 5        33.406
C41        30.000    22836105.690 8 118913589.75608      -678.388 8        49.125                                                                    22836110.760 8  96627051.14108      -551.223 8        52.375
C59        43.000    37060339.329 7 192982915.05807       189.535 7        46.281                                                                    37060325.837 8 156814370.31508       153.999 8        49.438
C60        47.000    39643458.032 6 206433892.02806       181.351 6        41.656                                                                    39643444.214 7 167744389.30607       147.326 7        42.813
E04        20.000    24642346.393 7 129496435.05707      1340.092 7        45.844    24642345.870 7  96701902.89607      1000.718 7        44.531    24642343.503 7  99224549.72807      1026.861 7        46.250
E10        17.000    24067168.977 7 126473832.41607       812.089 7        47.438    24067167.608 7  94444745.67607       606.411 7        44.063    24067166.209 7  96908513.07107       622.226 7        47.250
E11        12.000    24646077.102 6 129516024.29006      2152.571 6        41.500    24646073.547 6  96716525.26606      1607.535 6        38.313    24646071.982 6  99239559.78206      1649.251 6        41.063
E12        25.000    23885800.316 7 125520719.49707      -610.385 7        42.438    23885796.750 6  93732991.01806      -455.849 6        41.719    23885795.278 7  96178191.32707      -467.817 7        44.844
E19        29.000    23982403.683 7 126028379.73807     -1109.701 7        42.500    23982401.182 6  94112091.17706      -828.812 6        38.781    23982399.470 6  96567181.94806      -850.320 6        41.844
E21        38.000    28422234.698 6 149359853.18906      2283.602 6        37.375    28422241.398 5 111534991.39905      1705.309 5        32.688    28422238.846 6 114444591.22606      1749.733 6        36.750
E27        35.000    28825148.819 6 151477182.66406       933.229 6        36.563    28825152.999 5 113116091.91005       696.827 5        34.000    28825150.151 6 116066937.13406       715.101 6        36.469
E33        21.000    26296741.464 6 138190263.22006     -2766.434 6        40.250    26296745.755 6 103194013.91906     -2065.908 6        38.813    26296743.228 7 105886025.02907     -2119.797 7        42.000
G05         5.000    20591206.818 7 108207522.32307      -112.918 7        46.781    20591201.590 8  84317529.12408       -87.987 8        49.594    20591202.144 7  84317527.12907       -87.914 7        46.156
G07         7.000    26138153.517 4                     -2801.396 4        25.313                                                                    26138151.537 5                     -2181.918 5        30.375
G11        11.000    23586579.958 6 123948253.26506     -3404.652 6        40.719    23586580.036 4  96583024.32104     -2652.961 4        27.844    23586580.290 6  96583022.30906     -2652.872 6        41.219    23586585.800 6  92558749.46406     -2542.409 6        40.281
G13        13.000    20105808.010 7 105656743.86607      -803.782 7        47.438    20105801.831 6  82329908.03106      -626.324 6        39.875
G14        31.000    25184663.359 6 132346314.38306      1868.720 6        36.156    25184664.247 3 103127006.14003      1456.147 3        21.750    25184664.748 6 103127012.14406      1456.268 6        39.656    25184669.978 6  98830068.37506      1395.543 6        37.781
G15        15.000    20659205.350 8 108564886.35008      1470.982 8        48.063    20659200.562 8  84596017.11808      1146.212 8        48.531    20659200.396 7  84596017.13207      1146.210 7        44.063
G18        39.000    23154546.274 7 121678005.59907      3034.087 7        42.469    23154542.885 5  94814042.39305      2364.218 5        30.469    23154544.204 6  94814037.39706      2364.373 6        41.844    23154548.382 6  90863476.06506      2265.783 6        40.875
G20         4.000    21281758.951 7 111836377.53507     -1370.335 7        46.000    21281754.434 6  87145202.01906     -1067.790 6        37.125
G22        34.000    25352608.691 5 133228858.43305      2156.534 5        32.000    25352609.901 1 103814708.87701      1680.427 1         9.125
G24         6.000    23705993.037 5 124575867.27005      4097.583 5        35.406    23705997.442 4  97072142.29804      3192.912 4        28.500    23705997.190 5  97072137.31005      3192.925 5        35.688    23705998.809 5  93027479.98505      3059.989 5        34.188
G29         3.000    24117602.310 6 126738805.95806     -2038.156 6        40.281    24117602.804 5  98757489.61705     -1588.172 5        35.938    24117603.346 6  98757492.60506     -1588.143 6        37.688
G30         1.000    23416201.131 6 123052957.96606     -2126.075 6        40.813    23416200.008 6  95885411.01406     -1656.684 6        38.375    23416199.729 6  95885410.01606     -1656.804 6        39.125    23416200.730 6  91890191.10506     -1587.739 6        41.531
J02        54.000    37946722.285 6 199411415.03306       354.744 6        37.313    37946731.303 6 155385575.19306       276.510 6        37.656    37946735.781 6 148911202.20706       264.953 6        37.156
J03        26.000    37205667.568 7 195517093.95607       399.768 7        45.125    37205664.936 7 152350964.25907       311.563 7        45.094    37205667.386 7 146003018.75207       298.496 7        43.344
J07        57.000    37285303.604 6 195935593.70206       175.901 6        37.313    37285300.936 7 152677071.14507       137.169 7        44.125    37285303.586 7 146315543.06207       131.439 7        43.500
R01         8.000    21498274.014 7 114920574.98107     -1825.312 7        45.656    21498274.433 6  89382659.77806     -1419.730 6        41.625
R02        24.000    20340591.583 8 108541310.21208       266.160 8        52.281    20340591.074 8  84421024.45508       207.051 8        48.688
R03        33.000    22715621.229 7 121598602.40807      2306.030 7        45.688    22715620.726 7  94576752.52307      1793.536 7        43.156
R11        37.000    22279641.632 7 119055694.37907        34.438 7        46.875    22279641.252 7  92598889.18607        26.693 7        47.406
R12        36.000    22273948.941 7 118983619.03707      3414.269 7        46.563    22273952.594 7  92542959.37507      2655.536 7        45.000
R17        32.000    20114396.198 8 107636196.28408      -589.156 8        51.625    20114394.686 8  83717032.19208      -458.154 8        48.594
R18        56.000    22116449.299 7 118059142.44207      2948.347 7        45.563    22116450.662 7  91823794.82707      2293.150 7        45.750
R24        18.000    21885467.884 7 117031372.07107     -3894.159 7        47.406    21885469.506 7  91024379.09707     -3028.881 7        42.625
> 2024 06 24 08 20 21.0000000  0 57
C01         9.000    36841771.086 7 191844771.52307       161.740 7        44.656    36841768.754 7 148346540.27307       124.961 7        44.438    36841770.527 7 155889591.01407       131.341 7        46.750
C02        60.000    39114774.957 6 203680905.58506       210.894 6        37.063    39114773.743 6 157498984.64406       162.939 6        39.688    39114775.265 6 165507417.69806       171.175 6        40.344
C03        10.000    37528465.996 7 195420573.22807       172.721 7        44.469    37528461.669 6 151111565.72006       133.579 6        41.688    37528463.495 7 158795212.10907       140.430 7        45.938
C04        14.000    37743638.886 7 196541034.12007       146.941 7        43.344    37743634.443 7 151977976.33007       113.505 7        42.219    37743635.872 7 159705675.64807       119.361 7        43.219
C05        58.000    41807116.797 5 217700619.67905       214.754 5        35.875    41807120.775 6 168339959.23506       166.146 6        37.219    41807120.155 6 176899609.06906       174.423 6        40.813
C06        45.000    39075542.275 6 203476623.07006      1503.397 6        36.531    39075541.814 5 157341066.43105      1162.655 5        35.563    39075540.814 6 165341442.73406      1221.469 6        40.781
C07        44.000    41332148.246 6 215227247.23506     -1263.750 6        38.375    41332155.837 6 166427338.78006      -976.993 6        36.563    41332150.613 6 174889738.23006     -1026.996 6        38.906
C08        40.000    36906800.842 7 192183409.16907       887.397 7        43.188    36906794.695 7 148608376.74607       686.128 7        43.156    36906794.135 7 156164731.20407       721.008 7        47.000
C09        49.000    40565026.343 4 211232762.06504      1400.932 4        29.000    40565034.800 5 163338606.30805      1083.389 5        30.875    40565029.449 5 171643947.05205      1138.443 5        30.875
C10        59.000    40837750.764 5 212652819.39105     -1392.316 5        32.563    40837761.393 5 164436644.41805     -1076.766 5        35.656    40837756.087 6 172797814.99406     -1131.705 6        36.938
C13        42.000    37377693.964 7 194635467.24507       937.362 7        43.563    37377696.095 6 150504503.48506       724.689 6        41.625    37377694.663 7 158157266.91907       761.616 7        47.031
C16        41.000    39140864.888 6 203816784.40206      1447.199 6        39.719    39140869.148 6 157604100.69506      1118.925 6        37.969    39140865.460 6 165617852.62106      1175.937 6        36.906
C23        55.000    24645090.152 7 128333568.74407      2902.405 7        44.438                                                                    24645084.746 7 104281567.52707      2358.363 7        46.219
C24        48.000    26195452.368 6 136406592.42506     -1625.196 6        40.813                                                                    26195451.446 7 110841523.95207     -1320.493 7        42.438
C25        23.000    23739510.571 7 123617903.83507       736.140 7        46.094                                                                    23739509.981 7 100449686.66307       598.155 7        47.969
C27        16.000    23667566.373 7 123243192.60407     -2242.570 7        46.438                                                                    23667567.421 8 100145180.45808     -1822.315 8        48.094
C28        46.000    26028333.289 5 135536251.95605     -3053.380 5        33.313                                                                    26028339.230 6 110134291.02206     -2481.294 6        37.688
C30        22.000    24110030.621 7 125547258.87407       115.044 7        45.344                                                                    24110032.527 7 102017444.49207        93.386 7        47.594
C32        50.000    23283989.525 8 121245870.11408      1450.247 8        48.156                                                                    23283989.182 8  98522212.53608      1178.454 8        50.563
C33        51.000    26051182.636 6 135655296.09906     -1939.196 6        41.656                                                                    26051197.107 7 110231085.04107     -1575.660 7        42.531
C38         2.000    36217179.321 8 188592362.17808       685.747 8        48.375                                                                    36217176.544 8 153246730.49308       557.145 8        51.531
C39        19.000    38202399.768 7 198929953.86707      1385.931 7        45.000                                                                    38202398.195 7 161646890.09907      1126.093 7        47.156
C40        27.000    41393699.208 5 215547714.14105     -1518.072 5        34.531                                                                    41393711.864 5 175150166.17505     -1233.703 5        33.469
C41        30.000    22836235.846 8 118914267.68408      -677.828 8        49.188                                                                    22836240.944 8  96627602.01208      -550.818 8        52.406
C59        43.000    37060302.840 7 192982725.04307       190.191 7        46.344                                                                    37060289.344 8 156814215.91108       154.446 8        49.469
C60        47.000    39643422.988 6 206433710.25906       181.998 6        41.688                                                                    39643409.295 7 167744241.60507       147.830 7        43.094
E04        20.000    24642091.289 7 129495094.57507      1340.562 7        45.906    24642090.802 7  96700901.89407      1001.024 7        44.063    24642088.412 7  99223522.60907      1027.144 7        46.000
E10        17.000    24067014.437 7 126473020.08007       812.273 7        47.469    24067012.978 7  94444139.05307       606.587 7        43.438    24067011.630 7  96907890.62407       622.391 7        46.969
E11        12.000    24645667.371 6 129513871.38206      2152.883 6        41.531    24645663.871 6  96714917.57206      1607.540 6        37.750    24645662.300 6  99237910.13706      1649.660 6        40.594
E12        25.000    23885916.372 7 125521329.72207      -610.223 7        42.469    23885912.878 6  93733446.69006      -455.628 6        41.031    23885911.335 7  96178658.89607      -467.569 7        44.500
E19        29.000    23982614.779 7 126029489.01207     -1109.127 7        42.500    23982612.315 6  94112919.50806      -828.279 6        38.188    23982610.677 6  96568031.89806      -849.918 6        41.469
E21        38.000    28421800.174 6 149357569.24406      2284.102 6        37.313    28421806.585 5 111533285.83505      1706.060 5        32.438    28421804.173 6 114442841.18606      1750.149 6        36.469
E27        35.000    28824971.389 6 151476249.18606       933.333 6        36.625    28824975.376 5 113115394.83405       697.279 5        32.813    28824972.514 6 116066221.87006       715.180 6        36.125
E33        21.000    26297267.956 6 138193029.35106     -2766.045 6        40.250    26297272.137 6 103196079.53106     -2065.597 6        38.438    26297269.624 6 105888144.50806     -2119.365 6        41.594
G05         5.000    20591228.219 7 108207634.90607      -112.607 7        46.781    20591223.014 8  84317616.85208       -87.748 8        49.563    20591223.545 7  84317614.85607       -87.686 7        46.156
G07         7.000    26138685.564 5                     -2800.410 5        31.125                                                                    26138684.411 5                     -2181.907 5        32.344
G11        11.000    23587227.720 6 123951657.52206     -3404.146 6        40.875    23587227.853 4  96585676.98404     -2652.580 4        27.781    23587228.201 6  96585674.98906     -2652.735 6        41.094    23587233.541 6  92561291.60306     -2542.145 6        39.531
G13        13.000    20105960.881 7 105657547.32207      -803.533 7        47.406    20105954.729 6  82330534.10306      -626.132 6        39.875
G14        31.000    25184307.479 5 132344445.26405      1869.084 5        35.938    25184308.587 3 103125549.67903      1456.435 3        21.594    25184308.849 6 103125555.68706      1456.648 6        39.656    25184314.213 6  98828672.59606      1395.769 6        37.219
G15        15.000    20658925.353 8 108563415.04808      1471.306 8        48.094    20658920.567 8  84594870.65008      1146.469 8        48.625    20658920.546 7  84594870.67107      1146.352 7        44.250
G18        39.000    23153968.858 7 121674971.14107      3034.426 7        42.438    23153965.433 5  94811677.88105      2364.484 5        30.469    23153966.654 6  94811672.88606      2364.460 6        41.906    23153970.871 6  90861210.07806      2265.847 6        40.344
G20         4.000    21282019.643 7 111837747.50107     -1369.985 7        46.031    21282015.125 6  87146269.52206     -1067.522 6        37.156
G22        34.000    25352198.289 5 133226701.55405      2157.501 5        32.281    25352199.438 1 103813028.18001      1681.174 1         9.500
G24         6.000    23705213.102 5 124571769.24305      4098.117 5        35.250    23705217.577 4  97068949.03804      3193.325 4        28.688    23705217.386 6  97068944.06606      3193.395 6        36.094    23705219.081 5  93024419.75805      3060.465 5        33.844
G29         3.000    24117990.061 6 126740843.69606     -2037.755 6        40.438    24117990.552 6  98759077.46206     -1587.856 6        36.000    24117990.967 6  98759080.46006     -1587.873 6        37.500
G30         1.000    23416605.768 6 123055083.94206     -2125.994 6        40.781    23416604.561 6  95887067.61906     -1656.616 6        38.469    23416604.495 6  95887066.62706     -1656.600 6        39.156    23416605.226 6  91891778.68206     -1587.632 6        40.813
J02        54.000    37946654.709 6 199411059.66406       355.635 6        37.531    37946663.518 6 155385298.28106       277.170 6        38.031    37946668.121 6 148910936.83806       265.660 6        36.719
J03        26.000    37205591.315 7 195516693.77707       400.293 7        45.188    37205588.692 7 152350652.43007       311.903 7        45.031    37205591.219 7 146002719.91407       298.860 7        42.844
J07        57.000    37285269.849 6 195935417.23906       176.595 6        37.531    37285267.415 7 152676933.63807       137.615 7        44.125    37285269.986 7 146315411.28007       131.803 7        42.969
R01         8.000    21498615.522 7 114922399.88907     -1824.780 7        45.938    21498615.796 6  89384079.14906     -1419.465 6        41.531
R02        24.000    20340541.645 8 108541043.65808       266.597 8        52.375    20340541.254 8  84420817.13808       207.332 8        48.656
R03        33.000    22715190.502 7 121596296.02607      2306.443 7        45.531    22715189.872 7  94574958.66707      1793.851 7        43.094
R11        37.000    22279635.024 7 119055659.84607        34.320 7        46.969    22279634.713 7  92598862.32607        26.672 7        47.406
R12        36.000    22273309.738 7 118980204.46907      3414.549 7        46.594    22273313.371 7  92540303.59107      2655.795 7        45.156
R17        32.000    20114506.227 8 107636785.35908      -589.386 8        51.688    20114504.719 8  83717490.36608      -458.449 8        48.625
R18        56.000    22115896.916 7 118056193.98107      2948.285 7        45.781    22115898.472 7  91821501.58807      2293.048 7        45.875
R24        18.000    21886196.073 7 117035265.84507     -3893.794 7        47.438    21886197.709 7  91027407.58607     -3028.617 7        42.656
> 2024 06 24 08 20 22.0000000  0 57
C01         9.000    36841740.044 7 191844609.89307       161.927 7        44.594    36841737.708 7 148346415.27707       125.134 7        44.938    36841739.458 7 155889459.66907       131.508 7        46.781
C02        60.000    39114734.543 6 203680694.86206       211.075 6        37.031    39114733.118 6 157498821.70006       163.222 6        40.188    39114734.730 6 165507246.47406       171.515 6        40.313
C03        10.000    37528432.776 7 195420400.54807       173.021 7        44.531    37528428.494 7 151111432.19807       133.629 7        42.094    37528430.334 7 158795071.79707       140.548 7        46.000
C04        14.000    37743610.795 7 196540887.28307       147.172 7        43.313    37743606.102 7 151977862.78207       113.760 7        42.750    37743607.624 7 159705556.32807       119.522 7        43.250
C05        58.000    41807075.506 5 217700404.90205       214.931 5        35.906    41807079.475 6 168339793.15706       166.185 6        37.500    41807078.896 6 176899434.54606       174.784 6        40.875
C06        45.000    39075253.857 6 203475119.87106      1503.294 6        36.438    39075252.797 5 157339904.05505      1162.462 5        35.969    39075252.111 6 165340221.25106      1221.676 6        40.688
C07        44.000    41332391.232 6 215228510.92106     -1263.251 6        38.281    41332398.516 6 166428315.92406      -976.695 6        37.125    41332393.310 6 174890765.05306     -1026.478 6        38.688
C08        40.000    36906630.429 7 192182521.85407       887.633 7        43.188    36906624.281 7 148607690.61807       686.340 7        43.719    36906623.734 7 156164010.17707       721.321 7        47.000
C09        49.000    40564757.166 4 211231360.91804      1401.116 4        28.750    40564765.565 5 163337522.86405      1083.441 5        31.438    40564760.362 5 171642808.52305      1138.668 5        31.219
C10        59.000    40838018.259 5 212654211.94705     -1392.536 5        32.688    40838028.818 6 164437721.19106     -1076.503 6        36.438    40838023.410 6 172798946.52006     -1131.349 6        37.281
C13        42.000    37377514.120 7 194634529.88207       937.677 7        43.563    37377516.293 7 150503778.65407       725.004 7        42.219    37377514.634 7 158156505.24107       761.829 7        47.000
C16        41.000    39140586.893 6 203815337.36306      1447.310 6        39.781    39140591.306 6 157602981.75206      1119.004 6        38.563    39140587.533 6 165616676.80606      1175.849 6        37.281
C23        55.000    24644532.831 7 128330666.50907      2902.433 7        44.469                                                                    24644527.390 7 104279209.23007      2358.441 7        46.250
C24        48.000    26195764.562 6 136408217.79706     -1625.396 6        40.781                                                                    26195763.666 7 110842844.69907     -1320.676 7        42.344
C25        23.000    23739369.304 7 123617167.99407       735.854 7        46.156                                                                    23739368.660 7 100449088.72907       598.010 7        47.906
C27        16.000    23667997.180 7 123245435.43307     -2242.697 7        46.500                                                                    23667998.143 8 100147002.93708     -1822.328 8        48.000
C28        46.000    26028919.839 5 135539305.54805     -3053.330 5        33.313                                                                    26028925.692 6 110136772.30006     -2480.992 6        37.781
C30        22.000    24110008.746 7 125547144.24007       114.717 7        45.469                                                                    24110010.474 7 102017351.33307        93.235 7        47.438
C32        50.000    23283711.077 8 121244419.95208      1450.437 8        48.188                                                                    23283710.695 8  98521034.16408      1178.550 8        50.531
C33        51.000    26051555.021 6 135657235.30106     -1938.938 6        41.531                                                                    26051569.524 7 110232660.79907     -1575.551 7        42.375
C38         2.000    36217047.636 8 188591676.52608       685.977 8        48.469                                                                    36217044.852 8 153246173.34008       557.405 8        51.469
C39        19.000    38202133.570 7 198928568.01607      1386.159 7        45.031                                                                    38202132.049 7 161645763.98607      1126.301 7        47.094
C40        27.000    41393990.758 5 215549232.33505     -1517.683 5        34.406                                                                    41394003.351 5 175151399.84505     -1233.535 5        33.719
C41        30.000    22836366.053 8 118914945.62808      -677.750 8        49.281                                                                    22836371.141 8  96628152.89308      -550.723 8        52.406
C59        43.000    37060266.289 7 192982534.93207       190.375 7        46.438                                                                    37060252.829 8 156814061.42308       154.676 8        49.438
C60        47.000    39643388.185 6 206433528.40206       182.230 6        41.781                                                                    39643374.430 7 167744093.82807       148.024 7        43.000
E04        20.000    24641836.199 7 129493754.20907      1340.449 7        45.875    24641835.741 7  96699900.96307      1000.948 7        44.875    24641833.378 7  99222495.57307      1027.111 7        46.406
E10        17.000    24066859.908 7 126472208.08707       812.079 7        47.469    24066858.476 7  94443532.70007       606.426 7        44.344    24066857.100 7  96907268.44607       622.257 7        47.594
E11        12.000    24645257.709 6 129511718.69606      2152.791 6        41.469    24645254.170 6  96713310.02706      1607.638 6        38.688    24645252.676 6  99236260.68106      1649.530 6        41.250
E12        25.000    23886032.564 7 125521940.30207      -610.545 7        42.500    23886029.080 6  93733902.64406      -455.927 6        41.906    23886027.532 7  96179126.73907      -467.724 7        45.125
E19        29.000    23982825.880 7 126030598.32207     -1109.061 7        42.438    23982823.439 6  94113747.89106      -828.343 6        39.125    23982821.786 6  96568881.88106      -849.804 6        41.969
E21        38.000    28421365.587 6 149355285.30006      2284.285 6        37.281    28421371.765 5 111531580.32405      1705.720 5        33.313    28421369.588 6 114441091.15706      1750.095 6        37.188
E27        35.000    28824793.763 6 151475315.93206       933.436 6        36.719    28824797.820 5 113114697.92205       696.855 5        33.938    28824795.004 6 116065506.79406       715.036 6        36.469
E33        21.000    26297794.390 6 138195795.54806     -2766.006 6        40.063    26297798.526 6 103198145.17706     -2065.393 6        39.219    26297796.020 7 105890264.06907     -2119.397 7        42.156
G05         5.000    20591249.736 7 108207747.72707      -112.727 7        46.719    20591244.482 8  84317704.76508       -87.839 8        49.594    20591244.980 7  84317702.76607       -87.883 7        46.000
G07         7.000    26139217.889 5                     -2800.865 5        34.719                                                                    26139216.508 5                     -2181.930 5        33.469
G11        11.000    23587875.478 6 123955061.88206     -3404.202 6        40.844    23587875.671 4  96588329.73004     -2652.615 4        27.750    23587875.945 6  96588327.72006     -2652.698 6        41.000    23587881.301 6  92563833.81406     -2542.176 6        40.563
G13        13.000    20106113.846 7 105658351.10407      -803.719 7        47.313    20106107.681 6  82331160.42906      -626.275 6        39.906
G14        31.000    25183951.493 5 132342576.29705      1869.001 5        35.656    25183952.950 3 103124093.34403      1456.368 3        21.688    25183953.311 6 103124099.34906      1456.661 6        39.406    25183958.648 6  98827276.94006      1395.907 6        38.031
G15        15.000    20658645.369 8 108561944.02008      1471.126 8        48.063    20658640.626 8  84593724.39908      1146.331 8        48.625    20658640.572 7  84593724.40307      1146.357 7        44.094
G18        39.000    23153391.397 7 121671936.96407      3034.221 7        42.406    23153388.017 5  94809313.59005      2364.328 5        30.406    23153389.028 6  94809308.59806      2364.384 6        41.938    23153393.386 6  90858944.28606      2265.885 6        41.250
G20         4.000    21282280.450 7 111839117.73307     -1370.130 7        45.938    21282275.888 6  87147337.23306     -1067.631 6        37.125
G22        34.000    25351788.019 5 133224544.67005      2157.023 5        32.125    25351788.987 1 103811347.49901      1680.765 1         9.875
G24         6.000    23704433.211 5 124567671.25505      4098.164 5        35.406    23704437.749 4  97065755.80804      3193.375 4        28.781    23704437.784 5  97065750.84605      3193.217 5        35.906    23704439.105 5  93021359.59205      3060.359 5        34.563
G29         3.000    24118377.972 6 126742881.61706     -2037.726 6        40.281    24118378.358 6  98760665.44806     -1587.828 6        36.000    24118378.928 6  98760668.44206     -1587.922 6        37.750
G30         1.000    23417010.475 6 123057210.25106     -2126.252 6        40.750    23417009.193 6  95888724.48206     -1656.818 6        38.469    23417009.130 6  95888723.49406     -1656.854 6        39.156    23417009.875 6  91893366.49806     -1587.792 6        41.844
J02        54.000    37946587.009 6 199410704.13006       355.802 6        37.438    37946595.990 6 155385021.22206       277.359 6        37.906    37946600.445 6 148910671.34706       265.773 6        37.594
J03        26.000    37205515.150 7 195516293.57607       400.454 7        45.125    37205512.545 7 152350340.58207       311.997 7        44.969    37205515.085 7 146002421.05507       299.020 7        43.656
J07        57.000    37285236.118 6 195935240.65306       176.750 6        37.500    37285233.740 7 152676796.03907       137.837 7        44.063    37285236.385 7 146315279.41607       132.099 7        43.875
R01         8.000    21498957.268 7 114924224.75707     -1824.589 7        46.094    21498956.961 6  89385498.48906     -1419.253 6        41.750
R02        24.000    20340491.715 8 108540777.20708       266.666 8        52.344    20340491.252 8  84420609.89608       207.373 8        48.688
R03        33.000    22714759.536 7 121593989.67207      2306.573 7        45.375    22714759.015 7  94573164.83707      1793.952 7        42.875
R11        37.000    22279628.515 7 119055626.04907        33.703 7        46.656    22279628.379 7  92598836.03207        26.265 7        47.250
R12        36.000    22272670.651 7 118976790.18207      3414.394 7        46.688    22272674.166 7  92537648.03707      2655.653 7        45.281
R17        32.000    20114616.432 8 107637375.27108      -590.001 8        51.625    20114614.907 8  83717949.17208      -458.884 8        48.656
R18        56.000    22115344.649 7 118053246.06807      2947.949 7        45.688    22115346.092 7  91819208.76507      2292.804 7        45.906
R24        18.000    21886924.188 7 117039159.85307     -3893.860 7        47.438    21886925.817 7  91030436.24807     -3028.520 7        42.813
> 2024 06 24 08 20 23.0000000  0 57
C01         9.000    36841709.110 7 191844448.56307       161.448 7        44.563    36841706.827 7 148346290.52307       124.839 7        45.031    36841708.514 7 155889328.59907       131.007 7        46.750
C02        60.000    39114694.182 6 203680484.43306       210.487 6        36.938    39114692.578 6 157498658.98406       162.821 6        40.125    39114694.320 6 165507075.47506       171.082 6        40.406
C03        10.000    37528399.601 7 195420228.17207       172.563 7        44.563    37528395.364 7 151111298.90307       133.260 7        42.219    37528397.235 7 158794931.73307       140.039 7        45.906
C04        14.000    37743582.651 7 196540740.73407       146.731 7        43.344    37743578.020 7 151977749.46107       113.328 7        42.750    37743579.498 7 159705437.25607       119.061 7        43.344
C05        58.000    41807034.551 5 217700190.41905       214.366 5        35.906    41807038.153 6 168339627.29706       165.942 6        37.438    41807037.645 6 176899260.26106       174.296 6        40.875
C06        45.000    39074965.321 6 203473617.02506      1502.876 6        36.531    39074964.393 6 157338741.97006      1161.851 6        36.000    39074963.509 6 165339000.06206      1221.192 6        40.625
C07        44.000    41332633.992 6 215229774.81206     -1263.875 6        38.031    41332641.028 6 166429293.23906      -977.277 6        37.344    41332636.027 6 174891792.05006     -1026.848 6        38.875
C08        40.000    36906460.223 7 192181634.78507       887.157 7        43.344    36906453.908 7 148607004.68107       685.874 7        43.719    36906453.399 7 156163289.36707       720.768 7        46.969
C09        49.000    40564487.201 4 211229960.13404      1401.098 4        28.875    40564496.008 5 163336439.71505      1083.136 5        31.031    40564491.382 5 171641670.28705      1138.443 5        31.188
C10        59.000    40838285.749 5 212655604.66105     -1392.528 5        33.219    40838296.384 6 164438798.14406     -1076.967 6        36.656    40838290.818 6 172800078.23506     -1131.714 6        37.000
C13        42.000    37377334.242 7 194633592.79107       937.226 7        43.656    37377336.424 7 150503054.03907       724.654 7        42.188    37377334.668 7 158155743.77907       761.422 7        47.063
C16        41.000    39140309.259 6 203813890.71806      1446.513 6        39.594    39140313.214 6 157601863.11106      1118.722 6        38.469    39140309.720 6 165615501.26906      1175.405 6        37.219
C23        55.000    24643975.597 7 128327764.74307      2901.797 7        44.500                                                                    24643970.098 7 104276851.31007      2357.799 7        46.344
C24        48.000    26196076.842 6 136409843.87006     -1626.146 6        40.906                                                                    26196075.932 7 110844166.02307     -1321.490 7        42.469
C25        23.000    23739228.073 7 123616432.95107       734.902 7        46.250                                                                    23739227.482 8 100448491.46208       596.943 8        48.000
C27        16.000    23668428.019 7 123247678.84307     -2243.488 7        46.500                                                                    23668428.984 8 100148825.89208     -1823.095 8        48.063
C28        46.000    26029506.222 5 135542359.34305     -3053.768 5        33.969                                                                    26029512.282 6 110139253.74806     -2481.592 6        38.125
C30        22.000    24109986.922 7 125547030.43807       113.626 7        45.406                                                                    24109988.579 7 102017258.86407        92.211 7        47.531
C32        50.000    23283432.651 8 121242970.19008      1449.801 8        48.156                                                                    23283432.280 8  98519856.12108      1177.965 8        50.563
C33        51.000    26051927.406 6 135659174.79706     -1939.313 6        41.625                                                                    26051941.974 7 110234236.81207     -1576.107 7        42.500
C38         2.000    36216916.040 8 188590991.17508       685.455 8        48.500                                                                    36216913.238 8 153245616.43908       556.889 8        51.438
C39        19.000    38201867.467 7 198927182.57807      1385.452 7        45.000                                                                    38201866.026 7 161644638.20507      1125.708 7        47.063
C40        27.000    41394282.744 5 215550750.70105     -1518.030 5        34.063                                                                    41394294.791 5 175152633.61105     -1233.708 5        33.500
C41        30.000    22836496.277 8 118915623.97208      -678.259 8        49.375                                                                    22836501.425 8  96628704.11208      -551.289 8        52.469
C59        43.000    37060229.854 7 192982345.11007       189.989 7        46.344                                                                    37060216.390 8 156813907.19208       154.187 8        49.500
C60        47.000    39643353.373 6 206433346.84306       181.629 6        41.688                                                                    39643339.533 7 167743946.29707       147.557 7        43.031
E04        20.000    24641581.201 7 129492414.36007      1339.786 7        45.938    24641580.794 7  96698900.43007      1000.469 7        44.906    24641578.448 7  99221468.93807      1026.550 7        46.438
E10        17.000    24066705.557 7 126471396.84807       811.062 7        47.375    24066704.185 7  94442926.90107       605.541 7        44.281    24066702.715 7  96906646.85207       621.332 7        47.531
E11        12.000    24644848.281 6 129509566.63506      2152.105 6        41.469    24644844.747 6  96711702.98906      1606.825 6        38.781    24644843.241 6  99234611.70006      1648.893 6        41.188
E12        25.000    23886148.903 7 125522551.62807      -611.422 7        42.469    23886145.460 7  93734359.14807      -456.624 7        42.063    23886143.864 7  96179595.16107      -468.564 7        45.156
E19        29.000    23983037.072 7 126031708.06107     -1109.684 7        42.344    23983034.633 6  94114576.59706      -828.935 6        38.813    23983032.938 7  96569732.21907      -850.507 7        42.000
E21        38.000    28420931.182 6 149353001.76606      2283.556 6        37.344    28420937.280 5 111529875.08305      1704.971 5        32.938    28420935.066 6 114439341.44106      1749.559 6        36.906
E27        35.000    28824616.320 6 151474383.40706       932.490 6        36.688    28824620.495 5 113114001.52905       696.238 5        33.281    28824617.602 6 116064792.23406       714.420 6        36.438
E33        21.000    26298320.912 6 138198562.21306     -2766.708 6        40.063    26298325.061 6 103200211.19006     -2066.017 6        39.375    26298322.494 7 105892383.97207     -2120.095 7        42.188
G05         5.000    20591271.372 7 108207861.19707      -113.542 7        46.656    20591266.071 8  84317793.18108       -88.469 8        49.563    20591266.400 7  84317791.19207       -88.635 7        46.031
G07         7.000    26139750.870 6                     -2800.436 6        36.750    26139749.310 4                     -2181.616 4        28.469    26139748.676 5 107037902.97015     -2182.369 5        35.344
G11        11.000    23588523.524 6 123958466.75906     -3404.956 6        40.406    23588523.564 4  96590982.87704     -2653.204 4        27.750    23588523.649 6  96590980.86706     -2653.350 6        40.906    23588529.300 6  92566376.40206     -2542.699 6        40.438
G13        13.000    20106266.929 7 105659155.60107      -804.555 7        47.406    20106260.772 6  82331787.30806      -626.924 6        39.906
G14        31.000    25183595.686 6 132340707.84406      1868.405 6        36.125    25183597.420 3 103122637.42103      1455.910 3        21.563    25183597.515 6 103122643.44406      1455.867 6        39.406    25183603.193 6  98825881.70806      1394.967 6        38.250
G15        15.000    20658365.574 8 108560473.65608      1470.288 8        48.031    20658360.814 8  84592578.66008      1145.681 8        48.625    20658361.001 7  84592578.67207      1145.601 7        44.031
G18        39.000    23152814.048 7 121668903.46107      3033.395 7        42.531    23152810.749 5  94806949.82205      2363.688 5        30.313    23152811.660 6  94806944.84606      2363.541 6        41.813    23152816.066 6  90856679.02406      2265.025 6        41.156
G20         4.000    21282541.388 7 111840488.61807     -1370.980 7        45.813    21282536.784 6  87148405.45506     -1068.292 6        37.094
G22        34.000    25351377.696 5 133222388.14505      2156.502 5        32.156    25351378.622 1 103809667.09901      1680.391 1         9.594
G24         6.000    23703653.467 5 124563573.69405      4097.750 5        35.563    23703658.014 4  97062562.90804      3193.052 4        28.813    23703657.833 5  97062557.94505      3192.708 5        35.813    23703659.374 5  93018299.72805      3060.014 5        34.313
G29         3.000    24118765.803 6 126744920.10806     -2038.411 6        40.344    24118766.257 5  98762253.87605     -1588.363 5        35.938    24118766.721 6  98762256.88506     -1588.617 6        37.656
G30         1.000    23417415.139 6 123059337.26406     -2127.003 6        40.688    23417413.956 6  95890381.89406     -1657.401 6        38.438    23417414.139 6  95890380.89906     -1657.585 6        39.156    23417414.611 6  91894954.85806     -1588.558 6        41.844
J02        54.000    37946519.359 6 199410348.82406       355.487 6        37.719    37946528.219 6 155384744.39206       276.783 6        38.031    37946532.831 6 148910406.02806       265.325 6        37.938
J03        26.000    37205439.026 7 195515893.74107       399.861 7        45.219    37205436.485 7 152350029.02607       311.485 7        44.938    37205438.962 7 146002122.48407       298.535 7        43.688
J07        57.000    37285202.324 6 195935064.36606       176.364 6        37.563    37285200.149 7 152676658.68507       137.287 7        44.125    37285202.845 7 146315147.77007       131.713 7        43.844
R01         8.000    21499298.878 7 114926049.99607     -1825.143 7        46.094    21499298.539 6  89386918.11506     -1419.769 6        41.531
R02        24.000    20340441.978 8 108540511.27408       265.913 8        52.313    20340441.478 8  84420403.06108       206.739 8        48.750
R03        33.000    22714328.791 7 121591683.77707      2305.828 7        45.406    22714328.226 7  94571371.37007      1793.336 7        42.938
R11        37.000    22279622.366 7 119055593.38707        32.343 7        46.719    22279622.300 7  92598810.64607        24.999 7        47.344
R12        36.000    22272031.407 7 118973376.56107      3413.563 7        46.938    22272035.196 7  92534993.01707      2654.805 7        45.375
R17        32.000    20114726.772 8 107637966.39208      -591.455 8        51.656    20114725.461 8  83718408.94108      -460.176 8        48.719
R18        56.000    22114792.559 7 118050299.12207      2946.738 7        45.719    22114794.131 7  91816916.70807      2291.792 7        46.063
R24        18.000    21887652.518 7 117043054.47007     -3894.648 7        47.500    21887654.490 7  91033465.39307     -3029.336 7        42.688
> 2024 06 24 08 20 24.0000000  0 57
C01         9.000    36841678.103 7 191844287.13007       160.824 7        44.563    36841675.798 7 148346165.69007       124.456 7        45.219    36841677.477 7 155889197.39607       130.733 7        46.719
C02        60.000    39114653.687 6 203680273.91606       209.839 6        36.938    39114652.128 6 157498496.19206       162.530 6        40.375    39114653.901 6 165506904.41306       170.644 6        40.406
C03        10.000    37528366.556 7 195420055.68407       171.987 7        44.438    37528362.126 7 151111165.51207       133.065 7        42.313    37528364.100 7 158794791.56007       139.793 7        45.875
C04        14.000    37743554.506 7 196540594.11307       146.015 7        43.281    37743549.822 7 151977636.06507       112.982 7        42.938    37743551.295 7 159705318.08207       118.805 7        43.313
C05        58.000    41806993.349 5 217699975.85505       214.069 5        35.656    41806997.032 6 168339461.38206       165.482 6        37.750    41806996.336 6 176899085.91206       173.909 6        40.656
C06        45.000    39074676.580 6 203472114.12806      1502.494 6        36.375    39074675.726 6 157337579.85406      1161.627 6        36.375    39074674.884 6 165337778.84506      1220.797 6        40.594
C07        44.000    41332876.508 6 215231038.46906     -1264.190 6        38.125    41332883.506 6 166430270.34706      -977.432 6        37.531    41332878.757 6 174892818.85906     -1027.015 6        39.000
C08        40.000    36906289.810 7 192180747.58107       886.694 7        43.125    36906283.524 7 148606318.62707       685.663 7        43.906    36906283.034 7 156162568.43507       720.547 7        46.969
C09        49.000    40564218.270 4 211228559.32904      1399.990 4        28.781    40564227.147 5 163335356.48705      1082.827 5        31.406    40564222.202 5 171640531.96305      1138.012 5        30.875
C10        59.000    40838553.163 5 212656997.21105     -1392.832 5        32.656    40838563.861 6 164439874.93706     -1077.171 6        36.875    40838558.131 6 172801209.79106     -1132.047 6        37.000
C13        42.000    37377154.360 7 194632655.56207       936.722 7        43.563    37377156.495 7 150502329.30207       724.347 7        42.469    37377154.667 7 158154982.19107       761.161 7        47.125
C16        41.000    39140031.388 6 203812444.02206      1446.223 6        39.563    39140035.453 6 157600744.44006      1118.243 6        38.719    39140031.886 6 165614325.71606      1175.092 6        37.000
C23        55.000    24643418.335 7 128324863.03907      2901.041 7        44.563                                                                    24643412.799 7 104274493.43207      2357.424 7        46.375
C24        48.000    26196388.863 6 136411470.27206     -1627.211 6        40.844                                                                    26196388.198 7 110845487.59607     -1322.143 7        42.281
C25        23.000    23739086.953 7 123615698.31007       733.983 7        46.125                                                                    23739086.395 7 100447894.49107       596.466 7        47.969
C27        16.000    23668858.877 7 123249922.44507     -2244.222 7        46.375                                                                    23668859.852 8 100150649.00308     -1823.706 8        48.031
C28        46.000    26030092.491 5 135545412.92205     -3054.106 5        34.625                                                                    26030098.656 6 110141735.01806     -2481.728 6        37.844
C30        22.000    24109965.112 7 125546917.05607       112.633 7        45.313                                                                    24109966.795 7 102017166.72707        91.472 7        47.594
C32        50.000    23283154.227 8 121241520.43308      1449.190 8        48.063                                                                    23283153.867 8  98518678.06808      1177.616 8        50.531
C33        51.000    26052299.644 6 135661114.22306     -1939.953 6        41.594                                                                    26052314.449 7 110235812.74107     -1576.374 7        42.438
C38         2.000    36216784.362 8 188590305.72108       684.993 8        48.313                                                                    36216781.592 8 153245059.45208       556.576 8        51.438
C39        19.000    38201601.526 7 198925797.14807      1384.865 7        45.000                                                                    38201599.953 7 161643512.42707      1125.338 7        47.063
C40        27.000    41394574.241 5 215552268.89505     -1519.006 5        33.656                                                                    41394586.195 5 175153867.22105     -1234.065 5        33.563
C41        30.000    22836626.574 8 118916302.33708      -678.883 8        49.156                                                                    22836631.690 8  96629255.33008      -551.697 8        52.438
C59        43.000    37060193.348 7 192982155.19107       189.439 7        46.344                                                                    37060179.910 8 156813752.85108       153.931 8        49.406
C60        47.000    39643318.352 6 206433165.17306       181.141 6        41.813                                                                    39643304.614 7 167743798.67107       147.212 7        42.969
E04        20.000    24641326.240 7 129491074.63807      1339.059 7        45.844    24641325.820 7  96697899.98707       999.905 7        45.156    24641323.505 7  99220442.39807      1026.007 7        46.688
E10        17.000    24066551.224 7 126470585.94807       810.148 7        47.438    24066549.869 7  94442321.34607       605.064 7        44.656    24066548.412 7  96906025.50407       620.718 7        47.781
E11        12.000    24644438.747 6 129507414.77406      2151.235 6        41.500    24644435.244 6  96710096.06206      1606.561 6        38.969    24644433.729 6  99232962.87206      1648.302 6        41.500
E12        25.000    23886265.290 7 125523163.31507      -612.396 7        42.531    23886261.858 7  93734815.92007      -457.261 7        42.438    23886260.274 7  96180063.85207      -469.248 7        45.375
E19        29.000    23983248.282 7 126032817.86407     -1110.221 7        42.375    23983245.807 6  94115405.33906      -829.244 6        39.375    23983244.204 7  96570582.57007      -850.786 7        42.188
E21        38.000    28420496.613 6 149350718.18706      2282.808 6        37.250    28420502.897 5 111528169.81105      1704.905 5        33.563    28420500.594 6 114437591.67706      1749.169 6        37.281
E27        35.000    28824438.815 6 151473451.13006       931.389 6        36.219    28824443.210 5 113113305.35305       695.748 5        33.406    28824440.199 6 116064077.89706       713.977 6        36.438
E33        21.000    26298847.508 6 138201328.94106     -2767.329 6        40.031    26298851.498 6 103202277.24706     -2066.336 6        39.563    26298848.927 7 105894503.92407     -2120.450 7        42.344
G05         5.000    20591293.071 7 108207974.92707      -114.473 7        46.594    20591287.709 8  84317881.80308       -89.200 8        49.531    20591287.988 7  84317879.79607       -89.113 7        45.938
G07         7.000    26140283.807 6 137368117.55716     -2800.989 6        37.688    26140282.252 4 107040086.24814     -2182.588 4        29.281    26140281.675 6 107040085.24306     -2182.912 6        36.031
G11        11.000    23589171.478 6 123961871.71406     -3405.586 6        40.469    23589171.489 4  96593636.08104     -2653.698 4        27.656    23589171.279 6  96593634.05706     -2653.607 6        40.875    23589177.269 6  92568919.05506     -2543.180 6        40.813
G13        13.000    20106420.023 7 105659960.42307      -805.546 7        47.375    20106413.925 6  82332414.44306      -627.700 6        39.938
G14        31.000    25183240.084 6 132338839.58906      1867.702 6        36.156    25183241.949 3 103121181.63803      1455.352 3        21.500    25183242.185 6 103121187.65406      1455.311 6        39.250    25183247.722 6  98824486.55606      1394.732 6        38.688
G15        15.000    20658085.866 7 108559003.56307      1469.371 7        47.938    20658081.043 8  84591433.13608      1144.963 8        48.594    20658081.294 7  84591433.14007      1144.995 7        43.938
G18        39.000    23152236.869 7 121665870.24107      3032.461 7        42.406    23152233.511 5  94804586.27705      2362.947 5        30.281    23152234.111 6  94804581.28806      2363.043 6        41.688    23152238.803 6  90854413.94706      2264.574 6        41.594
G20         4.000    21282802.342 7 111841859.76707     -1371.850 7        45.813    21282797.735 6  87149473.88206     -1068.972 6        37.094
G22        34.000    25350966.944 5 133220231.57705      2155.851 5        31.719    25350968.217 1 103807986.67801      1679.853 1         9.594
G24         6.000    23702873.705 5 124559476.17605      4096.874 5        35.469    23702878.279 4  97059370.04704      3192.358 4        28.844    23702877.774 5  97059365.05905      3192.391 5        35.750    23702879.785 5  93015239.88905      3059.533 5        34.906
G29         3.000    24119153.765 6 126746958.79306     -2039.340 6        40.188    24119154.189 5  98763842.45805     -1589.091 5        35.969    24119154.434 6  98763845.43606     -1588.980 6        37.563
G30         1.000    23417819.946 6 123061464.59806     -2128.080 6        40.531    23417818.767 6  95892039.55606     -1658.242 6        38.406    23417819.073 6  95892038.56206     -1658.317 6        38.906    23417819.338 7  91896543.44507     -1589.235 7        42.063
J02        54.000    37946451.590 6 199409993.35406       354.915 6        37.594    37946460.765 6 155384467.39406       276.578 6        38.188    37946465.124 6 148910140.59206       264.971 6        38.063
J03        26.000    37205362.998 7 195515493.87807       399.385 7        45.188    37205360.367 7 152349717.43807       311.144 7        44.969    37205362.856 7 146001823.86907       298.222 7        43.938
J07        57.000    37285168.723 6 195934887.99306       175.918 6        37.281    37285166.659 7 152676521.22907       137.037 7        44.094    37285169.295 7 146315016.04907       131.308 7        44.156
R01         8.000    21499640.351 7 114927875.20307     -1825.805 7        46.000    21499639.735 6  89388337.70606     -1419.943 6        41.688
R02        24.000    20340392.234 8 108540245.47708       265.121 8        52.188    20340391.620 8  84420196.32708       206.206 8        48.656
R03        33.000    22713897.895 7 121589377.90907      2305.208 7        45.594    22713897.497 7  94569577.91307      1793.072 7        43.031
R11        37.000    22279616.458 7 119055561.43507        31.059 7        46.813    22279616.393 7  92598785.79107        24.108 7        47.281
R12        36.000    22271392.325 7 118969963.19807      3412.591 7        46.875    22271396.219 7  92532338.17307      2654.337 7        45.438
R17        32.000    20114837.247 8 107638558.31508      -592.961 8        51.625    20114836.154 8  83718869.31708      -461.164 8        48.750
R18        56.000    22114240.631 7 118047352.75907      2945.513 7        45.781    22114242.194 7  91814625.07807      2291.035 7        46.063
R24        18.000    21888381.043 7 117046949.28007     -3895.522 7        47.406    21888382.818 7  91036494.66407     -3029.708 7        42.750
