     3.03           OBSERVATION DATA    M                   RINEX VERSION / TYPE
GnssLogger          Google 14           20240925 072505 UTC PGM / RUN BY / DATE
Google GnssLogger                                           MARKER NAME
Unknown                                                     MARKER NUMBER
Unknown             Unknown                                 OBSERVER / AGENCY
Unknown             GnssLogger          v3.0.6.4            REC # / TYPE / VERS
Unknown             Unknown                                 ANT # / TYPE
        0.0000        0.0000        0.0000                  ANTENNA: DELTA H/E/N
G    8 C1C L1C D1C S1C C5Q L5Q D5Q S5Q                      SYS / # / OBS TYPES
R    4 C1C L1C D1C S1C                                      SYS / # / OBS TYPES
J    8 C1C L1C D1C S1C C5Q L5Q D5Q S5Q                      SYS / # / OBS TYPES
C    8 C2I L2I D2I S2I C7Q L7Q D7Q S7Q                      SYS / # / OBS TYPES
E    8 C1C L1C D1C S1C C5Q L5Q D5Q S5Q                      SYS / # / OBS TYPES
  2024    09    25    07    25   05.0000000     GPS         TIME OF FIRST OBS
 1 R12 -1                                                   GLONASS SLOT / FRQ #
G L1C                                                       SYS / PHASE SHIFT
G L5Q  0.00000                                              SYS / PHASE SHIFT
R L1C                                                       SYS / PHASE SHIFT
J L1C                                                       SYS / PHASE SHIFT
J L5Q  0.00000                                              SYS / PHASE SHIFT
C L2I                                                       SYS / PHASE SHIFT
C L7Q  0.00000                                              SYS / PHASE SHIFT
E L1C  0.00000                                              SYS / PHASE SHIFT
E L5Q  0.00000                                              SYS / PHASE SHIFT
 C1C    0.000 C1P    0.000 C2C    0.000 C2P    0.000        GLONASS COD/PHS/BIS
                                                            END OF HEADER
> 2024 09 25 07 25 05.9995415  0 25                      
G10  20244320.34926     57357.51226      -824.92726        35.78726  20244348.52906     42847.06006      -615.34806        36.41006
G23  22105109.05124    141911.07724     -3193.44824        28.57924  22105143.22824    170505.29924     -2387.01524        29.02024
G25  20833485.37825     89462.57025     -1280.57925        31.48625  20833513.55905     75572.09405      -956.75305        30.66305
G26  22959384.14904   -102464.20604      3572.18404        28.69304  22959416.82605    -74357.93205      2666.44305        30.40105
G28  21218737.27406     -1345.01006        69.00606        36.77606  21218766.05405      8572.87005        50.96105        35.41705
G31  22537928.71706   -119304.71406      1805.53606        39.64206                                                                
G32  21543087.23105    -69461.94205      1077.86305        35.47205  21543101.02205    -41440.39905       805.15805        33.90905
R12  19284791.71725     81297.28825     -1164.72625        32.61125
J02  37443808.79125     27920.19725      -395.70525        31.34025  37443827.97704     21422.01104      -294.90104        27.64904
J04  37327368.80024    -65731.86624      1030.48624        27.01624  37327395.78205    -38949.85605       768.49305        30.72005
J07  36502406.81014      3984.09214         1.91214        26.39814  36502435.29005     12384.25605         1.06905        33.34405
C06  36686372.35325     31580.02825      -423.52825        30.40125                                                                
C09  37475534.02825     33475.83425      -460.01025        33.71425                                                                
C13  35815050.75606     43341.46806      -598.69306        36.51406                                                                
C23  21834804.77926     23352.12726      -298.90526        35.53226  21834815.57205     24058.97305      -224.33805        32.42105
C25  23784575.78125    169263.13725     -2611.93225        34.21725  23784599.76405    126409.36605     -1967.88405        34.54805
C32  23475846.80907   -145694.81607      2336.35107        43.20907  23475870.49305    -83310.87505      1760.63405        34.13805
C37  23999390.86706   3956437.80806      2235.76206        36.34306  23999432.53905   -106449.10405      1683.88705        34.90405
C38  36735318.26824   1444624.74724     -1208.28324        29.48224  36735344.35005     39218.98905      -912.46805        32.80905
C39  36819664.57725     27807.23425      -427.73025        31.79125  36819686.46105     20700.07505      -327.23305        29.72805
C41  22142032.99025     14548.62325      -171.78125        31.30225  22142068.36504     19862.05004      -130.02304        28.33904
E03  26080639.44925    -68090.05025      1490.36725        33.82025  26080672.72606    -49864.62106      1110.98606        36.54306
E05  22814370.64005    -22301.11105       432.29605        34.74505  22814391.32605    -15643.24305       322.51305        34.04105
E24  24712689.16105     19477.12805      -742.90705        32.70605  24712713.14504     13480.96304      -553.99304        28.94904
E25  24094461.65105   -117431.40105      1872.94405        32.82105  24094492.83005    -96293.91805      1401.14505        30.26705
> 2024 09 25 07 25 06.9995415  0 25                      
G10  20244480.13806     58181.94606      -825.43106        38.44606  20244505.02106     43462.72806      -616.47806        38.12406
G25  20833735.40525     90743.65725     -1281.69525        31.85425  20833757.59005     76528.72705      -957.28905        34.96205
G26  22958707.81705   -106035.64105      3570.55005        30.94105  22958737.19705    -77025.34905      2666.88105        30.90605
G28  21218724.68306     -1414.07406        68.21706        41.47306  21218753.46306      8521.33906        50.93106        36.70806
G31  22537589.05206   -121110.58606      1805.13206        40.15406                                                                
G32  21542869.28206    -70539.76306      1078.05206        36.73206  21542895.66405    -42245.50005       804.04905        33.59105
G23                                                                  22105750.30824    172891.91124     -2385.79224        27.42624
R12  19285023.75625     82461.97025     -1166.02225        33.61225
J02  37443881.04105     28315.43105      -395.99605        32.71905  37443903.22504     21716.91104      -296.23304        27.29804
J04  37327160.44524    -66756.62324      1025.43824        27.46424  37327200.31705    -39717.64905       767.37605        33.78005
J07  36502397.51624      3978.94524         0.35124        26.32224  36502435.29005     12383.73805         0.18305        34.27205
C06  36686456.59525     32009.52125      -430.45025        29.75025                                                                
C09  37475625.16526     33935.00626      -459.94726        35.65426                                                                
C13  35815171.27306     43940.46306      -599.79606        38.38106                                                                
C23  21834856.94326     23649.68126      -298.99126        38.65426  21834873.13206     24283.30006      -225.14606        36.31306
C25  23785072.83725    171874.49625     -2612.80425        31.33325  23785100.71706    128377.02006     -1968.09606        37.52406
C32  23475401.01806   -148031.96806      2336.00506        41.48306  23475422.60305    -85071.80905      1760.40205        33.29305
C37  23998962.76406   3954202.07206      2235.03706        37.98306  23999004.43505   -108133.84405      1683.91105        35.20805
C38  36735551.50725   1445830.65225     -1213.02725        33.90525  36735576.98905     40131.21605      -912.75205        33.94305
C39  36819747.91926     28240.19626      -433.92526        38.24826  36819769.50405     21026.04805      -326.68505        33.12805
C41  22142063.26925     14722.85125      -174.98925        35.08425  22142099.84305     19993.67605      -131.95905        30.94605
E03  26080356.44526    -69580.77626      1490.49926        37.16826  26080388.52306    -50976.47006      1111.77606        35.69706
E05  22814286.39805    -22733.87405       431.71105        35.26905  22814309.48205    -15966.53105       322.73705        34.83205
E24  24712832.76206     20219.44906      -743.18906        36.88806  24712854.94705     14035.34505      -555.61105        31.43905
E25  24094106.69705   -119304.00505      1871.49605        34.77905  24094136.97625    -97699.92825      1398.06925        31.87125
> 2024 09 25 07 25 07.9995415  0 25                      
G10  20244638.12906     59006.50506      -821.62006        38.93206  20244661.81206     44078.47606      -613.59806        37.43806
G23  22106326.50924    148294.65924     -3192.56224        23.60424  22106358.58604    175278.04304     -2382.99504        26.79704
G25  20833974.04025     92024.76825     -1278.39925        34.42625  20834002.22006     77485.39406      -954.70506        38.42006
G26  22958020.69305   -109608.40705      3575.78505        31.04305  22958058.16705    -79693.34405      2670.42505        31.68205
G28  21218711.19206     -1483.62406        72.69106        40.13806  21218740.87106      8469.38606        54.39806        40.26806
G31  22537245.78906   -122916.93006      1808.97506        40.55006                                                                
G32  21542659.72706    -71618.69106      1082.06406        39.78606  21542691.20505    -43051.02905       807.91505        34.81505
R12  19285183.24525     83626.90725     -1162.37125        32.37225
J02  37443952.69105     28709.52705      -391.35205        30.97905  37443978.47304     22011.27904      -291.99304        26.56304
J04  37326982.96725    -67785.42225      1031.90325        30.84725  37327004.25305    -40486.08805       770.84205        34.09905
J07  36502407.70924      3984.93224         1.78124        25.47124  36502435.29005     12382.71705         3.13705        34.66505
C06  36686535.14025     32437.83925      -425.50625        34.68625                                                                
C09  37475713.00425     34393.66225      -455.84225        34.14025                                                                
C13  35815285.19406     44538.97206      -595.55606        37.69906                                                                
C23  21834910.30626     23947.17126      -294.49526        38.04926  21834930.69206     24507.35006      -221.87506        38.11406
C25  23785579.18625    174485.70625     -2607.83225        34.00625  23785602.87006    130344.15706     -1965.26806        37.27006
C32  23474944.43406   -150369.01206      2340.32006        38.26406  23474974.11405    -86833.39305      1763.93605        35.39005
C37  23998536.15906   3951965.81606      2238.80306        39.53606  23998575.13206   -109819.18406      1687.25106        37.69206
C38  36735781.14825   1447040.60925     -1212.21625        32.67225  36735808.42906     41042.97606      -909.20906        36.78706
C39  36819828.86326     28672.12826      -429.44026        36.59526  36819853.14606     21351.45806      -323.32306        36.65106
C41  22142101.34226     14896.86526      -171.07026        35.71726  22142135.51905     20124.71905      -128.80305        34.75205
E03  26080074.34006    -71070.42806      1492.99306        36.92606  26080104.91905    -52088.82605      1114.74505        33.23005
E05  22814203.95505    -23167.35305       436.65205        33.87305  22814227.93905    -16289.91605       326.57105        32.95805
E24  24712978.76106     20961.42406      -738.85706        36.28006  24712997.94805     14589.42105      -552.37005        34.92705
E25  24093749.64405   -121176.97905      1875.35405        34.53205  24093781.12225    -99113.15625      1400.34125        34.93925
> 2024 09 25 07 25 08.9995415  0 25                      
G10  20244792.52206     59824.97406      -814.51206        40.04906  20244818.30406     44689.72306      -608.93606        37.09806
G23  22106933.58823    151494.00523     -3192.25323        22.16923  22106964.16704    177659.99304     -2379.51404        26.22604
G25  20834218.97026     93299.89726     -1271.69726        36.10126  20834244.45306     78437.81106      -950.86506        38.30206
G26  22957341.66305   -113186.56505      3580.32205        32.00405  22957376.43905    -82365.21705      2673.72905        30.16305
G28  21218693.20406     -1559.72506        81.08006        38.15006  21218726.18206      8412.46006        61.48106        39.97406
G31  22536899.82906   -124729.46806      1816.06206        40.68806                                                                
G32  21542458.86607    -72704.39607      1090.44207        41.62107  21542484.34805    -43861.90605       813.52505        34.38505
R12  19285410.18825     84785.54125     -1155.58425        33.99925
J02  37444023.44205     29097.81105      -386.35805        32.02105  37444051.92204     22301.17504      -287.51504        28.74304
J04  37326780.90725    -68820.91325      1039.07325        32.21125  37326807.58905    -41259.10905       775.10605        35.02905
J07  36502402.91224      3976.27424         9.54524        26.90024  36502433.49105     12376.87205         7.91105        34.90405
C06  36686617.28306     32860.45506      -419.28606        37.27006                                                                
C09  37475795.74625     34845.75425      -447.33425        32.42825                                                                
C13  35815394.91806     45131.17306      -588.92006        38.62506                                                                
C23  21834970.56406     24238.24406      -287.86406        38.71006  21834986.75306     24726.77106      -216.34806        37.57806
C25  23786081.63806    177091.01206     -2604.16806        35.99306  23786102.02406    132307.03006     -1961.48706        35.98806
C32  23474492.04726   -152713.35326      2347.03126        37.94726  23474525.02406    -88599.01306      1767.67706        36.97706
C37  23998102.06006   3949723.80806      2244.98506        39.93206  23998143.73106   -111508.81706      1692.13306        37.89306
C38  36736014.68625   1448244.49625     -1201.62125        32.27625  36736039.56906     41950.30706      -905.24706        37.64606
C39  36819908.60825     29097.76225      -421.69925        34.55925  36819934.09006     21671.66506      -315.86206        37.77806
C41  22142134.31906     15064.60806      -163.52406        35.67006  22142167.89605     20251.18505      -123.31405        35.37605
E03  26079791.33606    -72565.92306      1494.06606        36.78006  26079820.11605    -53206.51405      1120.48005        33.54805
E05  22814121.81205    -23607.26105       442.83305        35.32405  22814143.69725    -16617.70525       330.93725        32.16225
E24  24713116.06605     21697.68105      -733.23905        35.14305  24713137.95105     15139.09105      -546.63005        35.05805
E25  24093392.59105   -123055.76505      1882.00005        34.44705  24093423.77026   -100537.95226      1404.50626        35.53326
> 2024 09 25 07 25 09.9995416  0 25                      
G10  20244980.49207     60642.16607      -818.40507        41.77607  20245004.17506     45299.82006      -610.81206        39.17406
G23  22107567.64925    154683.17925     -3189.32025        33.68125  22107602.42506    180040.96906     -2381.18906        36.04506
G25  20834487.28525     94574.06725     -1274.96125        35.15225  20834518.16326     79388.90226      -950.38826        35.90526
G26  22956691.71305   -116766.66705      3579.74905        33.45905  22956724.69005    -85038.61405      2673.13605        32.36005
G28  21218709.09306     -1637.07306        76.66606        39.52306  21218740.87126      8354.35626        57.27826        37.96626
G31  22536582.04906   -126543.83406      1814.16506        41.15506                                                                
G32  21542287.38506    -73791.33906      1087.72506        40.01806  21542307.17105    -44673.93005       811.13805        33.74105
R12  19285688.69625     85942.88925     -1159.11225        34.23525
J02  37444120.87505     29484.02305      -385.41205        30.80605  37444156.85005     22589.55505      -288.85905        31.00105
J04  37326615.42225    -69857.78525      1037.94125        32.43225  37326639.70505    -42033.83805       773.61805        35.06805
J07  36502428.69424      3966.24524         9.94824        27.54124  36502461.37206     12369.42606         7.51006        37.24106
C06  36686727.00725     33279.40825      -419.78925        34.87725                                                                
C09  37475915.06425     35295.77925      -450.75625        33.81725                                                                
C13  35815543.91506     45721.19206      -590.45706        37.15406                                                                
C23  21835060.20206     24527.49406      -289.54806        36.92406  21835071.89406     24944.79606      -218.95306        37.17606
C25  23786619.16626    179692.97126     -2601.85826        36.95626  23786632.35705    134268.44405     -1962.44005        33.95805
C32  23474077.73426   -155058.77226      2344.11826        38.01926  23474104.11606    -90366.85506      1765.83806        36.85906
C37  23997701.23706   3947479.99306      2243.54306        41.47406  23997742.60806   -113199.71206      1690.40806        38.36706
C38  36736271.60826   1449446.43626     -1202.34826        38.00326  36736300.08906     42856.11806      -906.45906        36.92406
C39  36820028.82426     29521.10326      -424.48026        36.97926  36820045.01325     21990.82525      -319.79925        34.60325
C41  22142194.27825     15231.12925      -162.40725        35.07925  22142228.45405     20376.56205      -126.27805        34.28505
E03  26079536.21326    -74063.14726      1499.72226        39.54826  26079564.69326    -54325.46926      1118.89926        35.74626
E05  22814063.05325    -24049.42725       442.37825        35.19625  22814088.53505    -16947.82205       329.32105        32.89805
E24  24713283.35005     22433.53905      -740.21705        33.30505  24713306.73405     15687.73205      -548.73005        32.86505
E25  24093065.21806   -124936.33106      1879.91406        36.28406  24093095.79706   -101942.54306      1404.06006        36.03906
> 2024 09 25 07 25 10.9995416  0 25                      
G10  20245135.48407     61461.82307      -820.10307        42.51107  20245159.76806     45911.89306      -612.22006        38.33406
G23  22108172.33126    157873.43926     -3190.29626        39.70126  22108210.10506    182423.23406     -2382.53906        38.88906
G25  20834725.91925     95851.35725     -1274.33925        31.60525  20834759.19625     80342.41925      -953.41025        34.73625
G26  22956005.78805   -120345.17205      3577.16105        31.89805  22956043.86205    -87710.88005      2671.42305        33.88905
G28  21218704.89606     -1712.94006        76.07806        36.98806  21218725.88206      8297.73906        56.22906        36.44606
G31  22536239.98606   -128356.15606      1810.28606        40.48406                                                                
G32  21542084.72506    -74876.68506      1084.64506        39.12806  21542100.31405    -45484.37505       810.10905        33.70705
R12  19285902.74715     87102.91815     -1161.46215        31.26415
J02  37444200.02025     29872.80025      -388.45325        32.36025  37444230.29905     22879.40905      -289.65005        34.06105
J04  37326416.95925    -70893.15425      1035.47425        32.39825  37326443.04105    -42807.10705       773.01505        34.57105
J07  36502430.79324      3959.41724        10.29324        28.23524  36502459.87306     12363.47406         6.10206        36.71506
C06  36686808.25125     33700.91025      -422.18125        34.03425                                                                
C09  37475999.30625     35747.44325      -452.53425        34.05525                                                                
C13  35815652.74006     46313.51206      -592.96606        35.84006                                                                
C23  21835114.76506     24819.40506      -292.02906        35.98906  21835128.55506     25164.91406      -220.55506        37.34106
C25  23787114.12425    182297.57525     -2604.38125        35.18225  23787132.11105    136231.25405     -1963.13105        33.95505
C32  23473628.34526   -157402.13626      2343.52726        35.73026  23473654.42705    -92133.19505      1765.62705        35.48405
C37  23997273.13407   3945238.08407      2240.55907        43.41307  23997313.30606   -114889.16106      1688.59406        41.23606
C38  36736504.84726   1450650.31826     -1204.13426        38.36826  36736531.82806     43763.36806      -907.45706        37.06606
C39  36820107.07026     29945.99426      -425.79526        36.39126  36820127.15625     22310.74725      -320.53325        32.99725
C41  22142230.85325     15399.72225      -169.14925        33.48325  22142260.53205     20503.62505      -127.58205        33.90205
E03  26079249.01206    -75561.03106      1501.26906        36.80506  26079281.08906    -55443.10206      1116.61206        35.63306
E05  22813979.71006    -24489.39306       439.76606        35.95606  22814005.79205    -17276.38005       328.66405        33.69305
E24  24713421.85405     23170.56205      -737.16505        31.64005  24713447.03705     16238.14705      -550.79305        31.48705
E25  24092709.36406   -126814.82106      1878.16706        38.48506  24092737.54506   -103345.29006      1402.46806        35.85806
> 2024 09 25 07 25 11.9995416  0 25                      
G10  20245295.27406     62282.79006      -821.35706        41.28106  20245315.95906     46524.92906      -613.30906        38.35006
G23  22108779.11126    161064.12026     -3190.78026        39.69726  22108816.88506    184805.90206     -2382.62306        38.79806
G25  20834969.05125     97128.23325     -1278.00225        30.04125  20835003.52706     81296.06706      -953.79206        37.55606
G26  22955327.65725   -123923.42025      3575.85625        30.02325  22955363.63205    -90382.60405      2671.73705        33.93805
G28  21218686.30925     -1786.65225        67.78725        32.56925  21218711.79106      8242.05906        55.67106        36.77406
G31  22535899.12206   -130167.14206      1811.18006        40.58706                                                                
G32  21541873.97106    -75961.70506      1085.35406        38.23806  21541894.65705    -46294.63505       810.29205        33.60405
R12  19286111.70325     88264.10325     -1161.35625        35.11825
J02  37444286.36025     30261.12625      -388.03325        34.22725  37444303.74806     23169.30906      -289.78406        36.14906
J04  37326223.29325    -71928.30125      1035.56025        34.69725  37326245.17805    -43580.18205       773.35505        34.78605
J07  36502431.39324      3950.64624         8.67424        28.55524  36502458.37406     12357.74906         5.68806        37.93606
C06  36686893.69226     34123.07026      -422.25026        36.66626                                                                
C09  37476088.34425     36199.78325      -452.34225        31.85925                                                                
C13  35815768.16026     46906.24126      -593.16926        37.28126                                                                
C23  21835173.22426     25112.38126      -292.82426        37.59126  21835183.71706     25385.58306      -220.58506        37.46706
C25  23787607.28226    184901.93326     -2604.17526        37.62626  23787632.16505    138193.89805     -1962.58405        29.62905
C32  23473177.75726   -159745.16926      2343.72226        36.13426  23473204.73905    -93899.27905      1766.49005        34.83805
C37  23996841.73207   3942997.21707      2240.89207        43.79307  23996883.70306   -116577.85906      1688.40506        40.57906
C38  36736733.88826   1451854.77926     -1204.17726        37.88626  36736762.36906     44671.09206      -907.59806        36.17906
C39  36820192.51125     30371.38425      -425.15625        35.39325  36820209.00005     22631.27905      -320.18405        35.43605
C41  22142262.63125     15568.93325      -169.26425        34.49425  22142293.20905     20631.20705      -127.67205        33.75505
E03  26078967.50625    -77054.67025      1490.20025        35.15025  26078998.08505    -56560.61705      1117.93805        33.19105
E05  22813892.77106    -24929.27506       440.22406        37.86906  22813922.45005    -17604.78205       328.30405        32.22905
E24  24713575.34804     23907.82104      -737.07404        29.47804  24713587.33905     16788.63505      -550.62205        32.97205
E25  24092350.21306   -128692.57806      1878.12606        40.32806  24092380.79206   -104747.48506      1402.03006        36.33806
> 2024 09 25 07 25 12.9995416  0 25                      
G10  20245448.76706     63102.85106      -818.16706        40.68006  20245471.85106     47137.31306      -611.13006        37.72906
G23  22109390.68706    164254.11406     -3187.75706        39.60406  22109424.56406    187187.61706     -2380.25706        38.99106
G25  20835217.57904     98405.39604     -1274.07504        28.92104  20835246.05906     82249.47206      -951.34406        37.70006
G26  22954640.23304   -127502.17904      3580.61704        29.06704  22954682.80405    -93055.46505      2674.47105        33.95305
G28  21218667.72225     -1853.47625        77.00525        31.26925  21218697.40106      8185.43106        58.21806        35.94206
G31  22535549.86306   -131979.54206      1814.59306        41.33906                                                                
G32  21541660.51906    -77048.24706      1088.81806        38.61006  21541688.39905    -47105.67705       812.86105        32.94905
R12  19286329.95226     89424.87726     -1158.65526        36.58626
J02  37444361.60805     30648.60305      -385.25005        32.70705  37444377.19706     23458.26506      -287.49106        35.72506
J04  37326024.23105    -72964.90405      1038.76505        34.99305  37326047.91505    -44354.19105       775.32405        34.51105
J07  36502432.29224      3941.35924        10.99524        27.13024  36502455.97606     12350.87606         8.45206        37.29706
C06  36686974.33626     34543.81226      -418.51626        35.74526                                                                
C09  37476168.68825     36650.63125      -448.77325        30.69625                                                                
C13  35815880.58226     47498.09826      -589.80426        38.42026                                                                
C23  21835224.78826     25404.25826      -289.45626        38.05326  21835240.67706     25605.55106      -218.10206        37.55606
C25  23788112.13326    187505.54026     -2600.46626        39.31326  23788132.21904    140156.05104     -1959.86104        28.56804
C32  23472728.06826   -162089.64226      2347.23726        38.69326  23472752.95105    -95665.96705      1768.63805        33.69705
C37  23996412.13007   3940755.02207      2244.08307        43.67407  23996452.60206   -118267.62306      1691.03206        40.97306
C38  36736967.12726   1453057.85426     -1200.87126        37.35026  36736993.50906     45577.72206      -905.14106        36.14406
C39  36820270.75726     30795.33826      -421.29726        36.42626  36820290.54306     22950.78406      -317.62506        36.27106
C41  22142296.80725     15737.28125      -166.08725        35.04525  22142326.18705     20758.02605      -125.32005        34.42605
E03  26078680.30526    -78534.87926      1501.31326        39.17326  26078712.38305    -57679.11405      1120.70905        33.91205
E05  22813813.32606    -25370.15206       443.58806        38.33806  22813839.40805    -17934.11605       331.74505        32.71105
E24  24713718.04905     24644.44405      -733.55505        29.89505  24713727.94205     17338.78805      -548.36405        32.91505
E25  24091993.46006   -130571.52006      1881.35806        40.03906  24092023.43906   -106150.59706      1404.66706        36.07706
> 2024 09 25 07 25 13.9995416  0 25                      
G10  20245601.96107     63918.04807      -814.26407        42.52707  20245627.14406     47746.07006      -608.11806        37.65906
G23  22109993.27006    167438.35706     -3182.99106        40.51006  22110029.24506    189565.45706     -2376.77906        38.05306
G25  20835472.40324     99680.70124     -1268.79024        27.11824  20835487.69206     83199.08306      -948.56806        38.75606
G26  22953956.70605   -131086.89405      3586.31905        29.79205  22954000.17605    -95732.26705      2677.93105        34.08805
G28  21218658.42825     -1934.30325        81.82025        33.33625  21218681.81205      8124.90505        61.23005        35.06905
G31  22535209.29906   -133797.07306      1818.27606        41.45406                                                                
G32  21541456.06006    -78139.84706      1092.68706        38.66106  21541480.04405    -47920.89805       816.56305        34.41605
R12  19286546.70226     90580.68626     -1154.88126        36.16726
J02  37444432.35905     31029.89705      -379.51505        33.75205  37444449.44706     23743.01406      -283.51106        35.71406
J04  37325826.36805    -74007.08605      1043.93405        35.13205  37325850.05205    -45132.45905       779.44205        35.28505
J07  36502429.29425      3926.45225        17.04525        30.99525  36502454.47706     12339.84606        12.11306        37.96206
C06  36687053.78125     34958.99925      -413.77125        35.39225                                                                
C09  37476258.62625     37095.98125      -444.32325        33.34825                                                                
C13  35815994.20326     48084.67626      -585.20726        38.79926                                                                
C23  21835278.15126     25691.13126      -285.58626        36.65026  21835294.94006     25821.74906      -215.35806        37.36506
C25  23788613.98526    190103.60626     -2596.18626        36.79426  23788630.17404    142113.97704     -1957.12004        26.96004
C32  23472280.77826   -164439.45226      2351.42126        38.06926  23472302.36305    -97436.80505      1771.96905        33.93805
C37  23995980.12907   3938507.72007      2248.36107        43.72607  23996021.50006   -119961.19306      1694.23906        41.38706
C38  36737195.26926   1454255.61126     -1196.49326        37.25326  36737223.74906     46480.32806      -901.69806        36.33606
C39  36820353.79926     31213.73726      -417.09726        37.02926  36820371.18706     23266.03506      -314.05006        36.75506
C41  22142331.58326     15900.44626      -161.74726        36.21726  22142357.66505     20880.98005      -122.05605        34.43805
E03  26078398.20106    -80038.47006      1505.21006        38.71006  26078425.78205    -58801.89705      1123.87805        33.79505
E05  22813728.18506    -25816.77706       448.41606        38.20406  22813753.66705    -18267.59105       334.50805        33.74805
E24  24713853.25505     25375.85805      -730.02005        31.93105  24713867.34605     17884.91405      -544.82905        34.50605
E25  24091637.00706   -132455.66906      1885.46406        40.05306  24091664.88706   -107557.62006      1408.08606        36.87406
> 2024 09 25 07 25 14.9995416  0 25                      
G10  20245758.75307     64732.54307      -815.25107        43.25707  20245781.53706     48354.30306      -608.38306        37.70606
G23  22110600.94906    170621.75506     -3184.07106        39.99906  22110636.32506    191942.72406     -2377.47406        38.12006
G25  20835707.14024    100947.97724     -1265.49724        26.99924  20835729.92406     84148.03506      -949.21006        39.15706
G26  22953270.48205   -134672.35205      3585.40605        29.58305  22953318.14905    -98409.81505      2677.63005        34.54905
G28  21218640.74125     -2016.65325        81.91025        33.99225  21218666.22305      8063.40905        60.93805        34.89505
G31  22534859.44107   -135615.84807      1818.27807        43.10507                                                                
G32  21541248.60406    -79232.99806      1092.85706        38.18706  21541272.28806    -48737.19706       816.01506        35.94306
R12  19286754.15825     91735.90425     -1155.77125        34.05125
J02  37444502.51005     31410.05505      -380.59105        34.07505  37444521.39706     24026.90306      -283.93706        35.73306
J04  37325625.20705    -75050.52305      1043.12205        34.93605  37325651.88905    -45911.73805       779.09705        35.40605
J07  36502426.89625      3910.54925        15.83425        31.87225  36502450.57906     12327.91206        11.86606        38.17406
C06  36687133.22606     35372.68706      -414.19706        35.52406                                                                
C09  37476343.16705     37539.79205      -444.03405        35.20405                                                                
C13  35816110.22306     48670.66106      -585.88606        39.53506                                                                
C23  21835332.11405     25976.97905      -286.47005        35.32605  21835350.10206     26037.10606      -215.81006        37.34206
C25  23789110.14206    192700.24806     -2597.31906        36.91906  23789127.82904    144070.73504     -1957.85704        27.34404
C32  23471821.49606   -166790.17606      2351.02906        38.79406  23471850.57606    -99208.76606      1771.35506        35.84706
C37  23995549.62707   3936259.38307      2248.05707        43.80207  23995589.49907   -121655.56207      1694.17407        41.50007
C38  36737423.71106   1455452.73506     -1196.49406        37.40606  36737453.09006     47382.13206      -901.88206        36.41206
C39  36820426.34906     31631.01106      -416.85106        37.67306  36820451.53206     23580.15906      -314.33506        36.08306
C41  22142363.06106     16062.73906      -162.79606        36.23306  22142388.24405     21003.28705      -122.46105        34.64305
E03  26078111.59906    -81543.61006      1505.21906        38.40106  26078139.48005    -59925.95605      1123.47605        33.58105
E05  22813641.84406    -26264.94906       447.88806        37.37406  22813669.42505    -18602.18405       334.40805        34.68505
E24  24713984.56505     26106.21505      -730.87405        33.33505  24714006.15005     18430.33405      -545.66705        34.72405
E25  24091275.15706   -134340.68006      1884.05206        38.01206  24091306.03606   -108965.28406      1407.50606        37.51606
> 2024 09 25 07 25 15.9995416  0 25                      
G10  20245919.44207     65548.93007      -817.12907        43.43407  20245936.83006     48963.94706      -610.09206        38.10306
G23  22111205.63106    173806.51506     -3185.29006        39.15006  22111241.00606    194320.92406     -2378.61206        38.55406
G25  20835940.07924    102211.11524     -1266.97524        26.91724  20835973.05606     85098.56506      -951.33006        38.40606
G26  22952594.74905   -138256.63705      3583.65505        30.67405  22952635.82105   -101086.32805      2675.86105        34.66705
G28  21218622.75326     -2097.22326        80.10326        36.81526  21218650.03405      8003.26205        59.72505        33.65805
G31  22534513.18107   -137432.81507      1816.71607        43.32907                                                                
G32  21541042.04706    -80324.54206      1091.12906        37.22106  21541064.83106    -49552.25906       814.70706        37.66306
R12  19287000.58725     92893.10325     -1158.14825        32.19925
J02  37444575.36005     31791.42305      -381.72905        35.03205  37444594.54706     24311.70306      -285.07206        36.11106
J04  37325431.54105    -76092.82005      1042.07005        35.03305  37325452.82705    -46689.97705       777.90005        35.15305
J07  36502419.70125      3895.73025        13.93625        33.21825  36502448.78106     12316.75606        10.74306        38.45806
C06  36687212.37105     35787.86205      -416.42805        35.07905                                                                
C09  37476429.20806     37985.15206      -445.87106        36.19806                                                                
C13  35816220.54606     49257.47806      -587.37106        38.89506                                                                
C23  21835390.87325     26264.68925      -288.50125        32.79325  21835404.96406     26253.86806      -217.45706        37.08306
C25  23789611.99406    195298.44706     -2598.84506        36.71006  23789627.58404    146028.77804     -1958.73504        27.93904
C32  23471370.00906   -169139.77206      2349.42006        39.24306  23471400.28806   -100979.40606      1770.23306        38.84106
C37  23995117.92607   3934012.66707      2246.16707        43.80707  23995157.79807   -123348.73407      1692.83307        41.67607
C38  36737655.75006   1456650.67806     -1198.43306        36.25806  36737683.63106     48284.85106      -903.20006        37.01306
C39  36820506.99306     32049.17706      -418.46706        38.01406  36820531.57605     23895.26705      -315.05505        34.45805
C41  22142393.34005     16226.65705      -164.83605        34.92905  22142420.62105     21126.79505      -123.86105        35.35105
E03  26077824.69806    -83047.45206      1504.04006        35.78406  26077852.87805    -61048.85405      1122.75905        34.20405
E05  22813554.30506    -26711.49406       445.99006        36.45706  22813584.28405    -18935.65605       333.01205        35.32405
E24  24714115.87405     26838.27305      -732.48105        33.48205  24714145.25305     18977.10105      -547.66505        33.58505
E25  24090916.30606   -136224.38406      1882.84606        36.76006  24090947.48406   -110371.86406      1406.03606        37.75406
> 2024 09 25 07 25 16.9995416  0 25                      
G10  20246066.94007     66365.76607      -814.71007        44.81707  20246092.42206     49573.91706      -608.31706        38.69006
G23  22111809.71306    176991.46206     -3183.03506        37.15106  22111848.38606    196699.30506     -2376.73406        38.63006
G25  20836189.20625    103476.39625     -1273.95625        32.69725  20836214.68906     86049.37106      -949.26206        37.89006
G26  22951911.82215   -141840.85615      3583.24615        29.95015  22951954.69205   -103762.97905      2678.40805        34.57605
G28  21218611.36126     -2177.85826        83.08126        39.78826  21218634.44505      7943.06405        62.12705        33.04605
G31  22534170.51807   -139249.76907      1819.57007        43.94407                                                                
G32  21540825.89706    -81416.20506      1094.38906        37.94806  21540857.37506    -50367.48406       817.35806        36.34006
R12  19287189.75624     94050.83424     -1158.97324        28.06624
J02  37444647.31005     32172.63905      -378.51905        32.93505  37444667.09605     24596.38805      -282.83505        34.66605
J04  37325233.97805    -77135.21905      1044.77205        33.77205  37325254.96405    -47468.42205       780.22805        35.13805
J07  36502421.20025      3880.53925        17.42825        30.93925  36502445.18306     12305.46506        12.95306        37.46906
C06  36687288.81825     36203.38525      -415.31825        31.16025                                                                
C09  37476514.34906     38430.12806      -442.13906        36.46706                                                                
C13  35816335.06706     49844.36206      -584.87806        37.95706                                                                
C23  21835443.03725     26552.38625      -285.82325        30.56725  21835459.52606     26470.67206      -215.09106        37.01506
C25  23790111.14906    197896.53906     -2595.68406        35.67006  23790127.33804    147986.72904     -1956.23604        29.46404
C32  23470919.42106   -171489.46706      2352.64206        38.00206  23470947.30106   -102750.19906      1772.64306        38.09306
C37  23994685.32507   3931765.98507      2248.83407        43.08907  23994726.69607   -125041.82307      1694.79607        41.99907
C38  36737879.09606   1457848.54706     -1196.05206        36.08606  36737913.57206     49187.53506      -901.14106        36.49406
C39  36820591.83506     32466.99206      -414.90106        39.11206  36820612.52005     24210.17505      -313.18605        33.01805
C41  22142425.41805     16390.68705      -161.68705        33.81205  22142452.09905     21250.41005      -121.63105        34.33005
E03  26077534.49906    -84551.56006      1506.77406        39.71806  26077566.27706    -62172.09106      1125.39106        38.48106
E05  22813470.66306    -27158.26406       449.16906        35.77106  22813498.54406    -19269.31806       335.45506        35.80106
E24  24714253.17905     27570.66805      -730.03305        33.90105  24714284.95705     19523.99205      -545.34305        32.49905
E25  24090559.85206   -138107.81506      1885.43806        36.05506  24090589.53206   -111778.38706      1408.22006        36.61506
> 2024 09 25 07 25 17.9995416  0 25                      
G10  20246227.92807     67180.53507      -813.49907        45.17407  20246247.41506     50182.36206      -607.27306        39.40906
G23  22112420.09006    180174.04006     -3180.88306        38.21506  22112453.66706    199075.93406     -2375.58906        38.45106
G25  20836436.23526    104746.80726     -1272.78226        37.20526  20836455.42206     86998.58706      -948.62206        36.84006
G26  22951234.29125   -145432.50425      3585.67625        30.16925  22951271.76505   -106441.42505      2679.81905        34.11905
G28  21218591.27527     -2260.96727        84.46627        41.66327  21218619.15605      7881.10605        62.77105        33.31205
G31  22533817.96207   -141069.00407      1820.62907        41.95707                                                                
G32  21540628.93306    -82510.52006      1095.39806        36.89806  21540648.41906    -51184.71306       817.90306        36.33506
R12  19287406.80625     95207.63125     -1154.82825        30.48925
J02  37444717.46205     32551.16705      -377.04505        32.72905  37444738.44705     24879.11605      -281.40105        34.08005
J04  37325034.61605    -78180.33505      1046.56705        32.96905  37325056.50106    -48248.92106       781.69206        35.52806
J07  36502409.50825      3862.22325        18.93525        30.73025  36502443.38406     12292.15206        14.67206        38.42206
C06  36687365.56525     36612.45125      -412.56125        31.18625                                                                
C09  37476599.49006     38872.44906      -440.98906        36.65506                                                                
C13  35816445.39106     50428.76906      -582.93506        37.44206                                                                
C23  21835500.29826     26837.95126      -284.23126        36.02126  21835514.38806     26685.82706      -214.00106        37.74906
C25  23790607.30525    200492.23225     -2594.98525        32.86325  23790625.29305    149942.66005     -1955.72805        30.47605
C32  23470466.73406   -173841.70706      2353.81306        38.33906  23470496.11406   -104522.93106      1773.64306        39.78306
C37  23994252.72407   3929516.95707      2250.35307        43.03607  23994294.09607   -126736.68207      1695.68707        41.79307
C38  36738113.23306   1459043.86706     -1193.95206        36.85606  36738142.91306     50088.32206      -899.61706        36.54806
C39  36820670.38006     32882.01806      -413.39806        39.28106  36820691.66605     24522.96705      -310.63905        30.67605
C41  22142453.59805     16552.50605      -160.38505        33.89405  22142483.27806     21372.36106      -121.03806        35.84206
E03  26077248.79606    -86058.55006      1508.63006        37.73906  26077279.67506    -63297.42006      1126.42906        39.20906
E05  22813383.42305    -27607.91305       452.13905        33.17905  22813413.10306    -19605.04106       336.62906        35.54106
E24  24714392.58205     28300.66005      -728.75305        34.82405  24714423.16105     20069.14505      -544.28805        31.02805
E25  24090202.80006   -139993.70406      1887.77106        35.70406  24090229.48106   -113186.61606      1409.37306        37.00306
> 2024 09 25 07 25 18.9995417  0 25                      
G10  20246409.30307     67991.70507      -808.90407        44.50707  20246431.78706     50788.09506      -604.10806        39.13006
G23  22113056.55006    183352.76306     -3176.43606        36.71806  22113088.32806    201449.61506     -2371.88606        38.10506
G25  20836704.55006    106015.01406     -1265.79706        37.26606  20836727.93306     87945.23606      -945.17506        37.69806
G26  22950583.74124   -149023.89024      3591.29724        28.78824  22950618.21805   -109122.99305      2683.43905        33.96205
G28  21218606.56406     -2347.58306        89.53606        41.44406  21218632.04705      7815.94405        66.96005        32.78605
G31  22533502.28106   -142892.42706      1825.64806        41.34706                                                                
G32  21540438.56506    -83608.95606      1100.65206        35.85906  21540470.04306    -52004.95606       821.92006        36.72606
R12  19287643.64225     96359.76425     -1149.85025        30.57025
J02  37444809.79805     32925.77605      -372.12805        31.80505  37444839.47705     25158.77305      -277.78805        33.59705
J04  37324863.13505    -79229.73105      1051.87505        32.46605  37324886.51906    -49032.50706       785.37406        36.13306
J07  36502438.88705      3840.68005        24.45205        30.39705  36502467.96706     12275.67206        18.35506        38.42606
C06  36687479.78625     37020.10125      -405.17625        30.84625                                                                
C09  37476712.81206     39310.49306      -435.81006        36.23106                                                                
C13  35816587.79206     51009.00506      -577.99706        35.59706                                                                
C23  21835584.24025     27119.64325      -279.57525        34.70425  21835599.82906     26898.10006      -210.44706        37.89006
C25  23791136.13924    203082.55124     -2587.34124        29.38324  23791152.92805    151895.58305     -1950.94605        30.25705
C32  23470046.42506   -176198.17306      2359.25906        37.33306  23470073.40606   -106298.69406      1777.65606        39.80806
C37  23993850.40307   3927263.86407      2255.39607        42.38607  23993891.47507   -128434.62107      1699.52307        41.99607
C38  36738371.05505   1460234.98405     -1188.39105        35.38105  36738402.23306     50985.99706      -895.87306        36.47606
C39  36820781.60306     33292.85206      -408.17706        38.76706  36820799.59105     24832.48805      -307.51805        29.52805
C41  22142516.85505     16710.49405      -155.74205        33.93205  22142543.53606     21491.43506      -117.43606        35.79906
E03  26076991.27505    -87569.89505      1514.11205        34.86505  26077021.55406    -64425.97406      1130.25406        38.95406
E05  22813325.86305    -28061.56305       456.34705        30.85105  22813357.04206    -19943.80406       340.19206        35.89606
E24  24714563.16405     29027.08805      -724.10005        34.24705  24714590.74505     20611.62505      -541.26605        31.22105
E25  24089873.02805   -141883.46205      1892.16105        34.98805  24089900.30906   -114597.83106      1413.11606        37.11206
> 2024 09 25 07 25 19.9995417  0 25                      
G10  20246560.99707     68800.78507      -809.15107        43.64207  20246586.18006     51392.23206      -604.15406        38.34806
G23  22113656.13406    186529.02506     -3176.23006        36.53306  22113692.70906    203821.51106     -2371.92606        37.84606
G25  20836939.58705    107280.51705     -1265.45105        35.19805  20836968.36706     88890.25506      -945.08506        38.37606
G26  22949896.91724   -152614.21524      3596.45224        28.13124  22949934.39105   -111806.43005      2683.57205        34.27405
G28  21218588.87706     -2437.13606        89.63606        39.84506  21218615.25805      7749.00405        66.87305        32.49305
G31  22533157.22007   -144718.21507      1825.76607        43.30807                                                                
G32  21540231.40806    -84710.09806      1101.24306        36.59306  21540259.88806    -52827.23906       822.21706        37.07106
R12  19287875.68214     97511.32614     -1152.24114        26.04214
J02  37444889.24305     33297.57005      -371.53405        31.43605  37444910.52805     25436.38505      -277.28505        33.25405
J04  37324663.77305    -80281.82805      1052.44605        31.45505  37324686.25705    -49818.21005       785.97005        35.37005
J07  36502435.59005      3815.82805        25.21505        30.37905  36502463.17106     12257.06106        18.98606        38.14706
C06  36687549.33824     37424.91424      -400.40524        27.87524                                                                
C09  37476794.65506     39745.75306      -434.82106        35.82506                                                                
C13  35816700.21406     51586.74106      -577.66006        35.79606                                                                
C23  21835641.20025     27398.73525      -277.69525        31.38925  21835651.99306     27108.61706      -210.55406        37.34706
C25  23791643.68825    205671.48625     -2588.52625        30.08925  23791651.18305    153846.63705     -1950.84305        30.76105
C32  23469590.74005   -178557.13205      2359.38005        35.07205  23469620.72006   -108076.36706      1777.69106        39.18106
C37  23993416.60307   3925008.41407      2255.66207        41.97807  23993458.57407   -130134.31607      1699.77607        42.15907
C38  36738597.39805   1461423.54005     -1187.89105        33.93705  36738630.67506     51881.72806      -895.55206        36.36606
C39  36820855.05206     33700.85606      -407.67906        39.07806  36820878.13605     25139.96805      -307.22505        30.86605
C41  22142547.73305     16866.03305      -155.06405        32.27405  22142573.21605     21608.71405      -117.21705        34.64705
E03  26076702.87406    -89084.03306      1514.53606        36.86506  26076733.75306    -65556.68506      1131.01606        39.81506
E05  22813236.82505    -28517.99105       456.32105        31.59005  22813270.10206    -20284.70406       341.01006        36.40806
E24  24714698.67005     29751.10205      -723.85105        33.23705  24714728.64905     21152.27405      -540.85105        31.80705
E25  24089510.87905   -143775.72905      1892.47105        34.64505  24089539.95906   -116010.80406      1413.11106        36.98106
> 2024 09 25 07 25 20.9995417  0 25                      
G10  20246718.08907     69610.90907      -810.06407        43.44507  20246739.37406     51997.20106      -605.38706        37.87006
G23  22114261.11606    189706.01106     -3177.47806        35.63206  22114297.99006    206193.90106     -2372.65806        37.99706
G25  20837180.92005    108547.02705     -1266.98705        32.88805  20837209.70006     89835.99306      -945.93206        38.56106
G26  22949210.09224   -156207.80924      3592.41824        27.08124  22949250.86405   -114489.40805      2682.73705        34.18305
G28  21218569.99006     -2526.00006        88.82206        38.26306  21218598.77005      7682.60505        66.26705        32.63105
G31  22532809.16107   -146543.22907      1825.04907        43.59907                                                                
G32  21540027.24906    -85810.73606      1100.64506        36.87606  21540050.93306    -53649.12506       822.16006        36.70306
R12  19288084.93724     98669.77624     -1152.83824        24.23424
J02  37444962.39225     33669.83925      -374.70025        30.40625  37444981.57905     25714.30605      -277.83705        32.62905
J04  37324460.21405    -81333.52005      1051.26705        31.17605  37324485.39605    -50603.55805       785.33905        35.09605
J07  36502434.69004      3791.25504        24.85104        28.74404  36502457.77406     12238.78906        18.37706        37.09706
C06  36687627.58424     37826.56224      -406.21024        27.68324                                                                
C09  37476877.39805     40181.59105      -436.11305        35.37605                                                                
C13  35816812.93606     52165.05906      -577.93306        35.96806                                                                
C23  21835686.46924     27679.03024      -277.70924        27.96224  21835706.85506     27319.78806      -211.45406        37.85006
C25  23792137.44605    208260.82105     -2589.24205        30.52905  23792147.63905    155797.93105     -1951.01805        30.64805
C32  23469139.25305   -180915.41805      2358.37105        35.34405  23469166.23406   -109853.66306      1777.40606        38.09706
C37  23992984.30307   3922753.77907      2254.46307        41.71207  23993025.97407   -131833.44207      1699.03607        42.33007
C38  36738827.33905   1462612.75505     -1189.01005        33.71005  36738858.51706     52777.91706      -896.80506        35.90006
C39  36820937.49506     34109.22106      -408.54406        38.79106  36820957.28205     25447.72805      -307.91005        31.87405
C41  22142573.21605     17022.55105      -156.55605        31.39905  22142602.59505     21726.61605      -118.17005        32.69305
E03  26076416.57206    -90597.88906      1513.34006        37.24506  26076445.95206    -66687.12906      1130.36706        38.70606
E05  22813153.78205    -28974.07505       456.04105        33.61205  22813182.86206    -20625.24206       340.50706        35.77706
E24  24714835.67505     30475.86105      -724.87105        32.82505  24714867.45305     21693.48205      -541.46805        32.69505
E25  24089149.62905   -145667.20005      1891.29705        34.34805  24089180.80706   -117423.24406      1411.68806        37.11806
> 2024 09 25 07 25 21.9995417  0 25                      
G10  20246872.48206     70423.55106      -812.57606        40.48306  20246895.56606     52604.42806      -606.30606        38.25406
G23  22114860.10105    192887.15505     -3186.50005        32.46205  22114902.67106    208567.39406     -2372.41306        36.14006
G25  20837420.75405    109815.86905     -1267.96505        35.40505  20837450.73326     90782.72626      -946.60826        36.16026
G26  22948527.46524   -159795.93224      3588.94924        27.29324  22948567.33705   -117171.47905      2683.35905        31.82605
G28  21218552.90106     -2613.29806        87.17706        39.59406  21218582.88106      7618.29206        65.65106        36.13606
G31  22532461.10207   -148366.10907      1823.37207        42.62707                                                                
G32  21539821.59206    -86909.94506      1099.44206        39.09606  21539841.37806    -54469.32706       819.94606        35.55806
R12  19288294.19225     99824.46225     -1153.30225        31.45825
J02  37445035.84125     34043.20025      -373.15625        32.29525  37445053.82905     25993.68405      -278.63905        31.37005
J04  37324268.04725    -82384.18325      1048.40625        30.98925  37324285.73505    -51387.16305       784.84105        33.71905
J07  36502423.29824      3772.91024        19.19724        27.01424  36502453.57706     12221.92306        17.93206        37.57606
C06  36687711.22625     38232.42725      -408.97525        31.86825                                                                
C09  37476966.13625     40618.61925      -436.51325        34.15825                                                                
C13  35816920.26206     52746.14506      -579.68706        36.09506                                                                
C23  21835745.52825     27962.21325      -285.99325        34.74525  21835761.41706     27533.15606      -211.81006        37.16806
C25  23792627.30726    210851.62426     -2594.21126        35.94926  23792645.29405    157750.28405     -1952.26005        31.51405
C32  23468690.16426   -183272.41026      2357.17326        37.50426  23468714.14706   -111629.19106      1776.91706        37.16206
C37  23992553.50106   3920501.02106      2253.41506        40.32006  23992592.47406   -133530.98406      1697.57806        39.42306
C38  36739056.38125   1463802.71525     -1194.25125        32.92825  36739087.55905     53675.48005      -896.45105        34.76905
C39  36821017.54026     34521.61526      -411.40926        37.99026  36821034.92805     25757.20605      -308.55405        32.08905
C41  22142606.49325     17181.48225      -160.01525        33.27625  22142632.87405     21846.44605      -118.83005        32.53805
E03  26076126.37326    -92110.47826      1511.79926        36.39026  26076156.65226    -67817.12626      1126.52926        37.63326
E05  22813068.94125    -29428.01925       457.01325        33.00325  22813096.22206    -20964.40406       340.15506        35.57906
E24  24714982.57405     31202.84505      -726.20705        34.52005  24715005.95725     22236.62325      -542.91325        32.43525
E25  24088789.27825   -147556.76325      1892.99925        33.39525  24088820.45706   -118834.07106      1411.51506        36.96906
> 2024 09 25 07 25 22.9995417  0 25                      
G10  20247024.77606     71235.29806      -809.84906        38.36106  20247051.15806     53210.72506      -604.83106        36.25906
G25  20837663.58606    111083.98006     -1265.97706        38.36706  20837692.06605     91729.86205      -945.60505        34.30105
G26  22947847.23623   -163383.60323      3589.35423        22.33623  22947883.81104   -119853.81704      2684.06704        29.24804
G28  21218538.21206     -2701.31106        90.39506        40.62906  21218567.29206      7552.59106        67.59906        39.74106
G31  22532113.64206   -150190.17906      1826.74206        40.19006                                                                
G32  21539615.03507    -88010.02507      1102.21607        41.70807  21539631.22405    -55290.67705       822.74605        32.76305
G23                                                                  22115507.65325    210941.67225     -2373.33125        30.69325
R12  19288508.84325    100977.75325     -1151.90625        32.54325
J02  37445097.29925     34415.90925      -370.49625        32.47525  37445125.17905     26271.91205      -276.25405        32.54905
J04  37324057.89224    -83435.39324      1052.96424        28.77924  37324086.07305    -52172.24905       786.83205        35.08405
J07  36502420.90024      3748.53824        21.52524        26.97124  36502449.68006     12203.97906        19.75006        36.33706
C06  36687788.87225     38638.16525      -403.33825        35.05825                                                                
C09  37477048.27925     41054.68225      -433.71125        33.61125                                                                
C13  35817035.08305     53325.20305      -577.25905        35.08805                                                                
C23  21835800.39026     28243.58026      -278.90426        36.98126  21835815.67906     27745.27406      -210.34706        38.57706
C25  23793120.76525    213441.58525     -2587.82525        34.89625  23793142.65004    159702.27104     -1949.93304        27.89104
C32  23468240.47506   -185629.90306      2360.43606        37.77006  23468262.06006   -113406.04106      1778.85106        41.19306
C37  23992117.60306   3918247.27606      2256.06806        36.78906  23992159.27406   -135229.40306      1700.26106        36.23606
C38  36739283.62324   1464989.71124     -1192.54124        28.93824  36739316.00105     54572.17905      -895.21105        31.97005
C39  36821097.58525     34932.97125      -408.91725        34.51925  36821113.17405     26065.15505      -306.13205        32.85605
C41  22142633.77425     17339.02325      -155.35025        33.17525  22142664.05305     21965.24105      -117.10005        32.71705
E03  26075839.17206    -93624.18406      1516.16906        38.95606  26075868.85206    -68947.69106      1132.20906        35.77806
E05  22812982.30105    -29883.37105       458.24705        32.51505  22813009.58205    -21304.47005       342.10305        32.97805
E24  24715125.27505     31928.91205      -723.78905        35.34705  24715144.16205     22778.67505      -540.47605        33.50305
E25  24088431.32625   -149443.25825      1888.63325        31.70825  24088461.90506   -120245.79806      1413.65506        35.74806
> 2024 09 25 07 25 23.9995417  0 25                      
G10  20247181.26806     72041.01606      -801.02206        39.66606  20247204.35206     53812.43806      -599.16906        36.12306
G23  22116081.15624    199255.20624     -3179.05624        25.93524  22116111.73424    213314.12924     -2364.50324        28.10724
G25  20837895.92506    112346.18506     -1259.56906        37.88306  20837932.20005     92672.31505      -940.75505        33.13605
G26  22947163.40924   -166975.78924      3591.36124        23.69924  22947198.48504   -122540.86904      2689.93704        27.71604
G28  21218522.62206     -2795.40406        97.59906        39.95306  21218549.00406      7482.29906        73.43106        39.41606
G31  22531764.98406   -152019.95606      1832.74906        40.84906                                                                
G32  21539405.18006    -89116.44106      1109.92706        40.74406  21539420.46905    -56116.92805       828.01405        31.89005
R12  19288708.50525    102125.31525     -1147.07825        32.27925
J02  37445163.55325     34781.90625      -361.85425        34.03425  37445194.73105     26545.25805      -270.01405        32.35305
J04  37323861.82825    -84493.15725      1058.41125        31.30525  37323884.31305    -52962.38305       792.64005        34.99305
J07  36502420.00024      3718.19424        38.01224        25.99424  36502443.98406     12180.98606        25.53806        37.59306
C06  36687864.72025     39037.40725      -395.62025        34.55525                                                                
C09  37477129.22325     41484.40925      -425.82725        33.99025                                                                
C13  35817143.90705     53898.06005      -569.54905        34.57605                                                                
C23  21835853.15326     28518.73926      -271.31326        36.95626  21835868.44306     27952.65506      -204.32506        38.75106
C25  23793622.31826    216025.73526     -2581.48226        35.73426  23793638.50705    161649.46005     -1945.59605        31.77405
C32  23467784.49106   -187993.36106      2366.17506        39.78406  23467808.17406   -115187.58006      1784.37706        41.07706
C37  23991687.40005   3915987.60105      2263.29505        34.62505  23991725.47406   -136932.26306      1704.70306        35.69806
C38  36739513.56425   1466173.15825     -1180.33825        30.42525  36739543.24305     55463.96105      -889.42005        32.53905
C39  36821172.23325     35335.16725      -399.31525        35.12025  36821189.92105     26368.14105      -300.59905        32.88405
C41  22142663.15325     17490.25025      -145.73125        34.76025  22142693.13305     22079.18005      -110.78805        32.88705
E03  26075549.87206    -95143.93206      1520.47406        37.57306  26075580.15106    -70082.51206      1135.88606        37.50906
E05  22812895.96105    -30345.42405       464.71405        33.77105  22812921.44305    -21649.52405       347.72105        34.03605
E24  24715258.08305     32648.56305      -715.12405        34.73505  24715280.86705     23316.10905      -534.00405        34.25505
E25  24088071.27525   -151328.03725      1894.29425        32.00825  24088100.95506   -121662.17006      1419.19106        35.52806
> 2024 09 25 07 25 24.9995418  0 25                      
G10  20247362.94206     72845.16006      -804.99406        39.05606  20247386.02606     54412.28106      -600.55806        37.40706
G23  22116711.02024    202428.67724     -3169.77724        29.15924  22116743.99705    215681.45305     -2368.49205        33.64805
G25  20838173.53316    113606.35416     -1257.44816        36.33516  20838201.71305     93613.34805      -943.00805        33.28405
G26  22946511.36124   -170569.73324      3600.62924        28.60824  22946541.94005   -125229.58605      2688.41105        31.94105
G28  21218534.31406     -2892.79706        95.58106        38.66906  21218560.09706      7409.32606        74.20306        38.12206
G31  22531446.30407   -153853.02007      1832.30607        43.81507                                                                
G32  21539221.70706    -90226.13706      1107.76506        39.60206  21539239.39505    -56945.55105       826.77405        33.82605
R12  19288979.81725    103269.80725     -1146.76725        32.20825
J02  37445266.98115     35145.36415      -362.71715        32.20415  37445294.26205     26816.84305      -272.73205        30.77405
J04  37323688.54805    -85553.07405      1057.91105        31.69705  37323712.83105    -53754.54605       790.95905        33.04505
J07  36502431.99224      3679.12124        39.48724        25.11724  36502465.86906     12155.91506        24.11106        36.22706
C06  36687968.44825     39432.85425      -391.27125        32.89725                                                                
C09  37477244.04425     41910.59925      -428.47125        34.02425                                                                
C13  35817281.81205     54467.70105      -571.13605        34.76705                                                                
C23  21835934.69726     28791.08726      -273.83726        36.39926  21835949.68706     28157.99006      -207.07406        36.70106
C25  23794139.16026    218607.41426     -2577.95726        35.77226  23794164.94225    163594.91125     -1946.89625        31.58625
C32  23467358.18626   -190361.41126      2366.39126        38.27326  23467383.06906   -116971.33806      1782.62706        38.08806
C37  23991279.38306   3913725.39206      2261.71106        39.51306  23991321.05406   -138637.19906      1704.09106        38.72006
C38  36739774.98325   1467354.43625     -1182.05725        32.01825  36739799.86605     56353.84705      -890.86505        33.53905
C39  36821275.36126     35734.05226      -396.82926        35.86626  36821296.34705     26668.32005      -299.89705        32.19205
C41  22142719.51425     17639.41025      -144.19325        34.59225  22142750.39305     22191.43905      -113.43605        31.62805
E03  26075290.25226    -96667.10926      1522.32726        37.77226  26075321.13106    -71219.47106      1138.76906        36.80906
E05  22812839.00016    -30810.79016       467.66116        37.07616  22812862.98405    -21996.79305       345.16605        34.51605
E24  24715424.46805     33366.57105      -720.69305        32.77705  24715447.55205     23852.19205      -538.00405        32.36805
E25  24087740.00525   -153209.50325      1896.83625        31.12425  24087768.48505   -123080.31905      1417.35505        34.77105
> 2024 09 25 07 25 25.9995418  0 25                      
G10  20247517.63506     73652.24206      -808.09306        40.94006  20247539.22006     55015.08706      -603.41906        38.35706
G23  22117310.90426    205601.76726     -3174.08526        38.17926  22117348.37806    218050.78506     -2370.19106        38.45206
G25  20838422.06105    114869.14705     -1262.56105        33.47205  20838442.44605     94556.48405      -943.26905        34.63105
G26  22945827.83425   -174167.47525      3596.76125        31.14025  22945859.31205   -127916.28705      2685.72405        33.28405
G28  21218514.22806     -2987.13706        93.84206        36.74006  21218542.40906      7338.78906        70.59906        36.46606
G31  22531098.54507   -155683.36007      1829.89107        41.61607                                                                
G32  21539009.45406    -91333.41306      1106.53306        38.97906  21539030.14005    -57772.49005       827.50205        33.91405
R12  19289183.07625    104417.94625     -1147.98325        33.00525
J02  37445331.73625     35510.88325      -366.92425        31.22525  37445363.21405     27090.51105      -274.24405        35.23305
J04  37323493.38305    -86611.11505      1057.51405        32.83205  37323511.37105    -54544.77505       790.33505        33.06805
J07  36502437.08924      3639.14024        27.59924        29.49324  36502461.37206     12133.12806        22.58006        38.48306
C06  36688049.39225     39831.28125      -397.93625        34.45425                                                                
C09  37477324.68825     42339.02025      -429.05625        31.81725                                                                
C13  35817390.93606     55040.64806      -573.06506        36.24406                                                                
C23  21835986.56126     29066.89726      -275.54726        36.09826  21836003.94906     28365.71106      -207.82806        37.19006
C25  23794647.90826    221190.36426     -2581.92626        36.23726  23794660.49904    165541.31604     -1945.51304        28.47904
C32  23466901.00226   -192726.34026      2365.12226        38.41626  23466929.18305   -118753.69405      1782.54305        35.34305
C37  23990849.48107   3911466.00307      2258.37207        43.39007  23990888.45406   -140339.90106      1701.75306        39.98706
C38  36739997.12925   1468538.40625     -1185.11725        35.15925  36740027.10806     57245.96306      -892.08406        35.54006
C39  36821354.80625     36134.85725      -400.59925        34.73125  36821375.49205     26970.45405      -300.93005        33.75405
C41  22142745.89625     17791.24325      -151.45025        33.30725  22142780.37205     22306.04805      -114.50405        33.96305
E03  26075004.25006    -98188.18206      1519.68506        37.79806  26075031.53125    -72353.45925      1134.48525        33.82225
E05  22812746.36406    -31273.88706       463.77106        37.45206  22812775.44405    -22342.59405       346.45305        35.11105
E24  24715559.97405     34086.83405      -718.92905        32.13105  24715584.55705     24389.91405      -537.23205        31.77005
E25  24087375.15725   -155094.80725      1900.39925        34.67025  24087408.13406   -124496.14506      1416.00906        36.26606
> 2024 09 25 07 25 26.9995418  0 25                      
G10  20247671.12906     74460.38906      -809.29606        40.32106  20247693.91306     55618.54006      -604.60906        39.89906
G23  22117910.78927    208775.59327     -3174.14027        41.63527  22117951.56106    220420.84706     -2370.47106        39.98506
G25  20838659.49606    116131.08806     -1260.80206        36.24706  20838682.58005     95498.86405      -941.45405        35.29905
G26  22945135.91325   -177763.38925      3594.90225        34.88425  22945174.58605   -130601.52905      2684.31705        32.70705
G28  21218493.24306     -3081.64506        93.72606        36.00006  21218523.52206      7268.32406        70.06706        36.04906
G31  22530753.18406   -157511.90206      1827.08406        39.21806                                                                
G32  21538798.40006    -92442.14006      1109.33406        40.90006  21538818.18605    -58600.47005       828.23605        34.05805
R12  19289399.52725    105565.99925     -1148.32025        34.80525
J02  37445404.28625     35876.44925      -364.22625        33.69025  37445433.96506     27363.46806      -272.82906        38.86406
J04  37323295.22015    -87669.47415      1053.68815        31.73115  37323310.81006    -55335.16506       790.97206        35.85806
J07  36502424.49725      3617.48625        29.53025        30.22825  36502455.97606     12110.30506        22.72706        38.90106
C06  36688125.53905     40229.78105      -399.12105        33.71805                                                                
C09  37477408.03005     42767.91205      -429.54305        31.59605                                                                
C13  35817501.85905     55614.30005      -574.67805        34.94405                                                                
C23  21836041.12326     29342.66726      -276.20426        37.28326  21836057.91206     28573.55206      -208.58206        37.92606
C25  23795135.67025    223771.48525     -2583.34325        32.67525  23795156.95605    167486.17005     -1944.12305        31.08205
C32  23466452.21306   -195092.10206      2365.67906        38.61906  23466475.89706   -120536.48406      1782.95706        36.42906
C37  23990413.88206   3909208.84706      2254.50906        38.62306  23990453.45506   -142041.09606      1700.10906        37.42706
C38  36740230.66806   1469723.73306     -1185.30906        40.06206  36740255.55006     58139.00406      -893.36306        38.10906
C39  36821433.65225     36535.21225      -400.49025        35.37525  36821451.63905     27271.85705      -301.11905        31.67205
C41  22142777.37425     17942.53725      -151.02525        34.54325  22142810.05205     22420.22705      -114.45905        34.71305
E03  26074714.35126    -99708.88626      1520.22226        35.80326  26074742.53125    -73488.59325      1137.02825        31.85525
E05  22812658.52525    -31738.05825       464.04225        33.98825  22812687.00506    -22689.56706       347.63406        37.86006
E24  24715697.27905     34805.70005      -716.76905        34.34805  24715722.16205     24926.94905      -536.03005        34.18805
E25  24087015.70606   -156989.36506      1893.83106        39.74206  24087048.08406   -125911.00606      1414.30606        38.42706
> 2024 09 25 07 25 27.9995418  0 25                      
G10  20247823.42406     75267.20306      -803.70106        40.01706  20247847.10706     56220.98306      -599.85006        39.14006
G23  22118521.76626    211947.93126     -3170.85826        39.95426  22118555.04306    222789.76906     -2366.81106        37.42006
G25  20838900.23005    117390.37205     -1256.10705        35.21705  20838922.11406     96439.25806      -937.51406        35.66306
G26  22944451.18726   -181359.37826      3597.41826        36.23326  22944490.16005   -133286.90005      2686.63405        31.53805
G28  21218479.75206     -3177.20306        98.68406        37.72406  21218504.93505      7196.92505        73.66705        34.75705
G31  22530404.22606   -159340.56206      1832.47506        37.88006                                                                
G32  21538587.64616    -93553.56116      1112.50916        37.63116  21538607.43205    -59430.40905       833.21005        34.60105
R12  19289630.36725    106712.59525     -1145.09125        33.58725
J02  37445476.83615     36239.23115      -363.12015        34.39515  37445501.11906     27634.30906      -268.08906        38.29306
J04  37323086.86525    -88731.40425      1060.70225        32.61225  37323108.45006    -56127.60706       795.19406        36.04206
J07  36502421.79925      3594.72525        32.72725        31.54325  36502449.08006     12085.88206        26.56306        39.38006
C06  36688201.38725     40626.57525      -397.94425        32.82525                                                                
C09  37477489.57405     43195.47005      -424.75905        31.12505                                                                
C13  35817612.78325     56186.89325      -573.14125        35.27725                                                                
C23  21836094.48626     29616.87026      -271.61126        36.13726  21836109.77606     28780.08006      -203.90906        35.96906
C25  23795631.52725    226348.60225     -2576.54825        33.49925  23795652.21305    169428.51805     -1939.20805        32.11205
C32  23465994.13026   -197459.38826      2371.04226        37.55026  23466021.11206   -122320.54606      1787.46906        37.05506
C37  23989982.48126   3906950.97326      2259.71726        37.60126  23990020.25506   -143742.13406      1701.75406        37.73506
C38  36740455.81206   1470907.29206     -1181.15706        40.84106  36740482.49306     59030.98506      -890.48406        37.07606
C39  36821508.90025     36932.42625      -397.39125        34.92525  36821527.48705     27571.33205      -296.45505        30.87305
C41  22142808.55325     18091.31925      -146.34925        35.23225  22142839.13105     22532.57305      -110.04105        35.46805
E03  26074422.65325   -101228.85925      1518.17125        33.72725  26074451.13305    -74626.40805      1139.42705        33.49705
E05  22812570.98605    -32205.88805       472.72005        33.95805  22812597.06806    -23038.55906       351.76906        36.33406
E24  24715832.78505     35521.99905      -712.37205        33.89305  24715858.86705     25461.77805      -532.69705        35.35805
E25  24086654.75606   -158885.82706      1899.39606        39.29406  24086686.53406   -127327.20306      1418.91406        37.44206
> 2024 09 25 07 25 28.9995419  0 25                      
G10  20248004.79806     76068.90306      -800.41906        39.94306  20248029.68106     56819.65506      -597.81106        38.39606
G23  22119153.42926    215114.50426     -3165.40226        37.28426  22119187.60506    225154.43806     -2363.73406        36.71106
G25  20839168.54405    118643.82605     -1251.37205        35.21405  20839190.42905     97375.22905      -934.82405        35.35105
G26  22943795.24126   -184961.05926      3603.36426        36.57426  22943835.11305   -135976.44905      2691.09205        32.57705
G28  21218491.44406     -3278.43906       103.54906        38.04306  21218516.02705      7121.38205        76.84405        34.53905
G31  22530085.84626   -161179.68026      1842.11926        38.26826                                                                
G32  21538404.77306    -94670.96106      1118.92806        37.50506  21538425.15905    -60264.78805       836.37405        33.14105
R12  19289867.20325    107853.11525     -1138.55125        33.16125
J02  37445573.66925     36595.58425      -355.23025        33.98125  37445599.45106     27900.33406      -264.69606        37.51406
J04  37322913.28525    -89798.77325      1068.45325        33.82425  37322935.17006    -56924.67406       798.23906        35.73006
J07  36502444.28425      3562.19825        40.54225        31.91325  36502472.16406     12056.92906        30.43506        37.92406
C06  36688306.91425     41022.16225      -387.05825        31.73025                                                                
C09  37477599.89705     43617.32505      -419.40505        32.21405                                                                
C13  35817750.08825     56757.89525      -562.68225        34.52925                                                                
C23  21836174.83126     29885.39226      -266.70526        37.34626  21836191.31905     28982.47205      -201.44905        35.05405
C25  23796156.16426    228919.60226     -2569.22226        36.01326  23796175.95005    171366.07905     -1936.29005        32.40905
C32  23465569.92426   -199832.74926      2376.00526        38.35426  23465594.80705   -124109.06405      1791.00205        35.44305
C37  23989574.16326   3904688.47926      2264.80326        38.83326  23989614.63506   -145447.23906      1706.69106        37.16706
C38  36740711.83406   1472085.14706     -1176.30706        40.76106  36740739.71506     59918.56006      -886.64106        37.03006
C39  36821613.22825     37323.51325      -388.98025        35.08325  36821631.81505     27865.95905      -292.69805        29.79105
C41  22142867.01226     18234.55726      -141.74126        35.62626  22142896.39225     22640.59925      -106.49425        34.07525
E03  26074161.53425   -102747.66225      1526.59425        31.63125  26074189.71406    -75768.79006      1144.60406        36.02106
E05  22812512.52605    -32679.65405       474.97405        34.02705  22812536.80905    -23392.63405       355.65905        35.03005
E24  24715998.87005     36232.14805      -708.99405        32.63905  24716024.05306     25991.90606      -528.80006        35.88706
E25  24086319.28806   -160787.94506      1903.58306        38.89906  24086354.66406   -128747.54406      1421.12806        36.89406
> 2024 09 25 07 25 29.9995419  0 25                      
G10  20248156.79306     76868.81606      -798.48706        40.24506  20248181.67606     57417.02306      -596.66806        37.45406
G23  22119753.01426    218279.08226     -3163.98726        38.00026  22119790.48806    227517.64506     -2362.89306        37.21506
G25  20839405.68006    119895.38406     -1251.70506        35.66306  20839427.56505     98309.61405      -931.79405        32.90005
G26  22943112.31426   -188564.64726      3604.05926        37.97826  22943148.88905   -138667.40105      2691.43305        34.34805
G28  21218466.56106     -3381.63506       104.13006        39.04106  21218496.84005      7044.30105        77.89205        35.14505
G31  22529730.29226   -163015.41526      1835.42626        36.88426                                                                
G32  21538187.72306    -95790.72206      1119.83106        39.41206  21538210.80705    -61100.94305       836.08105        31.67705
R12  19290079.15625    108992.26725     -1134.31925        33.21225
J02  37445636.92525     36949.43725      -352.69625        34.42725  37445666.00506     28164.65606      -262.90406        36.30006
J04  37322705.22925    -90868.57825      1070.89525        33.08425  37322731.61105    -57723.64805       800.86805        35.20105
J07  36502438.88725      3520.99625        43.80325        31.52125  36502464.37006     12026.15706        32.06306        38.69406
C06  36688378.86425     41400.83625      -382.47625        33.47825                                                                
C09  37477681.74125     44037.03725      -418.26325        32.78125                                                                
C13  35817857.71326     57322.61626      -563.43626        35.81126                                                                
C23  21836222.49826     30152.05826      -265.49426        37.44426  21836241.98425     29183.42625      -200.77725        32.87125
C25  23796646.32526    231488.29726     -2568.90626        38.19326  23796668.80904    173301.70804     -1934.99404        29.43704
C32  23465108.24426   -202208.25726      2376.22126        36.71926  23465138.82206   -125899.18306      1790.44406        35.84906
C37  23989140.06427   3902424.16027      2265.02627        43.31327  23989179.33705   -147153.57505      1708.03705        34.52605
C38  36740937.27806   1473260.77006     -1174.58606        41.04106  36740963.66006     60804.53506      -884.99906        36.62606
C39  36821688.77526     37712.39126      -388.76326        35.98326  36821706.76304     28158.91204      -291.80904        29.16504
C41  22142891.59525     18375.91925      -140.88025        35.47525  22142922.47425     22747.04125      -106.14225        32.60725
E03  26073871.63425   -104268.32125      1533.85125        32.90325  26073896.81705    -76913.15205      1144.93705        32.93705
E05  22812420.79005    -33156.09405       477.56605        34.43305  22812445.97205    -23748.17205       355.88305        33.44405
E24  24716132.57705     36940.01405      -708.26005        34.54905  24716157.76005     26520.61005      -528.06105        34.79205
E25  24085960.43706   -162691.93906      1904.47706        39.27906  24085991.31506   -130169.43506      1422.95006        37.05106
> 2024 09 25 07 25 30.9995419  0 25                      
G10  20248309.38706     77669.95806      -800.95606        40.24106  20248334.27006     58015.23806      -597.81006        39.09006
G23  22120357.69506    221444.90006     -3165.10206        37.61106  22120391.57206    229881.40206     -2363.69206        36.55506
G25  20839641.01706    121148.63006     -1253.51806        35.83106  20839666.79905     99245.36505      -935.78305        34.92305
G26  22942429.08706   -192167.64106      3603.19306        39.51906  22942463.86306   -141357.95306      2690.36606        35.55306
G28  21218452.77106     -3484.63506       102.72506        38.71306  21218476.75405      6967.65405        77.21905        34.06005
G31  22529382.23306   -164850.23106      1835.11906        37.92706                                                                
G32  21537976.66906    -96909.97406      1119.47606        39.58006  21537997.95405    -61936.78305       835.84605        30.70305
R12  19290290.81025    110132.65125     -1140.54225        33.85125
J02  37445707.67625     37303.72625      -354.04325        33.52325  37445734.05806     28429.56006      -264.48406        36.48106
J04  37322504.06805    -91936.79805      1069.45705        34.34405  37322528.35106    -58521.99806       798.78706        36.16206
J07  36502432.29215      3480.46415        39.88015        31.77915  36502456.57506     11995.80706        30.69206        38.87406
C06  36688455.01125     41783.82925      -389.19325        33.60825                                                                
C09  37477762.38525     44457.14825      -420.36125        32.72525                                                                
C13  35817965.93826     57887.94126      -565.49326        36.25826                                                                
C23  21836279.45826     30419.70626      -267.27726        37.97026  21836293.54905     29385.21705      -201.96805        35.24405
C25  23797141.28226    234057.88726     -2570.78026        36.40426  23797162.26705    175237.99905     -1936.41005        30.49305
C32  23464654.05826   -204583.00326      2374.59626        36.50026  23464682.53805   -127688.68205      1788.42005        32.67005
C37  23988705.66526   3900160.56426      2263.74926        41.41226  23988746.13706   -148859.51206      1705.85606        35.72806
C38  36741159.72406   1474437.11506     -1175.93506        40.51706  36741189.70406     61690.94406      -885.85506        36.01006
C39  36821761.62526     38101.46226      -389.00126        35.82226  36821782.01105     28452.46305      -294.49305        30.52405
C41  22142918.57625     18518.25825      -141.50325        35.07025  22142950.65405     22854.51805      -107.55705        35.24405
E03  26073574.84025   -105810.19325      1537.81725        33.68025  26073604.81905    -78056.96005      1144.04405        30.77105
E05  22812330.25205    -33631.68705       475.91605        34.59305  22812356.03505    -24103.44105       355.72805        32.23805
E24  24716267.78405     37649.82005      -709.27205        33.06405  24716293.56605     27049.98505      -529.10405        33.37005
E25  24085598.28706   -164595.25706      1903.61606        39.94106  24085629.16606   -131590.64306      1421.24706        36.96506
> 2024 09 25 07 25 31.9995419  0 25                      
G10  20248493.16016     78472.73616      -805.44716        38.94516  20248517.14306     58614.66206      -600.77306        39.35606
G23  22120991.15606    224611.16206     -3167.33106        39.35806  22121025.63306    232245.73406     -2364.53506        37.13606
G25  20839912.02905    122402.02705     -1254.95805        34.94505  20839935.71306    100181.49106      -937.40706        37.33206
G26  22941771.94207   -195769.26607      3601.02707        41.65007  22941808.21706   -144047.50106      2689.06106        36.65706
G28  21218457.26806     -3585.73806        99.86706        36.76506  21218487.54705      6892.20805        74.50205        34.30805
G31  22529067.15106   -166683.73606      1836.14206        37.10106                                                                
G32  21537796.79406    -98028.47906      1116.16606        39.38206  21537815.08105    -62772.00805       833.89705        31.84205
R12  19290545.03425    111274.65225     -1144.49525        34.30125
J02  37445804.80925     37658.45825      -357.27825        34.56925  37445832.09006     28694.67306      -266.60006        36.35806
J04  37322328.68905    -93005.55905      1067.96405        35.49405  37322355.37106    -59320.01006       797.08606        38.31206
J07  36502448.18115      3439.76015        38.36315        31.59215  36502479.06006     11965.92706        28.82806        39.08406
C06  36688559.93825     42173.08725      -391.95625        34.50525                                                                
C09  37477871.80925     44878.11825      -423.26125        32.86525                                                                
C13  35818104.74226     58454.65126      -568.56326        36.45326                                                                
C23  21836357.40426     30688.56826      -270.01726        36.97426  21836375.69206     29587.73306      -203.04306        36.35006
C25  23797664.72025    236627.66225     -2571.47325        34.92425  23797685.70505    177174.19905     -1936.72305        29.52205
C32  23464230.15125   -206953.62025      2369.20125        34.53425  23464257.43325   -129474.62725      1788.97125        31.12625
C37  23988303.04327   3897898.65827      2261.15427        42.24827  23988341.11725   -150564.01225      1704.03725        34.30625
C38  36741419.64406   1475614.48806     -1178.25006        41.13806  36741446.32606     62578.19306      -887.80906        36.27306
C39  36821868.05126     38491.29726      -391.15326        36.71326  36821886.93805     28746.08605      -295.61105        30.77405
C41  22142976.73625     18661.31525      -144.10825        34.82825  22143007.91506     22962.23806      -108.72806        35.89606
E03  26073319.11725   -107349.63625      1527.78025        35.09825  26073345.19924    -79194.99524      1144.22224        29.30724
E05  22812269.09506    -34107.03106       473.49306        35.52906  22812295.77605    -24458.46105       354.12605        31.11205
E24  24716432.67005     38359.48005      -711.53805        33.66505  24716458.15205     27579.88805      -530.70605        32.02505
E25  24085264.01906   -166497.33106      1901.50406        39.88006  24085297.29626   -133011.25926      1419.73626        35.56726
> 2024 09 25 07 25 32.9995420  0 25                      
G10  20248644.55506     79275.49306      -801.75506        38.23306  20248669.73806     59214.24606      -598.71206        38.16706
G23  22121591.34106    227778.00606     -3163.83106        39.18906  22121628.81506    234610.63406     -2361.94006        37.70706
G25  20840149.76506    123655.74706     -1251.74906        37.67506  20840175.24706    101117.70906      -935.24306        37.58906
G26  22941086.61607   -199370.79707      3604.17407        42.57307  22941122.89106   -146736.87906      2691.24706        37.54106
G28  21218438.68106     -3687.58106       102.24906        37.38006  21218468.36005      6816.19805        76.20305        34.03705
G31  22528717.29425   -168512.22725      1834.52825        34.73325                                                                
G32  21537585.44006    -99147.95406      1119.17706        38.91706  21537601.62905    -63608.11005       836.74605        30.35805
R12  19290744.69515    112416.38515     -1143.99815        34.27615
J02  37445871.66225     38012.62425      -359.15825        32.43325  37445899.24325     28959.55225      -264.80125        34.86825
J04  37322128.42805    -94074.72305      1071.22605        34.08505  37322151.51206    -60118.35206       799.65206        38.17106
J07  36502441.28625      3399.64225        42.31725        32.60125  36502471.56506     11935.94506        31.32906        39.65306
C06  36688633.98725     42561.03525      -388.71825        34.13825                                                                
C09  37477953.35325     45298.55325      -422.33625        32.36225                                                                
C13  35818215.06626     59021.31726      -565.32326        35.78726                                                                
C23  21836409.26806     30957.09106      -268.00206        37.13606  21836427.25606     29790.25306      -201.57506        37.64206
C25  23798159.67725    239191.65225     -2569.51225        33.34225  23798179.76305    179110.28805     -1935.15405        30.18805
C32  23463779.26426   -209320.25326      2372.82226        35.73726  23463801.44825   -131258.56125      1790.50625        31.00325
C37  23987866.84507   3895637.10707      2263.29807        42.75407  23987906.71805   -152268.69405      1706.05105        34.84305
C38  36741646.58706   1476791.73006     -1175.05306        39.99406  36741672.66906     63465.53206      -885.56706        36.82506
C39  36821944.19826     38879.92826      -387.56926        36.47126  36821960.98705     29038.96205      -292.38605        30.80905
C41  22143004.91725     18804.85225      -142.04725        35.24825  22143036.69506     23070.21106      -107.01606        38.26106
E03  26073022.02206   -108881.06706      1533.92706        36.05806  26073055.29924    -80324.94124      1143.30624        28.83424
E05  22812179.75705    -34583.26905       477.17605        34.80405  22812204.63905    -24813.89505       356.14305        32.06905
E24  24716567.57605     39069.81105      -707.73105        33.37805  24716592.75905     28109.73505      -529.11505        30.25305
E25  24084901.57006   -168399.26206      1903.05406        38.59706  24084935.44605   -134431.26605      1421.19405        34.50905
> 2024 09 25 07 25 33.9995420  0 25                      
G10  20248793.55226     80073.32926      -795.84326        38.98726  20248821.73206     59810.34706      -594.28706        37.64006
G23  22122198.12106    230940.06406     -3159.93106        38.14606  22122229.29906    236971.87906     -2359.36006        36.38106
G25  20840388.69906    124906.03306     -1248.85706        37.04006  20840411.48306    102051.22006      -932.14506        36.43806
G26  22940401.29107   -202977.90207      3609.10207        43.29207  22940435.76706   -149430.58106      2695.26106        38.85006
G28  21218425.19026     -3794.52726       106.91626        36.54826  21218448.27425      6733.68525        81.50925        31.92425
G31  22528367.13626   -170356.70126      1839.41426        38.36126                                                                
G32  21537365.99216   -100271.97816      1125.99816        38.57216  21537387.27724    -64447.21224       841.24224        28.51324
R12  19290958.14825    113553.48525     -1136.72225        33.44525
J02  37445940.01525     38364.10125      -350.46725        31.41925  37445965.79705     29221.07705      -259.36005        35.46905
J04  37321926.36815    -95148.51515      1076.45515        32.69915  37321946.45406    -60920.34306       804.58406        36.47706
J07  36502436.48915      3354.34515        44.05615        30.91715  36502462.57106     11902.00606        36.13506        37.72906
C06  36688705.63825     42943.76125      -381.04225        32.06325                                                                
C09  37478035.79625     45712.86025      -413.35325        33.68425                                                                
C13  35818321.49225     59582.41625      -559.78725        35.33825                                                                
C23  21836458.13526     31217.50526      -261.62026        35.52826  21836479.12006     29989.22806      -197.38806        36.66206
C25  23798657.63225    241758.10225     -2564.13325        33.19025  23798672.62205    181043.19705     -1931.05405        31.46805
C32  23463316.68426   -211699.69026      2380.98626        38.06526  23463343.06605   -133052.05105      1798.57305        29.75905
C37  23987432.44627   3893369.39227      2269.58327        41.92127  23987471.71905   -153977.63305      1711.35305        35.46505
C38  36741865.73606   1477963.82506     -1169.28206        39.90806  36741896.61406     64348.71806      -880.61706        35.63706
C39  36822018.84726     39264.37326      -382.15326        35.65726  36822035.63505     29328.19605      -286.25605        30.30105
C41  22143033.69725     18944.25125      -140.34625        34.33725  22143062.47706     23174.72006      -101.89306        37.59906
E03  26072731.82326   -110418.19026      1536.97426        37.71126  26072763.00205    -81472.53305      1148.60105        31.11705
E05  22812089.81905    -35063.82605       483.86005        34.54205  22812112.60305    -25172.86105       361.07805        31.76105
E24  24716704.58105     39775.65305      -704.21405        32.60605  24716726.16705     28636.61605      -525.03005        30.29905
E25  24084538.82106   -170306.26406      1909.01906        38.63006  24084573.59706   -135855.34306      1426.11006        35.64106
> 2024 09 25 07 25 34.9995420  0 25                      
G10  20248949.74426     80870.96126      -797.81126        40.90326  20248973.72706     60405.98206      -595.92906        39.06306
G23  22122790.81106    234100.67206     -3160.99306        38.42806  22122829.78406    239332.09506     -2360.44506        37.28506
G25  20840621.33806    126154.94506     -1248.20506        35.56206  20840650.11805    102983.76305      -932.55405        34.97205
G26  22939714.16607   -206586.29907      3607.68307        42.34507  22939749.24206   -152125.17606      2693.85006        39.94606
G28  21218400.60726     -3902.18926       111.38526        36.20926  21218426.98925      6648.87125        80.07425        32.54225
G31  22528018.47726   -172202.22126      1840.88726        40.41726                                                                
G32  21537154.03906   -101397.05406      1125.82006        37.73806  21537172.92505    -65287.54905       840.76705        30.39705
R12  19291180.29425    114691.62925     -1133.58425        33.18025
J02  37446002.37225     38712.77225      -348.16225        33.37225  37446032.35106     29481.47206      -260.38906        36.38206
J04  37321713.21625    -96224.65525      1079.16025        32.03225  37321741.69605    -61723.21605       802.72005        34.98405
J07  36502426.89625      3307.18025        49.01025        32.31925  36502453.27706     11867.09806        34.80606        38.35406
C06  36688779.98625     43325.69125      -377.98325        32.58025                                                                
C09  37478111.64325     46126.48825      -410.14925        32.96325                                                                
C13  35818430.01726     60142.52626      -561.12826        35.94226                                                                
C23  21836511.79725     31481.13825      -259.81025        35.08725  21836528.28606     30187.47306      -198.54106        36.96906
C25  23799143.89625    244323.22125     -2562.65725        31.55725  23799164.28105    182974.97105     -1931.43905        31.65505
C32  23462860.70026   -214080.38726      2379.77526        36.55226  23462884.98324   -134848.83624      1794.29124        27.36424
C37  23986995.34907   3891100.93207      2266.95207        43.01507  23987034.92125   -155689.00825      1708.72025        32.17625
C38  36742097.17506   1479134.75406     -1171.28206        39.90306  36742122.05805     65231.20405      -883.51005        34.69905
C39  36822092.29625     39646.51625      -378.59725        34.98925  36822108.48505     29616.60305      -288.28205        29.64005
C41  22143055.88125     19082.02025      -135.27425        34.66125  22143089.45806     23278.83506      -106.76206        35.92906
E03  26072438.32706   -111957.02106      1537.94306        38.75406  26072469.50524    -82620.96024      1147.12124        28.55524
E05  22811997.48305    -35545.68805       481.90205        34.82305  22812021.76605    -25532.76205       360.17405        32.99105
E24  24716836.49005     40479.89805      -703.11805        32.92905  24716861.97305     29162.56105      -526.16705        33.09805
E25  24084175.77206   -172214.23806      1908.07106        38.48306  24084209.94806   -137280.12606      1424.06506        36.15106
> 2024 09 25 07 25 35.9995421  0 25                      
G10  20249132.91726     81670.27426      -801.01726        40.22726  20249156.00106     61002.74006      -597.37306        39.78606
G23  22123424.57206    237262.74906     -3162.82706        39.46606  22123462.64606    241693.34106     -2361.63706        38.01606
G25  20840891.45105    127404.58705     -1250.59705        32.93905  20840917.53305    103917.40305      -934.54605        34.26105
G26  22939057.62107   -210193.23807      3606.54707        42.80807  22939093.29606   -154818.69906      2693.45606        40.56706
G28  21218408.40226     -4009.11526       106.52126        36.13126  21218436.28205      6569.10705        79.61405        32.41005
G31  22527695.90126   -174040.85726      1839.47726        40.24826                                                                
G32  21536966.06906   -102521.81006      1124.15506        38.28906  21536990.05205    -66127.35405       838.94805        30.22905
R12  19291423.42525    115830.19225     -1137.89325        32.46225
J02  37446102.50325     39062.24125      -350.58125        34.11625  37446129.18406     29742.40706      -261.65406        36.46806
J04  37321541.43515    -97299.42515      1073.16915        32.51715  37321567.51606    -62525.77606       802.00806        35.50906
J07  36502447.28225      3261.33225        44.10925        33.11225  36502474.26306     11832.83106        33.82606        38.58806
C06  36688884.31425     43708.32225      -383.06325        32.95225                                                                
C09  37478223.46625     46540.96525      -414.44625        32.79925                                                                
C13  35818569.12126     60703.47626      -561.35426        35.73526                                                                
C23  21836592.44225     31745.54025      -265.06025        35.18225  21836608.63006     30386.57606      -199.48206        37.35106
C25  23799665.83425    246887.10725     -2565.01625        32.29225  23799686.52005    184906.93305     -1932.32905        31.31805
C32  23462433.19526   -216460.69626      2380.47626        36.36626  23462458.37805   -136642.36805      1793.74305        29.50105
C37  23986590.92907   3888833.78307      2266.68207        41.68207  23986629.90225   -157406.39925      1708.48025        31.85525
C38  36742348.70106   1480306.77206     -1172.99906        40.95206  36742377.78106     66114.36106      -883.77706        35.83306
C39  36822194.52525     40030.01825      -383.35825        35.20325  36822212.81305     29905.32905      -289.48705        32.31705
C41  22143111.34325     19221.72925      -136.82925        34.48125  22143146.41906     23383.08106      -105.22106        36.96506
E03  26072172.71006   -113495.46606      1537.49806        37.76206  26072204.18924    -83769.03524      1150.42224        27.86624
E05  22811935.72605    -36027.26905       480.50605        35.04205  22811960.30805    -25892.35205       358.36805        32.60105
E24  24717000.47705     41185.45205      -707.44905        31.70105  24717025.95905     29689.23605      -528.16605        31.51005
E25  24083844.80106   -174120.92406      1905.87906        39.96606  24083877.17906   -138703.95806      1423.15406        36.38406
> 2024 09 25 07 25 36.9995421  0 25                      
G10  20249285.21216     82469.32516      -798.58616        39.69916  20249308.59506     61599.52506      -597.71306        40.26006
G23  22124028.95306    240423.72506     -3162.36006        38.99906  22124063.43006    244053.85006     -2361.90906        38.39606
G25  20841126.48805    128653.82505     -1250.78305        34.60905  20841155.56805    104850.58705      -933.91105        34.73405
G26  22938369.59707   -213800.63407      3606.33307        43.39107  22938406.47206   -157512.51106      2692.99106        40.22006
G28  21218387.71606     -4115.35506       104.50306        37.96806  21218416.19605      6489.76505        78.01305        31.81305
G31  22527343.34526   -175875.22226      1836.30726        36.53526                                                                
G32  21536750.51806   -103646.64206      1123.87606        39.15506  21536775.10124    -66967.26124       839.71424        28.74624
R12  19291626.38525    116968.46525     -1141.63725        32.72025
J02  37446169.05715     39410.37215      -347.48415        34.27115  37446194.83906     30002.41906      -260.94506        35.88406
J04  37321339.07525    -98374.96125      1072.29025        31.92525  37321363.65806    -63328.93906       801.92406        37.06906
J07  36502432.29215      3214.17715        45.64015        33.13015  36502466.16906     11797.78106        33.45606        38.89906
C06  36688956.26425     44090.30725      -386.04925        32.28425                                                                
C09  37478302.01125     46955.71425      -415.91425        33.56425                                                                
C13  35818674.34825     61264.46425      -561.71225        35.46125                                                                
C23  21836644.30626     32009.80726      -266.52526        35.62226  21836660.19506     30585.79606      -200.16206        38.04506
C25  23800161.99125    249450.25825     -2563.94325        34.29325  23800178.47905    186838.72905     -1932.05705        31.44205
C32  23461977.81126   -218840.04426      2377.65526        35.80626  23462002.09404   -138435.60804      1792.07904        29.35804
C37  23986155.33006   3886566.82306      2266.17706        40.94206  23986195.50225   -159119.31225      1708.49725        34.26025
C38  36742575.94406   1481477.96206     -1172.68506        40.85906  36742602.32606     66996.99706      -883.46806        36.16406
C39  36822267.67526     40411.81726      -383.86526        35.84826  36822285.96205     30193.51605      -288.20605        31.68305
C41  22143139.22425     19359.91325      -139.06725        33.81625  22143171.90106     23487.31506      -105.30606        37.92706
E03  26071881.31226   -115033.37226      1537.96026        36.45026  26071913.39004    -84917.56804      1149.05704        29.49204
E05  22811842.79025    -36509.34425       482.62925        33.81225  22811868.27225    -26252.34325       359.98625        30.36725
E24  24717135.08325     41889.82825      -700.87125        31.76125  24717159.66605     30215.52005      -527.69405        30.22405
E25  24083480.25406   -176028.31606      1905.99906        39.96506  24083514.13006   -140128.32306      1423.21606        36.46906
> 2024 09 25 07 25 37.9995421  0 25                      
G10  20249433.30926     83267.80926      -795.70226        40.23526  20249459.99106     62195.79306      -593.98906        39.12606
G23  22124629.43806    243583.47306     -3157.13506        36.61206  22124665.11306    246413.41406     -2357.59706        37.54406
G25  20841367.82105    129903.42905     -1248.61805        35.41005  20841393.00405    105783.74805      -932.06505        34.30105
G26  22937684.57107   -217409.41707      3611.97107        43.10407  22937719.64706   -160207.31106      2696.83406        40.44906
G28  21218370.62806     -4222.45206       109.73306        36.49406  21218396.11005      6409.63105        83.03105        33.73005
G31  22526999.18326   -177711.87726      1843.09526        36.90826                                                                
G32  21536541.56306   -104772.14906      1127.72806        39.47506  21536562.54805    -67807.95505       842.42405        30.06605
R12  19291836.83915    118106.60615     -1139.63915        32.97215
J02  37446228.71525     39755.92625      -347.96425        32.09625  37446261.09305     30261.45605      -257.15605        35.22705
J04  37321133.11725    -99451.34325      1077.26425        31.88125  37321158.00006    -64133.11606       806.04406        36.14306
J07  36502425.69725      3165.64425        47.63825        31.81525  36502456.27506     11761.59406        37.78706        37.42206
C06  36689030.61325     44471.38625      -379.45025        34.16425                                                                
C09  37478381.75625     47369.20425      -410.59625        33.90725                                                                
C13  35818781.07425     61824.34825      -559.87825        35.43625                                                                
C23  21836694.97126     32273.22026      -260.00426        36.73026  21836709.96006     30784.41706      -196.55406        37.09106
C25  23800651.85226    252012.74526     -2560.19826        36.09226  23800670.73905    188769.81805     -1929.32305        32.74405
C32  23461521.22726   -221220.35126      2383.47426        35.74026  23461546.70905   -140229.77505      1797.45705        32.90605
C37  23985719.73206   3884298.97606      2270.79506        41.08106  23985760.50426   -160825.06526      1711.56526        39.56826
C38  36742800.18906   1482647.77906     -1166.64506        39.81906  36742827.17006     67878.54106      -878.96506        36.81406
C39  36822336.32726     40793.63226      -379.17026        36.89726  36822360.01105     30480.48105      -285.67105        31.37405
C41  22143169.50325     19497.00025      -139.00025        33.03325  22143198.58306     23590.87906      -101.36406        38.17606
E03  26071591.11326   -116573.11626      1540.63926        36.10026  26071620.79305    -86066.72105      1151.92205        32.50405
E05  22811752.85205    -36992.21805       485.90805        34.61605  22811776.53605    -26612.80205       361.79805        30.76905
E24  24717267.89225     42593.12225      -702.58025        30.66925  24717292.47405     30741.32505      -524.87805        30.31505
E25  24083120.20306   -177936.89506      1911.88606        38.18106  24083151.38106   -141553.56006      1427.91106        36.56406
> 2024 09 25 07 25 38.9995422  0 25                      
G10  20249619.48026     84061.36026      -790.11626        40.54126  20249640.76506     62788.42406      -590.26606        40.60806
G23  22125260.20106    246738.43006     -3152.18606        38.03206  22125294.97706    248769.42806     -2354.47206        36.74106
G25  20841637.33525    131144.52025     -1243.20525        32.48025  20841659.81905    106713.37205      -928.32905        35.31305
G26  22937026.22707   -221023.59507      3617.44407        42.94607  22937061.90206   -162906.28706      2701.35006        40.37106
G28  21218378.42225     -4335.25425       119.05925        34.40625  21218404.80405      6325.45905        87.26405        33.43905
G31  22526676.30726   -179556.64626      1848.73226        39.45626                                                                
G32  21536356.29106   -105903.41606      1135.22606        39.83806  21536376.67705    -68652.64105       847.37405        31.35005
R12  19292074.87425    119240.07525     -1130.54425        33.71025
J02  37446326.74725     40097.71925      -339.17125        32.44225  37446355.52806     30516.78106      -253.40606        36.34206
J04  37320958.33825   -100532.95025      1083.22525        32.86225  37320981.72206    -64941.31906       810.97506        35.68906
J07  36502455.07625      3111.86125        56.82525        31.06225  36502475.16206     11721.29106        43.05306        36.53406
C06  36689134.04105     44847.00805      -371.17005        34.62405                                                                
C09  37478491.48025     47776.72025      -402.65625        33.08725                                                                
C13  35818915.98006     62378.81506      -551.24106        37.76806                                                                
C23  21836774.41606     32531.60606      -254.45206        37.32906  21836790.30506     30979.10306      -191.72506        36.78006
C25  23801173.49006    254570.78406     -2555.83906        35.96806  23801191.47805    190697.37805     -1926.90205        30.25005
C32  23461088.62606   -223605.93106      2389.45406        38.07906  23461118.00605   -142027.70905      1802.11905        31.80305
C37  23985314.11307   3882025.42107      2276.88807        43.43407  23985352.18606   -162538.49806      1716.55706        37.17606
C38  36743050.81506   1483812.45106     -1161.46606        39.86006  36743080.79406     68756.38006      -875.50306        37.01406
C39  36822444.55206     41169.68506      -372.24606        37.79506  36822461.34005     30763.99705      -281.14705        32.00205
C41  22143222.56605     19630.14705      -129.73205        34.83205  22143253.74405     23690.75905       -96.91705        34.92005
E03  26071327.89505   -118118.01805      1548.34405        35.22305  26071355.47605    -87220.47905      1157.42705        30.33305
E05  22811688.69706    -37480.51406       491.57006        35.57206  22811713.28005    -26977.48705       366.15905        33.89205
E24  24717432.47805     43292.43605      -697.37205        32.90105  24717456.46105     31263.53505      -520.73705        33.56105
E25  24082786.23406   -179850.39606      1916.07306        39.65206  24082817.11306   -142982.41606      1430.88206        36.39906
> 2024 09 25 07 25 39.9995422  0 25                      
G10  20249763.38126     84854.16526      -791.92726        39.84826  20249791.56106     63380.37506      -591.32606        39.47106
G23  22125855.28906    249892.78606     -3154.06806        38.64906  22125895.16206    251124.81206     -2354.97706        37.35306
G25  20841870.27325    132385.69525     -1245.12225        35.08325  20841897.55506    107641.79506      -929.15306        37.06606
G26  22936340.00207   -224638.83607      3616.08707        42.51207  22936373.87906   -165605.96206      2700.29106        39.84506
G28  21218359.23626     -4449.83326       114.78326        37.20726  21218382.91905      6239.54505        86.37205        31.72305
G31  22526324.95026   -181403.11026      1847.20626        38.14426                                                                
G32  21536137.74226   -107037.04526      1135.75726        39.36326  21536160.52605    -69499.08305       846.10705        32.56605
R12  19292295.22225    120372.18125     -1132.93025        34.84325
J02  37446392.10225     40438.26025      -340.39125        34.21225  37446421.18206     30771.07406      -254.22006        37.43906
J04  37320752.08125   -101616.55925      1082.77625        34.35725  37320776.06406    -65750.52206       809.39006        36.30106
J07  36502437.68825      3056.90725        55.03325        33.09925  36502466.46806     11680.22606        41.78706        38.31206
C06  36689204.19225     45220.28325      -369.82425        33.76325                                                                
C09  37478566.72825     48172.81625      -400.83525        33.63025                                                                
C13  35819029.90206     62931.68306      -552.49206        37.99106                                                                
C23  21836819.98406     32788.51806      -256.36506        36.80806  21836839.17105     31172.67305      -193.43605        35.20905
C25  23801663.95125    257125.32825     -2556.52025        34.69025  23801682.53824    192622.51624     -1924.95924        29.33524
C32  23460633.84106   -225994.64306      2387.97406        38.97606  23460658.12405   -143827.75805      1800.84105        30.46205
C37  23984876.11607   3879750.50907      2275.63707        43.04107  23984915.98806   -164252.71106      1714.65206        36.20306
C38  36743276.25906   1484975.99806     -1162.76106        41.09706  36743303.84006     69633.15906      -875.83006        36.18306
C39  36822512.60526     41543.78926      -371.94926        36.29426  36822532.69105     31045.51405      -281.75605        30.72705
C41  22143247.44906     19761.46806      -132.07206        36.32706  22143278.32705     23789.85405       -99.14505        33.78105
E03  26071028.10306   -119666.12306      1548.71706        36.32406  26071062.27924    -88376.19624      1155.10824        29.36624
E05  22811596.06105    -37971.20105       489.83505        34.97805  22811620.04405    -27344.04105       366.09105        32.49305
E24  24717564.38605     43990.20205      -699.78305        33.81105  24717589.56905     31784.47905      -521.76605        35.06005
E25  24082420.18706   -181764.83306      1914.60606        40.60106  24082452.86506   -144412.05506      1430.19106        36.33306
> 2024 09 25 07 25 40.9995423  0 25                      
G10  20249944.15526     85648.38026      -796.68626        39.33726  20249972.63606     63973.48006      -594.73306        39.81306
G23  22126486.35206    253048.19206     -3156.51206        40.37906  22126526.22506    253481.20706     -2357.45606        37.69806
G25  20842136.78925    133630.93525     -1248.82425        34.36925  20842163.77006    108571.57906      -932.17706        35.52106
G26  22935682.25806   -228253.14906      3612.89606        38.81506  22935716.43406   -168304.93406      2698.07606        40.95606
G28  21218359.23616     -4563.63916       110.45316        36.21316  21218391.91305      6154.53805        83.10805        32.73905
G31  22526005.37126   -183248.35426      1842.26826        39.10626                                                                
G32  21535953.67026   -108169.05726      1131.11526        38.33426  21535975.55405    -70344.87805       844.70205        33.34005
R12  19292535.05625    121507.23325     -1133.31325        33.41325
J02  37446487.73625     40779.65425      -342.36225        35.03125  37446516.21606     31026.08706      -255.96606        37.53906
J04  37320574.90425   -102699.50225      1083.29325        33.41725  37320599.78606    -66559.16006       807.44606        36.50406
J07  36502454.47725      3003.14525        54.90825        32.03325  36502485.35506     11639.67406        39.51206        38.89906
C06  36689308.22005     45594.51405      -376.78605        34.12005                                                                
C09  37478674.65325     48577.00425      -405.53425        32.30725                                                                
C13  35819160.61106     63485.53806      -555.96406        36.98906                                                                
C23  21836901.82706     33046.46806      -259.39906        35.73006  21836918.91605     31367.16705      -198.34405        33.80305
C25  23802188.58825    259682.48125     -2555.84925        32.14825  23802203.87704    194548.56404     -1926.24304        26.81804
C32  23460203.33906   -228382.20606      2385.94306        37.36706  23460229.12105   -145626.89205      1796.98705        30.54605
C37  23984468.99806   3877476.74506      2271.93806        40.08906  23984508.87005   -165966.03605      1709.98105        33.52605
C38  36743528.98406   1486140.58606     -1166.05406        40.22906  36743556.56505     70510.68105      -878.31205        35.07105
C39  36822615.43425     41918.63125      -374.65625        35.11425  36822634.92005     31327.58205      -283.61705        32.03105
C41  22143304.40926     19894.06226      -134.09426        36.42726  22143333.78905     23889.66605      -101.26905        34.19605
E03  26070765.48505   -121213.14505      1544.76405        35.41805  26070797.56204    -89531.66904      1153.06204        29.38704
E05  22811531.30525    -38460.96625       486.70325        33.95325  22811557.68705    -27709.78605       364.54005        33.28705
E24  24717725.37505     44689.32905      -700.36105        35.33105  24717753.25505     32306.49105      -522.38805        34.45305
E25  24082084.72006   -183678.17706      1911.68606        39.94606  24082118.59606   -145840.88506      1427.49706        36.25106
> 2024 09 25 07 25 41.9995423  0 25                      
G10  20250096.45016     86443.55516      -795.26816        39.11016  20250123.73106     64567.29906      -595.79606        38.60606
G23  22127090.13406    256203.94606     -3156.78706        40.45306  22127127.00906    255837.74506     -2357.18106        37.65706
G25  20842372.12625    134877.41525     -1247.60625        31.86925  20842400.00725    109501.44025      -930.69525        32.24125
G26  22934994.23406   -231866.70906      3613.08006        38.70006  22935029.31006   -171003.34906      2698.39006        40.60406
G28  21218340.34926     -4676.40126       109.52126        35.56726  21218370.02805      6070.42905        83.47705        34.40005
G31  22525655.51326   -185092.27026      1843.78126        38.60726                                                                
G32  21535738.71826   -109300.93926      1130.36026        39.91726  21535760.00405    -71190.11405       844.32105        33.70105
R12  19292751.20625    122641.68725     -1137.54325        32.57625
J02  37446551.89215     41121.14415      -343.11615        33.43515  37446581.27106     31281.06306      -256.39506        37.49806
J04  37320371.04525   -103781.84225      1080.22325        33.12725  37320394.42906    -67367.77706       807.89706        36.40806
J07  36502444.28425      2949.37725        51.57325        30.63925  36502475.46206     11599.23006        39.72806        39.92406
C06  36689378.97125     45969.36125      -377.56125        33.38725                                                                
C09  37478753.49925     48991.38625      -410.72425        31.25525                                                                
C13  35819270.03526     64039.66126      -555.60226        35.52426                                                                
C23  21836953.09206     33305.57006      -260.05406        36.14406  21836968.38125     31562.35525      -196.32225        32.40925
C25  23802678.74825    262239.88425     -2557.33525        29.71025  23802695.23704    196475.49004     -1926.88904        27.59304
C32  23459741.65925   -230769.67025      2383.81225        35.07825  23459770.13905   -147425.53405      1797.21405        31.12505
C37  23984034.59806   3875204.27206      2272.25406        39.95106  23984073.57125   -167679.26125      1712.24325        31.23525
C38  36743753.22906   1487305.43806     -1166.17806        39.89006  36743781.40905     71388.60005      -878.86905        34.86405
C39  36822689.18326     42294.03526      -375.72026        36.38526  36822707.17025     31609.65925      -281.15425        29.98225
C41  22143329.59225     20026.12825      -138.00525        34.81425  22143359.27105     23989.89305      -101.72605        34.06205
E03  26070471.08805   -122759.34105      1545.54305        34.94705  26070501.96705    -90686.22605      1153.86405        31.04705
E05  22811436.87125    -38950.44325       494.10425        31.63425  22811464.45205    -28075.19405       364.42805        32.72005
E24  24717859.08205     45389.01005      -701.10005        34.59405  24717886.06405     32829.04805      -522.65605        32.01605
E25  24081720.77206   -185591.02306      1911.61606        39.21806  24081754.94806   -147269.32506      1428.12506        36.65606
> 2024 09 25 07 25 42.9995423  0 25                      
G10  20250251.14306     87239.23306      -794.02506        40.65906  20250275.72606     65161.05106      -593.12406        39.43906
G23  22127688.52006    259359.60306     -3153.81306        41.38606  22127726.89306    258194.19806     -2355.14206        37.50606
G25  20842606.56425    136122.67125     -1245.62525        31.11125  20842636.84325    110431.63225      -929.64425        31.17425
G26  22934301.11406   -235480.66806      3615.51206        40.37006  22934340.98606   -173702.02806      2699.63906        39.96106
G28  21218317.26526     -4789.85026       114.24226        36.79026  21218349.04305      5985.69105        86.12805        35.37305
G31  22525304.75626   -186932.73926      1845.00426        38.94626                                                                
G32  21535520.76906   -110433.30706      1134.82806        39.57606  21535543.85305    -72036.12005       848.30105        32.54105
R12  19292952.66725    123775.84525     -1136.25425        32.18425
J02  37446616.34715     41462.07815      -342.33815        34.80115  37446646.32606     31535.60606      -252.82306        37.41206
J04  37320158.19225   -104865.54125      1083.72425        32.85525  37320188.47106    -68176.84506       811.46406        35.93406
J07  36502438.28825      2896.48825        54.03125        31.29625  36502464.07006     11558.40606        42.15306        39.25606
C06  36689448.82325     46343.14125      -374.44725        33.81125                                                                
C09  37478831.14525     49408.62625      -408.03025        32.74125                                                                
C13  35819374.36306     64594.22606      -552.50106        36.17206                                                                
C23  21837004.05726     33564.55226      -258.70326        35.53926  21837017.54705     31757.22905      -193.74305        33.21905
C25  23803167.71025    264799.72025     -2555.94625        30.70725  23803187.19605    198401.45605     -1924.02205        29.78805
C32  23459288.67226   -233157.21226      2389.55226        38.32026  23459312.05605   -149224.81005      1800.39605        31.92405
C37  23983595.40206   3872931.25906      2274.10906        40.07006  23983636.77425   -169392.35525      1712.62725        31.81325
C38  36743979.57206   1488469.99706     -1163.17106        40.91306  36744004.45505     72266.07705      -876.00505        34.82305
C39  36822760.53306     42668.33206      -371.61706        35.62806  36822777.32224     31894.23124      -280.63324        28.61024
C41  22143354.17525     20159.02625      -134.80525        34.70525  22143385.05405     24089.86805       -97.97605        34.17905
E03  26070179.69005   -124306.70905      1549.19005        34.99905  26070208.77005    -91841.88805      1157.66305        32.57005
E05  22811344.23505    -39440.71205       492.97305        33.66505  22811371.21605    -28441.29305       367.54105        32.94205
E24  24717993.08905     46088.38505      -696.61105        34.09805  24718019.47105     33351.14705      -519.25005        32.16305
E25  24081357.72306   -187504.11106      1915.40206        39.69006  24081390.10106   -148697.85006      1430.00206        36.57506
> 2024 09 25 07 25 43.9995424  0 25                      
G10  20250434.31606     88030.29406      -789.13606        40.51906  20250455.90106     65751.64306      -588.53606        39.80206
G23  22128321.98106    262510.58106     -3148.57406        40.64706  22128356.15806    260547.16906     -2350.86206        38.14806
G25  20842874.57825    137363.27725     -1237.85825        34.85425  20842905.15706    111357.57506      -924.03806        37.39106
G26  22933645.46807   -239099.12707      3619.37907        42.01707  22933683.54106   -176404.20806      2703.01806        39.85506
G28  21218329.85626     -4907.78426       120.57926        37.28926  21218355.93805      5897.68705        89.76205        34.36505
G31  22524980.38126   -188781.30026      1849.24026        37.43526                                                                
G32  21535336.99606   -111571.16506      1141.01706        39.47206  21535357.98205    -72885.69905       851.49405        31.10005
R12  19293197.29715    124906.36615     -1130.31115        33.64515
J02  37446710.78226     41797.73726      -332.16826        35.65926  37446739.86106     31786.27206      -247.38806        36.95806
J04  37319984.01325   -105954.18325      1092.61525        34.08625  37320010.69406    -68989.56206       815.53306        36.42006
J07  36502455.37625      2843.43325        60.85925        31.54625  36502483.85606     11513.72506        47.47006        39.83406
C06  36689551.95205     46712.25805      -366.97105        34.64405                                                                
C09  37478940.56925     49813.14425      -398.87425        34.11025                                                                
C13  35819510.46925     65143.27625      -546.66125        35.06825                                                                
C23  21837081.10325     33818.40625      -251.80125        35.45125  21837096.69305     31948.76305      -189.94805        34.99605
C25  23803688.74925    267349.93425     -2546.61125        32.92725  23803704.93805    200323.39705     -1919.73005        31.33205
C32  23458858.47026   -235549.62326      2395.20826        38.20926  23458883.65305   -151027.67305      1805.10805        32.11505
C37  23983189.78306   3870654.04306      2277.74106        39.86006  23983229.95526   -171104.95426      1716.17826        37.85826
C38  36744228.70006   1489629.73906     -1157.70406        39.54906  36744257.18005     73140.17405      -872.31705        35.38005
C39  36822861.56326     43037.21726      -366.11226        36.64026  36822878.05224     32174.68124      -272.51724        27.90624
C41  22143409.03725     20287.62125      -126.59125        33.36425  22143439.61605     24186.60905       -93.88605        34.47105
E03  26069912.27506   -125859.14806      1553.39806        36.44006  26069943.15405    -93000.99305      1160.22505        32.08305
E05  22811281.57805    -39936.09005       499.23105        32.81105  22811307.06105    -28811.23605       372.68205        33.43605
E24  24718155.87705     46782.46105      -691.51505        33.33105  24718181.05905     33869.81605      -516.70205        33.31705
E25  24081022.85506   -189421.64106      1920.56106        39.15606  24081055.53206   -150129.79606      1433.81806        36.69706
> 2024 09 25 07 25 44.9995424  0 25                      
G10  20250579.71506     88820.48906      -790.80206        40.82206  20250604.59806     66341.83006      -590.77106        38.01706
G23  22128916.47006    265660.11706     -3149.72706        40.43906  22128956.04306    262899.12206     -2352.08106        37.00106
G25  20843112.01425    138603.42125     -1240.12925        34.09725  20843140.79406    112283.71906      -926.60706        39.49206
G26  22932956.84407   -242718.83307      3617.96207        42.86707  22932993.71906   -179107.27806      2701.65006        38.45406
G28  21218306.17226     -5026.43526       117.87326        37.63026  21218333.75305      5809.09505        87.69805        34.87605
G31  22524627.22526   -190630.84126      1847.33826        37.90626                                                                
G32  21535120.84616   -112709.97416      1140.19516        38.64616  21535140.93225    -73736.06325       849.49025        29.93225
R12  19293412.54825    126037.27525     -1128.34325        31.73825
J02  37446774.03825     42131.97625      -334.05425        34.47225  37446802.51825     32035.92625      -250.27625        34.75425
J04  37319778.35525   -107043.89225      1093.70825        30.99025  37319803.23806    -69803.40106       813.47506        36.49806
J07  36502442.18525      2782.24125        60.53625        32.20625  36502471.86506     11468.00806        45.45406        39.36906
C06  36689621.80305     47080.22405      -369.02405        35.20705                                                                
C09  37479015.51705     50213.42905      -401.61305        34.35905                                                                
C13  35819615.09626     65691.28126      -549.44226        35.56926                                                                
C23  21837127.57125     34072.29125      -250.80625        34.42025  21837144.65905     32139.68605      -191.47605        34.06705
C25  23804175.91225    269899.23225     -2545.28425        33.03525  23804194.19905    202244.60605     -1921.64405        30.67705
C32  23458398.88826   -237943.60726      2397.04826        35.66326  23458423.47105   -152831.01505      1803.12305        32.76105
C37  23982749.98806   3868375.93706      2275.80306        39.30806  23982792.25806   -172821.75906      1715.01206        40.01006
C38  36744452.04506   1490788.21306     -1159.21706        39.48006  36744479.92606     74013.21506      -873.93606        35.77806
C39  36822931.11525     43404.48225      -367.76725        34.87825  36822949.40324     32447.41424      -278.40324        26.04924
C41  22143432.12125     20414.73125      -122.76125        30.63625  22143463.89905     24282.39505       -96.00605        35.29605
E03  26069614.88105   -127412.67205      1554.07205        34.98405  26069647.85805    -94160.93505      1159.57605        32.20905
E05  22811188.34305    -40432.64305       497.08805        33.60805  22811212.32605    -29182.02005       370.77605        31.77605
E24  24718288.38525     47476.27625      -695.29225        30.21425  24718312.96805     34387.61105      -518.47905        32.57405
E25  24080659.80606   -191340.38006      1917.26706        38.36306  24080690.08506   -151562.60406      1431.80806        36.69206
> 2024 09 25 07 25 45.9995425  0 25                      
G10  20250764.68706     89612.13506      -791.95706        41.27106  20250786.87206     66932.99406      -591.66106        38.27406
G23  22129552.33006    268810.96806     -3151.15006        38.16906  22129585.30706    265252.06906     -2353.36906        37.27706
G25  20843376.43125    139845.49225     -1242.35425        34.28025  20843407.01006    113211.18106      -927.94606        38.10606
G26  22932299.10007   -246337.92807      3619.30607        42.96607  22932334.77506   -181809.86006      2703.23806        39.66706
G28  21218308.87026     -5144.22726       117.89026        37.54226  21218341.24805      5721.11405        87.88205        34.10805
G31  22524303.74926   -192479.59826      1845.89426        37.47126                                                                
G32  21534934.67506   -113847.69006      1137.52406        39.47306  21534954.16105    -74585.69505       848.82205        30.76505
R12  19293662.57525    127168.96425     -1132.35725        33.20825
J02  37446867.87325     42467.42225      -336.23325        33.92825  37446896.65305     32286.39205      -251.20605        34.71705
J04  37319607.17425   -108132.77525      1088.46625        30.41825  37319626.36006    -70616.60906       812.97506        37.20406
J07  36502459.87325      2721.78225        59.93025        31.35025  36502490.75106     11422.86806        44.73206        39.39606
C06  36689722.23425     47448.82125      -368.33525        35.25925                                                                
C09  37479124.34205     50614.33405      -400.90605        34.94505                                                                
C13  35819749.70326     66240.53726      -549.39726        36.24126                                                                
C23  21837208.81526     34326.87226      -254.82826        37.40926  21837223.80505     32331.47505      -191.74705        35.19405
C25  23804692.45425    272450.19125     -2552.01725        33.62125  23804714.03905    204166.87105     -1923.04105        33.27505
C32  23457966.28825   -240331.38725      2390.48625        34.79025  23457995.36805   -154633.68305      1802.37805        33.95405
C37  23982341.37126   3866098.33426      2277.58626        38.72726  23982385.14006   -174538.13106      1716.51706        41.15606
C38  36744705.67006   1491947.46406     -1159.51706        38.60406  36744732.95106     74886.82206      -873.84706        35.61606
C39  36823029.74706     43773.60806      -369.08406        35.78506  36823050.13304     32724.74504      -278.03704        28.76704
C41  22143491.48025     20543.81825      -129.66225        32.16125  22143518.76105     24379.25705       -97.56005        35.36505
E03  26069349.86505   -128965.42805      1552.94005        32.97405  26069382.54206    -95320.36706      1159.73006        36.60706
E05  22811122.38905    -40928.06405       495.00505        35.48805  22811148.17125    -29552.00525       370.48725        30.84725
E24  24718447.27524     48171.97724      -691.87724        29.07124  24718474.55605     34906.59605      -519.58705        31.34905
E25  24080325.83706   -193258.17606      1917.41506        38.66506  24080354.01806   -152994.78306      1431.85306        36.95906
> 2024 09 25 07 25 46.9995425  0 25                      
G10  20250913.68406     90404.51006      -794.30406        39.36306  20250937.66806     67524.58506      -592.65406        38.41406
G23  22130150.71506    271962.36706     -3151.32006        37.50706  22130185.49106    267605.04906     -2354.12106        37.32806
G25  20843615.66525    141088.13525     -1244.21025        34.13625  20843643.24606    114139.11106      -928.72806        36.16806
G26  22931608.97707   -249956.70307      3618.15307        42.17107  22931646.45206   -184512.18406      2702.07206        39.61506
G28  21218290.28326     -5261.61326       117.29326        38.38626  21218319.36305      5633.48005        87.08505        33.93505
G31  22523961.08626   -194328.46126      1849.01126        36.13626                                                                
G32  21534714.92706   -114985.23006      1136.55106        39.06006  21534738.61105    -75435.22405       848.60005        31.67105
R12  19293875.12825    128300.35025     -1134.22125        32.18625
J02  37446934.12725     42802.71225      -336.17025        33.90325  37446960.20905     32536.73205      -251.32805        34.78405
J04  37319394.32114   -109221.31714      1085.31814        28.99014  37319418.90406    -71429.83706       812.98706        37.62406
J07  36502448.18125      2660.60225        58.74325        29.91725  36502478.46006     11377.68806        43.75006        38.72506
C06  36689794.18425     47817.54125      -370.96225        34.13925                                                                
C09  37479199.89025     51015.29325      -400.65225        33.89625                                                                
C13  35819855.83025     66790.04825      -550.59525        35.24825                                                                
C23  21837259.18026     34581.93526      -255.52026        38.46326  21837273.27006     32523.68406      -192.39706        36.02706
C25  23805185.91325    275000.85725     -2551.70525        34.16825  23805203.90005    206089.14505     -1922.44705        35.11105
C32  23457507.30625   -242719.97325      2387.59925        33.94625  23457535.78625   -156436.24725      1803.87725        32.72825
C37  23981906.67106   3863821.21206      2276.52406        40.14806  23981947.14306   -176254.16906      1716.56906        41.13306
C38  36744925.41706   1493106.72306     -1159.97206        38.42606  36744955.39705     75760.52505      -874.60705        35.47705
C39  36823104.39526     44141.04226      -368.70926        35.51526  36823121.48305     33002.30205      -277.73605        30.65505
C41  22143513.06525     20680.78125      -132.10425        31.78825  22143544.24306     24476.30006       -97.59006        35.72206
E03  26069056.96705   -130517.88205      1553.74905        34.12405  26069087.24606    -96479.87206      1160.31506        35.56406
E05  22811026.45525    -41423.57225       498.68925        34.20625  22811053.13705    -29922.08805       369.23005        31.14205
E24  24718581.58205     48867.38505      -696.29905        29.85805  24718607.06405     35425.90105      -520.12305        30.14905
E25  24079954.69406   -195175.73206      1916.18406        37.44006  24079990.37006   -154426.64306      1430.88806        36.83306
> 2024 09 25 07 25 47.9995425  0 25                      
G10  20251061.78206     91196.41606      -788.40606        40.43906  20251087.86406     68116.09506      -589.28706        38.76706
G23  22130746.10306    275112.91506     -3147.44906        37.01306  22130784.77706    269957.74606     -2350.42006        36.18806
G25  20843855.79925    142330.39925     -1240.70825        34.62725  20843879.48306    115066.79306      -927.06806        36.40206
G26  22930921.85307   -253576.03907      3622.35107        42.91907  22930957.82806   -187214.88106      2704.61706        39.59606
G28  21218269.29826     -5379.62126       121.72726        38.07226  21218296.57905      5545.41205        90.16005        35.11705
G31  22523596.83826   -196177.04826      1851.39526        38.95326                                                                
G32  21534499.97606   -116123.79206      1141.88606        39.13806  21534521.86105    -76285.45405       852.51505        32.20405
R12  19294092.47825    129432.88725     -1132.96725        33.10025
J02  37446998.88225     43138.09325      -336.42825        34.47925  37447023.76505     32786.53805      -248.10605        34.77205
J04  37319183.56725   -110310.72325      1091.72025        31.80625  37319211.74706    -72243.57906       815.51906        36.81506
J07  36502436.48915      2599.23815        60.99515        30.70715  36502467.06806     11331.81806        47.88906        39.25206
C06  36689861.93705     48185.38505      -364.88805        34.79205                                                                
C09  37479277.23625     51415.57825      -399.61925        32.43525                                                                
C13  35819961.95626     67338.79226      -545.13026        36.92526                                                                
C23  21837308.34626     34836.56026      -251.93426        38.74326  21837321.83706     32715.59706      -189.72106        35.97606
C25  23805674.87425    277552.20925     -2550.34325        32.55625  23805694.06105    208010.85205     -1920.29505        34.44605
C32  23457049.82226   -245112.66026      2396.23126        38.10826  23457075.90425   -158239.07025      1803.24425        33.08125
C37  23981467.47606   3861543.67006      2281.11606        39.79006  23981510.94506   -177970.35806      1717.88706        41.48806
C38  36745151.76106   1494265.49406     -1156.32506        38.66506  36745177.54306     76633.72706      -871.42506        35.59406
C39  36823175.44626     44508.56026      -364.60226        37.06426  36823192.23405     33279.31005      -274.61405        31.03005
C41  22143536.44925     20810.69025      -128.50625        32.08425  22143568.52606     24573.09206       -95.05306        36.07506
E03  26068760.77225   -132071.25025      1550.66325        34.59125  26068791.05105    -97639.86305      1161.28605        34.06405
E05  22810932.32005    -41920.01905       500.48705        34.56105  22810959.30105    -30291.70005       372.07705        30.67305
E24  24718713.79105     49562.21205      -691.85605        31.54605  24718740.47205     35944.81805      -517.15205        32.92105
E25  24079595.24306   -197093.71506      1921.90106        36.30506  24079626.12206   -155858.90806      1434.74006        37.03106
> 2024 09 25 07 25 48.9995426  0 25                      
G10  20251246.45406     91985.03106      -785.76506        40.04806  20251267.13906     68704.93806      -586.32906        38.08306
G23  22131378.96506    278258.91006     -3143.25206        37.21806  22131413.14106    272307.37006     -2347.77206        35.72506
G25  20844119.91605    143568.61705     -1236.85305        34.63005  20844144.79906    115991.58606      -924.81006        38.07906
G26  22930263.80907   -257199.59707      3626.55307        41.99707  22930298.28506   -189920.69806      2707.46106        40.11806
G28  21218274.39406     -5500.87806       124.96806        38.52506  21218303.47405      5454.29905        93.38705        34.75405
G31  22523282.65626   -198030.43126      1856.57726        40.61626                                                                
G32  21534310.20726   -117267.52726      1145.43926        39.57526  21534334.19105    -77138.65705       854.86005        31.40905
R12  19294323.91715    130561.12415     -1127.44115        34.23115
J02  37447092.41725     43470.83225      -331.10625        33.59725  37447117.00005     33033.20205      -245.62205        34.13205
J04  37319008.48825   -111403.79225      1096.14225        31.62825  37319033.97006    -73060.69106       818.91106        36.73806
J07  36502452.67825      2530.75025        67.82525        30.85725  36502484.45606     11282.69506        51.51206        37.13706
C06  36689964.46626     48549.53426      -362.42426        35.72326                                                                
C09  37479383.06325     51811.41725      -392.96925        34.73025                                                                
C13  35820097.16326     67883.53926      -546.27126        36.83026                                                                
C23  21837384.79326     35087.22226      -247.52226        38.23426  21837400.68206     32904.57806      -186.50606        35.89706
C25  23806192.31625    280102.51925     -2541.65325        32.95725  23806212.70205    209929.44205     -1918.08405        32.72805
C32  23456620.81926   -247509.19626      2399.42626        37.30626  23456646.60105   -160045.24405      1806.87005        35.35605
C37  23981060.05826   3859261.46526      2285.76626        40.18126  23981101.72906   -179689.76406      1721.47806        41.09606
C38  36745402.38706   1495420.14706     -1151.81706        39.60506  36745429.36906     77503.88106      -868.41706        36.19406
C39  36823275.27726     44871.14826      -358.94826        35.99426  36823291.76605     33553.58805      -274.51605        30.91905
C41  22143591.61125     20940.25525      -122.34925        33.52425  22143622.78906     24666.85206       -92.67206        38.20206
E03  26068495.15625   -133630.77725      1551.93525        33.63225  26068524.83606    -98803.22006      1165.32606        37.30106
E05  22810867.86525    -42420.49125       497.45925        33.81925  22810893.34705    -30665.46605       375.23105        31.66905
E24  24718879.87625     50253.90925      -694.94625        30.60025  24718900.86105     36460.65705      -514.05005        33.24605
E25  24079255.87806   -199015.44906      1924.28006        37.42906  24079289.75506   -157294.04106      1437.39006        37.15606
> 2024 09 25 07 25 49.9995426  0 25                      
G10  20251392.45307     92771.88607      -787.05907        41.63207  20251416.73606     69292.46106      -587.65806        37.33806
G23  22131975.55226    281401.27326     -3142.40326        36.08026  22132011.82706    274655.43306     -2347.64706        36.42106
G25  20844351.65605    144805.73405     -1237.45105        34.14905  20844381.63506    116915.31606      -924.01706        38.22306
G26  22929568.29007   -260825.37507      3626.01507        41.97407  22929607.56306   -192628.30706      2707.77206        39.59806
G28  21218250.11106     -5625.09706       124.48206        38.53306  21218280.09006      5361.58506        92.60906        36.14906
G31  22522928.00126   -199885.25226      1853.76226        40.56426                                                                
G32  21534094.95626   -118412.22326      1143.96126        38.43026  21534116.24205    -77993.48605       854.62205        31.30905
R12  19294533.77225    131688.00425     -1123.33325        33.16025
J02  37447154.47425     43797.58225      -324.90525        32.29025  37447178.15825     33277.92625      -244.40925        32.22325
J04  37318805.22925   -112501.95425      1099.28625        31.94825  37318825.01506    -73879.41606       817.85706        35.76606
J07  36502442.78525      2460.57025        69.93325        30.76825  36502471.56506     11231.79006        51.11506        37.20106
C06  36690034.61825     48910.84825      -362.49225        34.81925                                                                
C09  37479458.61126     52204.93826      -393.51726        36.47426                                                                
C13  35820201.19125     68426.49825      -539.88925        34.97425                                                                
C23  21837433.35926     35336.02626      -250.47026        37.15726  21837447.75006     33092.13706      -188.18406        36.80906
C25  23806678.87925    282646.31125     -2544.38025        33.57225  23806701.06405    211846.24305     -1916.82605        31.43805
C32  23456161.23725   -249907.04425      2394.20125        35.05325  23456185.52125   -161853.14525      1806.36625        32.50025
C37  23980622.96006   3856977.77806      2283.16306        41.11806  23980663.13206   -181410.68506      1721.16006        40.26506
C38  36745623.03506   1496572.52706     -1152.68606        39.97306  36745650.91506     78372.31006      -868.78906        36.08606
C39  36823344.52926     45232.22426      -361.27326        37.45926  36823360.71824     33826.26524      -272.69624        29.44524
C41  22143613.49525     21063.07725      -120.25825        34.26025  22143645.27306     24759.22206       -92.25306        37.37806
E03  26068201.66025   -135186.39025      1548.87925        31.17825  26068228.04125    -99968.36825      1164.89225        34.69725
E05  22810772.83105    -42923.35905       501.87105        33.87805  22810797.11405    -31040.92005       374.81505        30.56505
E24  24719009.08625     50961.62925      -690.00825        30.36025  24719032.47005     36975.45705      -515.14105        34.89705
E25  24078889.53206   -200939.62906      1924.35606        36.83306  24078924.90706   -158730.70706      1436.25106        36.88306
> 2024 09 25 07 25 50.9995427  0 25                      
G10  20251570.52926     93559.99226      -789.62926        37.94526  20251598.11006     69881.43406      -591.38306        39.23706
G23  22132604.81726    284545.10926     -3148.65226        40.77226  22132641.39106    277004.87406     -2350.69706        38.65206
G25  20844618.17105    146044.37905     -1240.51905        35.16705  20844645.45206    117840.44506      -927.93806        36.03506
G26  22928909.34607   -264449.60707      3622.64807        42.31807  22928948.91906   -195334.72206      2705.75206        39.10606
G28  21218257.60606     -5747.42806       119.44506        38.84006  21218286.68606      5270.25106        89.55406        36.41406
G31  22522603.92626   -201738.33126      1850.88326        38.84226                                                                
G32  21533907.88626   -119555.48826      1139.74926        39.69426  21533928.27204    -78848.14304       855.94404        28.30804
R12  19294766.11125    132816.71325     -1131.06825        34.73425
J02  37447244.11225     44126.06425      -327.27825        32.97725  37447272.59306     33523.73506      -247.00806        36.68006
J04  37318623.85415   -113596.41915      1096.29215        32.98115  37318646.03905    -74697.36305       815.80205        34.74205
J07  36502459.27325      2394.03225        64.55925        30.98025  36502489.55206     11181.99006        48.11306        38.85806
C06  36690133.24925     49273.25725      -360.99125        33.20225                                                                
C09  37479566.53625     52600.17725      -398.00725        35.41425                                                                
C13  35820335.79825     68970.76125      -542.43625        34.92525                                                                
C23  21837511.00606     35587.23006      -254.36106        37.16506  21837525.99506     33280.87806      -190.34106        36.67906
C25  23807199.31906    285191.71806     -2546.46006        39.24106  23807219.70505    213764.17005     -1918.77605        34.28305
C32  23455732.53425   -252303.75125      2392.20025        34.06925  23455754.41905   -163659.72005      1804.73705        31.03505
C37  23980216.44207   3854695.95907      2279.08007        41.59707  23980254.81506   -183130.30306      1718.14606        38.99006
C38  36745872.76206   1497726.17506     -1156.20206        38.31206  36745902.44106     79241.83406      -872.30606        35.70306
C39  36823441.96206     45594.93606      -365.23406        37.15806  36823460.24924     34104.91524      -274.53624        26.46124
C41  22143667.45825     21187.57325      -126.96025        34.19325  22143700.13506     24852.81206       -95.52306        36.66206
E03  26067936.64325   -136733.46225      1557.19525        31.45425  26067962.42525   -101132.05325      1163.29925        30.45125
E05  22810705.97705    -43425.03005       498.32505        33.79805  22810731.15925    -31416.67725       373.36025        29.90325
E24  24719168.27625     51651.75325      -687.10425        32.96225  24719194.05805     37491.23605      -518.11705        34.02505
E25  24078556.76206   -202861.95906      1919.91306        41.03106  24078587.94006   -160166.34706      1433.64006        36.33406
> 2024 09 25 07 25 51.9995427  0 25                      
G10  20251725.52226     94350.05926      -792.23026        40.18426  20251748.90606     70471.41606      -591.58706        39.19006
G23  22133206.50026    287692.20826     -3149.23126        38.11526  22133239.17706    279355.04306     -2350.65006        36.77206
G25  20844853.50805    147284.86405     -1242.34605        34.11405  20844881.68905    118766.43505      -926.72305        34.53905
G26  22928222.82207   -268072.98307      3622.51707        41.88407  22928258.79706   -198040.50106      2705.25106        39.22106
G28  21218233.62326     -5861.74326       120.77026        36.38026  21218262.70205      5179.20605        90.09405        33.49505
G31  22522252.26926   -203590.63726      1850.14226        38.04426                                                                
G32  21533688.43816   -120698.36516      1139.30716        37.58516  21533711.22224    -79702.36724       852.50024        26.45824
R12  19294990.65625    133947.31225     -1132.59925        34.68825
J02  37447308.86825     44452.60525      -335.77925        31.75625  37447334.94906     33770.39206      -247.64406        37.55706
J04  37318414.29915   -114690.68615      1092.39515        31.26515  37318438.28305    -75514.71305       816.27705        34.95205
J07  36502444.88325      2327.96025        65.56425        31.45025  36502476.36106     11132.62906        48.47706        37.18106
C06  36690204.90025     49636.12025      -363.86425        35.14925                                                                
C09  37479640.88525     52995.25625      -397.98525        34.17125                                                                
C13  35820438.02725     69515.47725      -546.27125        33.93525                                                                
C23  21837554.47626     35838.73426      -254.04026        35.98226  21837574.26206     33470.48806      -190.88206        36.16706
C25  23807686.18206    287737.73606     -2547.49606        38.00206  23807708.36605    215682.85805     -1919.60305        34.71805
C32  23455271.15426   -254700.60226      2395.03626        37.36926  23455294.83705   -165466.00305      1805.74805        31.41005
C37  23979777.84506   3852414.81006      2280.22206        39.25406  23979816.81806   -184849.29606      1718.44906        38.63206
C38  36746096.40706   1498880.84606     -1156.41706        38.62306  36746124.58705     80111.84105      -871.16505        35.40905
C39  36823509.71526     45957.95526      -364.43526        37.75426  36823530.40025     34379.20325      -273.40325        29.75325
C41  22143690.84225     21313.42125      -126.54825        33.97625  22143723.81906     24947.39606       -96.02506        36.12906
E03  26067633.55326   -138275.18626      1560.47226        36.47426  26067664.43124   -102295.69724      1163.68724        28.95324
E05  22810611.54205    -43926.04605       499.57505        33.63005  22810636.72505    -31790.80205       373.21705        31.74005
E24  24719298.38605     52344.08005      -692.80805        33.44605  24719325.96705     38008.01205      -517.44705        32.36905
E25  24078190.41606   -204783.19906      1919.82606        38.51406  24078222.79306   -161601.08206      1433.90806        37.28406
> 2024 09 25 07 25 52.9995428  0 25                      
G10  20251905.39816     95140.51916      -789.59616        37.90516  20251929.08106     71061.79006      -589.68306        38.83706
G23  22133832.76626    290839.97726     -3145.19626        37.35326  22133869.04106    281705.68706     -2348.95306        37.07006
G25  20845126.02025    148523.73325     -1243.25225        31.62125  20845147.60525    119692.81525      -925.16925        32.08525
G26  22927562.07907   -271696.06607      3624.97407        43.10907  22927600.45206   -200746.02406      2707.02106        39.91606
G28  21218242.61626     -5983.73226       122.99026        36.22326  21218268.69805      5088.21505        92.30905        32.48305
G31  22521930.89226   -205442.60126      1853.72026        36.96826                                                                
G32  21533500.46826   -121841.50026      1144.71326        39.14626  21533524.75104    -80556.44804       855.83804        28.19104
R12  19295240.98325    135078.13925     -1129.14525        34.13125
J02  37447398.50525     44784.05325      -331.73525        33.55625  37447428.48506     34016.83306      -243.69406        37.27006
J04  37318235.62325   -115786.04925      1094.24625        30.98725  37318259.60605    -76332.14205       820.01605        34.88805
J07  36502465.26925      2263.55225        66.34525        29.68825  36502492.85006     11083.23106        51.26206        37.72606
C06  36690305.03025     49998.75225      -360.19825        34.12125                                                                
C09  37479745.81225     53389.51425      -392.59125        32.74225                                                                
C13  35820573.83325     70060.53725      -545.83125        34.78725                                                                
C23  21837636.61926     36089.92826      -254.89326        36.53626  21837652.80805     33660.26305      -188.28905        35.46105
C25  23808206.92106    290283.39506     -2543.15706        37.06406  23808227.90705    217601.30105     -1916.33505        34.73005
C32  23454836.45526   -257097.52526      2397.94726        37.41326  23454864.03605   -167272.29005      1809.98905        30.50005
C37  23979367.72907   3850134.03007      2282.36207        42.08507  23979409.10106   -186568.01706      1719.85406        38.86906
C38  36746349.43206   1500035.48506     -1152.32206        39.36906  36746376.41305     80982.03005      -868.27205        34.76305
C39  36823606.84706     46320.61106      -360.37406        37.70606  36823629.33204     34650.01804      -270.84904        29.32404
C41  22143747.20325     21440.97225      -125.98025        33.82025  22143778.08105     25041.99205       -91.95005        34.37605
E03  26067365.23926   -139834.51126      1559.22726        38.85926  26067397.31604   -103460.30404      1165.98504        29.17704
E05  22810544.98806    -44427.13706       503.21406        35.79606  22810572.26905    -32165.03705       375.97705        32.66105
E24  24719460.57405     53036.52005      -689.12705        31.67105  24719487.55505     38525.08105      -515.17505        31.56605
E25  24077857.04606   -206704.16906      1922.89806        38.40706  24077886.72606   -163035.54606      1435.93606        37.18306
> 2024 09 25 07 25 53.9995428  0 25                      
G10  20252055.89326     95926.72226      -786.00526        38.84626  20252078.97706     71649.13606      -586.69506        40.10306
G23  22134425.15626    293982.93226     -3142.14226        39.11226  22134466.52806    284052.70406     -2346.34306        39.63706
G25  20845358.65825    149768.41925     -1236.08725        30.27425  20845383.54125    120615.65225      -921.35525        30.55525
G26  22926871.95707   -275324.01007      3628.25507        42.65207  22926907.93206   -203455.27806      2709.81106        38.84806
G28  21218217.73426     -6109.48026       126.26126        38.36426  21218244.71505      4994.31205        94.70605        32.77205
G31  22521572.93926   -207299.25326      1857.28526        38.27926                                                                
G32  21533284.61726   -122988.71826      1149.53626        40.01026  21533305.00324    -81412.90924       858.09124        27.75324
R12  19295447.83925    136205.26025     -1125.52725        34.74125
J02  37447461.76225     45109.34325      -323.53025        34.09025  37447489.34326     34260.05226      -241.82826        36.63026
J04  37318027.56725   -116886.66925      1097.67225        31.32525  37318050.65105    -77152.94405       822.56705        34.99105
J07  36502445.18325      2198.92725        72.41925        29.63825  36502479.95906     11030.23806        53.85806        38.32706
C06  36690370.38525     50354.33325      -357.05425        33.26625                                                                
C09  37479819.26125     53780.36025      -388.01525        31.38625                                                                
C13  35820679.36026     70601.21626      -540.38426        37.65326                                                                
C23  21837685.18525     36337.75525      -247.19125        35.48625  21837701.07405     33846.91005      -185.10205        34.19505
C25  23808697.08206    292825.15906     -2539.92706        38.11906  23808716.26905    219516.74505     -1913.73605        35.41605
C32  23454381.96926   -259498.48126      2401.54126        40.18826  23454402.35525   -169081.02025      1810.90925        29.57825
C37  23978931.53107   3847848.80707      2285.26107        43.16607  23978969.90506   -188290.32206      1723.00406        38.82706
C38  36746571.27826   1501185.13726     -1149.87326        39.59926  36746596.76005     81848.64905      -865.22105        34.90505
C39  36823683.29506     46678.44606      -355.60606        37.11406  36823697.68504     34919.81204      -268.34404        29.38704
C41  22143766.98925     21567.73125      -118.95425        34.74525  22143801.46525     25133.54225       -89.88825        32.61925
E03  26067063.94706   -141398.09506      1564.12406        37.66006  26067099.62204   -104627.82504      1169.67604        28.99704
E05  22810450.55406    -44932.65806       507.70906        36.93206  22810475.73605    -32542.42005       378.59005        33.24305
E24  24719592.78205     53724.68305      -686.08905        31.41205  24719618.56405     39038.87205      -511.95705        31.11305
E25  24077486.80306   -208629.69406      1926.63106        38.17706  24077520.67906   -164473.45006      1438.86106        38.66806
> 2024 09 25 07 25 54.9995429  0 25                      
G10  20252233.97006     96712.26406      -785.26006        39.69406  20252258.25306     72235.76506      -586.55706        39.89806
G23  22135058.61806    297124.87006     -3141.08106        38.32606  22135094.59306    286398.60906     -2345.90406        40.39506
G25  20845626.07325    151007.23725     -1232.97325        34.47425  20845647.05905    121538.86305      -922.85505        31.82005
G26  22926210.61507   -278953.87207      3630.42407        41.79207  22926248.08906   -206165.85006      2711.48306        38.77706
G28  21218223.72906     -6236.17706       127.96506        36.54306  21218251.01005      4899.33405        95.31905        32.96305
G31  22521252.46106   -209156.71906      1858.81706        36.53506                                                                
G32  21533094.84916   -124136.82716      1148.00816        38.61616  21533115.23524    -82270.59224       858.89724        26.97424
R12  19295678.38025    137331.76925     -1126.28725        34.49925
J02  37447553.79805     45433.48105      -324.26605        34.00105  37447581.67906     34502.04606      -242.12806        37.02506
J04  37317846.79225   -117986.68025      1101.73725        30.96725  37317870.17605    -77974.86105       822.60805        35.17105
J07  36502461.37205      2126.48105        72.07505        32.13305  36502494.94906     10975.98606        55.01206        37.24706
C06  36690468.41726     50703.55726      -352.62126        36.00126                                                                
C09  37479927.18625     54169.67425      -389.26325        32.92725                                                                
C13  35820810.96926     71140.25026      -538.92526        37.15926                                                                
C23  21837762.53226     36584.38526      -246.27426        36.12726  21837778.12106     34032.91006      -186.11606        36.03106
C25  23809213.02506    295365.78006     -2541.72906        35.60506  23809234.01005    221431.45305     -1915.54505        35.40305
C32  23453946.97026   -261900.76026      2402.29126        37.49226  23453971.25425   -170890.89525      1810.21925        30.45525
C37  23978522.01507   3845561.91607      2286.77307        42.85607  23978559.78806   -190013.60206      1723.24906        37.83406
C38  36746821.00506   1502333.98406     -1147.47606        40.19806  36746847.38706     82714.16906      -864.89706        35.73806
C39  36823780.42706     47035.04206      -356.22306        38.09306  36823796.91605     35188.66805      -269.93105        30.24705
C41  22143821.25225     21688.83625      -123.41025        34.87425  22143855.12805     25224.45805       -90.94605        34.81805
E03  26066804.32706   -142963.20506      1564.04806        38.78806  26066831.90805   -105796.23005      1167.87905        29.83105
E05  22810385.19906    -45439.29906       506.91306        36.34806  22810409.18205    -32920.84705       378.76005        32.53605
E24  24719755.27005     54412.12205      -688.35805        32.52305  24719778.35425     39552.27825      -513.51125        29.80525
E25  24077153.43406   -210556.64306      1927.38206        39.37906  24077184.01206   -165912.36806      1439.21306        38.86406
> 2024 09 25 07 25 55.9995429  0 25                      
G10  20252382.66706     97499.22906      -788.54106        40.18306  20252408.15006     72823.42606      -589.01306        39.83906
G23  22135654.90506    300267.45106     -3145.92006        39.54806  22135691.77906    288745.24006     -2348.20306        40.30406
G25  20845863.20925    152248.51925     -1237.98625        31.92425  20845882.99505    122463.62805      -924.89205        31.80305
G26  22925519.89307   -282583.38807      3628.23907        41.98407  22925557.66706   -208876.10806      2708.90306        39.95906
G28  21218201.24506     -6362.14506       124.78106        39.17806  21218227.92605      4805.19805        94.52005        33.99305
G31  22520899.60606   -211014.32706      1856.79606        36.79206                                                                
G32  21532877.19926   -125283.68726      1147.09426        40.37726  21532900.58305    -83126.91605       856.67205        31.21505
R12  19295885.23725    138460.19925     -1126.57325        33.59425
J02  37447616.75405     45759.06505      -328.50505        35.14605  37447644.03506     34745.10406      -244.61906        36.25306
J04  37317633.34025   -119087.30525      1101.89825        34.14625  37317661.52105    -78795.84505       819.44405        35.43505
J07  36502448.78105      2054.62805        69.87805        31.93305  36502482.35706     10922.44206        52.10006        38.25106
C06  36690537.96925     51053.02925      -356.01225        33.27425                                                                
C09  37479999.73625     54559.05125      -387.63925        31.86225                                                                
C13  35820918.29426     71680.12626      -540.74026        38.13726                                                                
C23  21837810.19926     36832.40526      -248.75926        37.44826  21837825.78805     34219.80105      -188.26905        34.42905
C25  23809701.08706    297908.49106     -2542.34706        36.74806  23809722.37205    223347.55305     -1915.95805        32.95605
C32  23453479.89426   -264301.63026      2403.19026        38.75826  23453510.47305   -172700.29405      1809.58305        32.85405
C37  23978081.62007   3843275.33707      2286.06207        44.80307  23978120.89206   -191736.79606      1722.31006        36.38106
C38  36747039.55406   1503483.01606     -1150.44206        41.24106  36747067.43505     83580.27705      -868.40005        34.92005
C39  36823846.08206     47392.82806      -357.84306        37.54206  36823866.16805     35458.21605      -270.03005        31.30905
C41  22143843.13625     21810.92125      -122.48425        34.01325  22143878.21205     25316.40005       -92.87705        35.30805
E03  26066503.93506   -144527.44506      1565.10606        38.02806  26066533.91424   -106964.62424      1169.12024        29.32024
E05  22810290.76406    -45944.23906       504.85806        36.98106  22810312.94905    -33297.94705       377.36805        33.51605
E24  24719886.87805     55101.66405      -690.39905        30.94305  24719910.26205     40067.15705      -515.91205        30.43805
E25  24076785.58806   -212482.44706      1923.33806        39.91506  24076816.16706   -167350.53406      1436.61706        37.94306
> 2024 09 25 07 25 56.9995430  0 25                      
G10  20252563.44216     98288.37616      -790.74316        37.99216  20252588.62506     73412.61006      -590.24306        40.12406
G23  22136279.97206    303412.82606     -3146.26906        40.53806  22136321.64306    291094.10006     -2349.68606        40.67506
G25  20846127.32625    153489.69925     -1244.13425        31.16625  20846150.11105    123389.46305      -925.70505        31.84505
G26  22924857.65106   -286210.29706      3625.72506        39.90906  22924897.82306   -211584.59906      2708.26906        39.77306
G28  21218206.94116     -6487.13516       125.73316        36.58816  21218234.22205      4711.47305        92.65005        32.26005
G31  22520577.92806   -212871.86906      1860.68406        40.34706                                                                
G32  21532688.93026   -126430.39826      1146.04726        40.35826  21532710.21525    -83983.37325       857.51025        30.01325
R12  19296129.56725    139590.88825     -1133.26425        34.03825
J02  37447711.18925     46085.80225      -332.24425        35.45725  37447736.37206     34989.36506      -244.75806        36.39406
J04  37317461.85925   -120185.30225      1096.25225        35.12525  37317482.84406    -79616.01806       819.35306        35.70606
J07  36502470.96515      1984.73615        69.13815        32.14715  36502498.54606     10870.24106        51.67006        38.43906
C06  36690633.90325     51411.41125      -358.21625        32.95025                                                                
C09  37480106.46225     54948.18225      -388.52325        31.61125                                                                
C13  35821051.10206     72221.39306      -541.99606        38.13906                                                                
C23  21837886.94526     37081.56226      -250.19026        37.09226  21837904.03405     34407.61005      -188.11605        34.16305
C25  23810222.12606    300451.19706     -2542.58806        37.57906  23810240.41405    225263.50905     -1915.29005        31.22005
C32  23453055.68706   -266702.78206      2400.75006        39.25006  23453079.67105   -174509.75705      1809.58505        31.03505
C37  23977673.00207   3840990.86007      2283.93607        42.77307  23977712.57505   -193458.39405      1720.84605        35.21605
C38  36747292.57906   1504634.36106     -1152.18106        41.37906  36747319.26025     84447.64325      -868.32825        33.65425
C39  36823946.21326     47749.32126      -357.79526        36.94626  36823964.80005     35727.62605      -270.53705        31.07105
C41  22143898.89805     21934.95605      -124.48305        34.05205  22143931.57505     25409.66705       -94.28805        34.47005
E03  26066236.52006   -146092.34006      1564.94706        37.15406  26066267.39924   -108133.48024      1170.97724        26.82324
E05  22810223.01106    -46449.24106       504.85306        36.80206  22810247.29405    -33675.04705       376.60105        32.70405
E24  24720045.76825     55791.37225      -687.16625        31.10025  24720070.95105     40582.93705      -516.14405        30.09605
E25  24076448.92116   -214406.12316      1922.57316        39.78416  24076480.99906   -168786.92506      1435.56006        38.03206
> 2024 09 25 07 25 57.9995430  0 25                      
G10  20252713.03906     99078.02406      -786.65606        38.95306  20252739.12006     74002.28506      -587.35406        39.97306
G23  22136884.05406    306557.98006     -3141.00506        40.85206  22136919.13006    293442.70106     -2345.54506        40.47406
G25  20846358.46625    154730.24225     -1241.04825        31.86825  20846385.44805    124315.52305      -924.36505        31.58205
G26  22924172.32606   -289836.98106      3631.06706        40.22506  22924207.10206   -214292.64706      2710.94306        39.33906
G28  21218186.25525     -6615.30625       123.77425        35.49025  21218210.53905      4618.44005        94.48905        32.82505
G31  22520223.57425   -214735.46725      1860.16325        35.38625                                                                
G32  21532473.37926   -127576.86026      1148.17126        40.41726  21532493.46525    -84839.37925       857.76625        30.71125
R12  19296349.31525    140723.16525     -1134.28225        34.14625
J02  37447773.54625     46412.76525      -327.51825        33.77725  37447798.72806     35233.15206      -241.65306        37.62406
J04  37317252.00425   -121283.75425      1101.68525        34.08825  37317273.58906    -80436.31906       822.62206        35.87706
J07  36502460.17305      1914.44705        73.61905        32.73405  36502486.25506     10817.71606        55.54906        38.16006
C06  36690704.05425     51769.69725      -355.41525        33.11525                                                                
C09  37480183.50925     55339.16825      -388.08525        32.47225                                                                
C13  35821152.43206     72763.13006      -537.51606        36.23606                                                                
C23  21837934.01326     37331.32526      -249.30126        36.44526  21837952.00005     34595.84805      -186.47805        34.72905
C25  23810708.68906    302993.65006     -2540.12906        35.99206  23810728.77505    227179.64405     -1914.56405        29.95405
C32  23452593.40706   -269102.94906      2401.63706        37.84406  23452618.59005   -176318.71105      1810.63005        31.78305
C37  23977235.00607   3838707.34407      2286.74307        42.65207  23977274.57806   -195179.22706      1723.64306        35.92306
C38  36747514.12506   1505785.64906     -1147.18806        40.79506  36747540.80705     85315.25105      -864.33405        34.30705
C39  36824009.16926     48107.09726      -355.06926        36.54926  36824033.75205     35997.21705      -267.15505        30.54905
C41  22143924.08005     22058.76105      -121.25205        35.00405  22143955.55905     25502.73805       -90.89505        34.89105
E03  26065938.52606   -147656.09206      1565.30306        35.63506  26065968.50505   -109300.88605      1169.07805        29.89705
E05  22810124.67906    -46954.25406       507.19506        36.93006  22810150.76105    -34052.26705       379.59305        30.29905
E24  24720177.97705     56481.92605      -688.79805        32.18805  24720203.45905     41098.57705      -514.00105        31.33205
E25  24076080.77606   -216329.53606      1926.95506        38.56106  24076114.65306   -170223.31006      1438.85206        37.50506
> 2024 09 25 07 25 58.9995431  0 25                      
G10  20252897.71126     99865.18826      -785.39926        38.35826  20252917.49706     74588.55606      -584.95206        40.17906
G23  22137510.62006    309697.19406     -3137.55606        40.08906  22137546.89506    295786.97606     -2343.43606        39.64206
G25  20846626.78125    155966.49325     -1236.34325        31.55625  20846650.46405    125238.38905      -920.55905        30.55405
G26  22923510.98406   -293469.38306      3634.78006        38.33606  22923545.75906   -217005.34506      2714.70106        37.76406
G28  21218188.95316     -6744.34316       128.61316        35.71116  21218215.33505      4522.17005        98.19005        32.75805
G31  22519900.99726   -216597.70926      1863.14226        38.78226                                                                
G32  21532279.11326   -128727.49726      1152.94226        40.02726  21532304.29605    -85698.65105       861.18005        30.17705
R12  19296585.25226    141855.16226     -1124.75826        35.80226
J02  37447864.68325     46733.97725      -321.68325        33.36525  37447888.66606     35472.84806      -237.61706        36.25006
J04  37317069.43025   -122387.66525      1106.61825        33.67725  37317093.71406    -81260.63606       826.21406        35.53006
J07  36502475.76205      1838.38405        78.60905        31.83705  36502501.24406     10760.96206        58.82706        38.22806
C06  36690803.88525     52123.58725      -351.07225        34.25625                                                                
C09  37480284.53925     55725.07925      -381.32725        31.73625                                                                
C13  35821291.53626     73300.07426      -534.45526        36.74226                                                                
C23  21838013.75826     37576.83926      -243.62926        36.55326  21838028.14805     34780.74905      -182.83205        34.29205
C25  23811224.93205    305532.28205     -2536.89605        34.70305  23811246.51705    229092.80405     -1912.03205        31.18205
C32  23452157.50906   -271507.00206      2405.57006        38.79206  23452186.88905   -178130.56505      1815.68105        31.99005
C37  23976823.39107   3836418.55107      2290.66307        43.17107  23976863.86306   -196904.44006      1727.91306        36.23206
C38  36747762.05406   1506931.16806     -1143.28806        38.06806  36747789.93405     86178.41705      -861.13705        35.16105
C39  36824118.89326     48460.73026      -350.66126        36.44126  36824131.18405     36263.85305      -265.43105        30.70105
C41  22143977.44325     22177.87425      -118.24625        33.97425  22144008.02205     25592.48405       -87.74805        34.78105
E03  26065669.91205   -149223.96105      1569.70105        35.21605  26065700.19104   -110471.80904      1173.15904        28.35504
E05  22810058.72506    -47463.40406       511.04006        37.07206  22810084.20705    -34432.45205       382.15005        31.06205
E24  24720340.46405     57168.15605      -684.61705        31.98305  24720363.84805     41611.05205      -511.30105        31.59505
E25  24075746.80706   -218258.56306      1930.84106        38.64606  24075778.58506   -171663.76706      1442.05606        37.91406
> 2024 09 25 07 25 59.9995431  0 25                      
G10  20253042.51026    100647.18226      -785.49826        38.91326  20253066.49406     75174.71106      -585.83006        38.78206
G23  22138106.60806    312836.05506     -3138.21806        38.80506  22138143.78206    298130.82106     -2343.12306        39.49406
G25  20846861.21825    157201.31425     -1233.28025        30.62125  20846886.40105    126161.26205      -923.18805        32.12105
G26  22922820.26206   -297102.26506      3634.41706        39.94406  22922855.03806   -219718.17806      2713.74706        38.51706
G28  21218165.86916     -6873.29216       132.43416        36.47216  21218190.15305      4425.88205        95.48905        33.15705
G31  22519540.34726   -218456.47726      1861.95626        38.35626                                                                
G32  21532064.76226   -129878.55826      1150.94226        39.31626  21532084.84825    -86558.16125       859.13725        29.97325
R12  19296794.80726    142979.19426     -1117.88326        35.78526
J02  37447928.23925     47050.70025      -317.30025        33.74025  37447949.22405     35712.03105      -238.40205        34.45305
J04  37316861.97425   -123492.18225      1104.11125        33.67725  37316882.95905    -82085.42605       824.79105        34.36605
J07  36502457.47525      1761.48425        81.25525        30.17725  36502486.85406     10703.67906        57.58906        38.54706
C06  36690870.13925     52478.46425      -350.96025        32.14925                                                                
C09  37480362.48525     56106.78025      -382.96025        31.81525                                                                
C13  35821387.76926     73836.45726      -535.31826        36.95626                                                                
C23  21838057.52726     37821.50426      -245.41826        37.05026  21838074.31625     34965.85525      -185.22925        31.64625
C25  23811715.09325    308069.40625     -2538.22025        34.15825  23811733.38005    231005.25705     -1913.20505        30.00505
C32  23451698.82706   -273911.44806      2403.24806        39.29306  23451724.60925   -179949.41825      1811.36825        30.37625
C37  23976385.39407   3834129.61207      2289.36007        42.39807  23976424.36725   -198628.12425      1723.79025        34.03825
C38  36747983.00126   1508075.63126     -1145.25026        38.59226  36748010.58205     87041.40805      -862.23105        35.12705
C39  36824183.34825     48812.78525      -351.22725        35.28225  36824198.93805     36529.82705      -267.32905        31.24705
C41  22144000.82725     22295.84925      -115.82625        31.34525  22144030.50705     25682.15605       -90.57605        33.74405
E03  26065371.91906   -150792.35106      1566.98506        36.69906  26065401.59824   -111645.55324      1173.96924        25.89324
E05  22809962.79106    -47973.46706       509.78106        36.24806  22809986.17505    -34813.17905       380.81005        30.34005
E24  24720467.57605     57853.86105      -687.62305        30.82905  24720494.85805     42123.01305      -512.08205        32.05905
E25  24075376.86316   -220187.89416      1929.51516        37.56516  24075410.74006   -173104.57906      1441.23706        37.04506
> 2024 09 25 07 26 00.9995432  0 25                      
G10  20253220.58726    101432.11526      -787.76226        39.32526  20253247.26906     75762.55906      -589.48906        38.97506
G23  22138737.07116    315977.50916     -3142.88016        39.34416  22138772.74706    300476.73706     -2347.47406        39.99606
G25  20847123.83625    158439.46225     -1240.69525        29.89125  20847152.31725    127085.38425      -925.60325        32.46925
G26  22922156.22106   -300733.07806      3629.44206        39.87506  22922193.99506   -222429.51606      2710.14806        39.52606
G28  21218170.96616     -7001.28116       128.60916        36.01716  21218197.34805      4330.06405        95.41805        34.78105
G31  22519221.96706   -220315.23306      1857.53706        40.54806                                                                
G32  21531874.99306   -131028.81006      1149.20206        38.88506  21531894.18005    -87417.26805       859.50605        31.19805
R12  19297024.74825    144100.41125     -1131.94825        35.37625
J02  37448016.07825     47374.11025      -320.11425        34.51025  37448040.96105     35952.76105      -241.94405        34.98005
J04  37316676.40225   -124593.49225      1103.25725        33.59925  37316703.38405    -82909.09005       822.99805        35.02605
J07  36502474.56315      1686.64715        75.04915        32.14015  36502502.74306     10647.73606        54.41206        38.98406
C06  36690969.67025     52832.61625      -354.05625        34.06125                                                                
C09  37480464.11525     56493.13325      -386.63825        34.48725                                                                
C13  35821525.97406     74374.49506      -539.61806        38.81406                                                                
C23  21838136.97226     38068.34926      -245.54326        37.20326  21838152.56225     35151.33125      -185.50725        31.97525
C25  23812230.43625    310608.23025     -2538.67725        34.34525  23812251.72105    232918.55805     -1913.21305        29.58905
C32  23451267.12606   -276315.48406      2404.19706        40.30306  23451292.90805   -181761.07505      1811.34905        33.38105
C37  23975978.87526   3831841.73426      2286.41826        40.13626  23976014.85015   -200351.94015      1722.98915        32.78715
C38  36748232.42806   1509223.25806     -1148.68706        40.62906  36748260.90806     87905.81306      -865.35406        35.96306
C39  36824278.08326     49166.31826      -352.83726        35.78226  36824296.67005     36796.22005      -267.51405        30.56905
C41  22144056.88825     22418.05525      -124.58525        31.83325  22144084.17025     25772.83725       -91.58925        33.10725
E03  26065102.70506   -152360.93906      1568.84306        38.58706  26065132.08524   -112826.58124      1172.06124        29.34024
E05  22809895.33826    -48482.36626       507.87226        36.54826  22809919.32105    -35193.27505       379.71805        30.98005
E24  24720628.86525     58540.22525      -684.59725        30.93525  24720655.24605     42636.45705      -513.95805        32.63705
E25  24075041.09626   -222115.02526      1925.72726        38.99426  24075074.67306   -174543.59206      1437.21306        37.89906
> 2024 09 25 07 26 01.9995432  0 25                      
G10  20253372.28226    102220.47126      -788.75426        39.92626  20253396.56506     76351.25806      -589.65706        38.91206
G23  22139331.26006    319120.43906     -3143.01706        39.86306  22139369.93306    302823.69106     -2346.62606        40.35106
G25  20847360.37325    159677.26225     -1237.62025        34.15625  20847387.35405    128009.87005      -924.98805        35.07805
G26  22921468.19806   -304362.30206      3628.56906        41.14906  22921503.57306   -225139.64706      2709.69706        38.86806
G28  21218147.28226     -7129.56726       125.91626        39.24026  21218172.46505      4234.37905        94.40405        34.42605
G31  22518875.10706   -222173.44106      1856.58706        37.54106                                                                
G32  21531656.44406   -132179.87706      1149.58106        39.29406  21531675.63105    -88276.79605       859.73905        31.17605
R12  19297250.19225    145232.03425     -1131.23525        34.30025
J02  37448077.23616     47696.79916      -325.97116        36.28616  37448102.41806     36193.73806      -240.97706        36.90006
J04  37316467.74725   -125696.19025      1101.99425        34.71325  37316493.82906    -83732.45606       823.51106        36.17206
J07  36502462.57115      1612.53915        71.05515        32.20115  36502488.65306     10592.38006        55.11406        38.09006
C06  36691037.72325     53185.95425      -355.37125        33.72125                                                                
C09  37480538.16325     56879.70725      -389.08625        35.06125                                                                
C13  35821626.10406     74912.95706      -539.47206        37.14706                                                                
C23  21838180.74226     38317.98826      -243.85626        36.05126  21838201.42805     35337.80905      -187.18005        34.52305
C25  23812720.59725    313148.16625     -2542.37725        31.93225  23812739.78304    234831.12304     -1912.79504        27.47504
C32  23450806.94426   -278720.06426      2403.04026        39.29426  23450831.22725   -183571.68125      1812.10125        29.68325
C37  23975536.98126   3829555.55726      2285.10126        41.03926  23975577.75305   -202074.74005      1721.82205        33.96905
C38  36748456.07307   1510371.42807     -1148.39607        42.20407  36748481.55606     88771.12206      -865.26206        36.09906
C39  36824348.23425     49516.73725      -353.10025        35.35725  36824364.72305     37061.97505      -266.71505        32.20805
C41  22144075.77525     22539.13625      -121.54725        34.56025  22144107.85306     25863.99506       -91.95806        37.33406
E03  26064806.51006   -153930.14806      1567.09006        36.56906  26064834.39124   -114004.86824      1171.04524        28.43924
E05  22809799.40425    -48992.19225       505.68025        33.89825  22809823.08805    -35573.95305       379.65305        30.69505
E24  24720760.77325     59228.04725      -686.64325        31.34825  24720785.65605     43149.91005      -513.26005        32.94705
E25  24074674.45006   -224040.94306      1925.45106        39.80506  24074707.12706   -175981.74406      1437.35706        36.83906
> 2024 09 25 07 26 02.9995433  0 25                      
G10  20253552.15826    103009.71526      -787.57526        39.28826  20253577.34006     76940.16606      -588.37506        41.06306
G23  22139958.72606    322262.87006     -3140.68306        40.02606  22139997.99806    305170.38206     -2345.36006        40.27106
G25  20847625.38926    160915.49526     -1237.04826        35.70526  20847653.27005    128934.47205      -923.04405        34.76005
G26  22920807.15507   -307991.89207      3631.81207        41.73807  22920843.13006   -227850.04506      2712.12006        38.99806
G28  21218149.38126     -7257.01026       128.64226        39.60626  21218178.16106      4139.05306        95.35806        35.82006
G31  22518545.93506   -224030.85806      1859.61706        40.12506                                                                
G32  21531463.97806   -133330.93006      1151.23606        38.96706  21531487.06225    -89136.17725       859.09325        31.04325
R12  19297491.22525    146366.22825     -1129.04925        34.61525
J02  37448167.77325     48018.82025      -320.13825        35.34225  37448194.15506     36434.20306      -239.48006        36.34406
J04  37316289.67025   -126799.48525      1101.64125        34.37425  37316313.05406    -84556.30406       824.98406        36.73006
J07  36502479.95915      1537.77615        74.05515        32.32215  36502504.24206     10536.45506        57.22906        39.16106
C06  36691134.55605     53540.03705      -352.53205        34.44805                                                                
C09  37480642.49125     57266.70925      -387.34225        33.45325                                                                
C13  35821756.21426     75452.04226      -544.85926        36.72726                                                                
C23  21838260.18726     38565.21726      -245.89826        36.07526  21838278.47405     35524.17705      -185.34805        35.06805
C25  23813235.94025    315690.83525     -2538.11825        35.04825  23813255.12705    236743.72405     -1911.68205        30.01305
C32  23450374.34406   -281124.40306      2405.02806        40.31306  23450399.82624   -185390.42024      1810.48324        29.48324
C37  23975130.46327   3827269.63927      2287.44627        42.27127  23975167.33725   -203797.41825      1723.46325        34.08725
C38  36748703.70206   1511519.23106     -1146.08706        41.18806  36748730.68305     89636.02305      -862.95305        35.37405
C39  36824445.96726     49869.69026      -351.80526        36.01526  36824462.45505     37327.75205      -265.55705        32.26605
C41  22144130.63725     22662.34725      -122.10925        35.13325  22144160.91606     25955.16206       -90.24406        37.38706
E03  26064536.09706   -155499.13906      1569.71606        36.46006  26064567.57525   -115176.65525      1171.72125        29.73725
E05  22809732.85105    -49501.99005       510.91905        34.90205  22809756.53405    -35954.76405       381.42505        33.47905
E24  24720923.56105     59915.64905      -686.19305        33.01105  24720946.64505     43663.56105      -512.37605        33.23205
E25  24074338.68206   -225967.25406      1928.55706        40.33206  24074371.36006   -177420.15906      1439.49906        39.02306
> 2024 09 25 07 26 03.9995433  0 25                      
G10  20253699.95526    103796.05226      -783.75226        41.03026  20253726.33706     77525.74006      -582.40706        39.88106
G23  22140555.31326    325400.04726     -3132.81526        37.41826  22140593.98606    307513.33906     -2339.64306        37.78806
G25  20847866.42225    162149.29525     -1233.11925        34.75825  20847888.30705    129855.81605      -918.93105        34.28205
G26  22920115.53407   -311626.29907      3637.96407        42.14007  22920151.50906   -230564.06406      2716.54106        39.00606
G28  21218126.89626     -7389.06926       135.80426        38.62826  21218152.07905      4040.28905       101.23805        35.08905
G31  22518187.38306   -225892.58506      1863.23006        39.44706                                                                
G32  21531245.12926   -134486.28426      1154.26626        37.69126  21531266.71425    -89998.38425       863.92425        30.03225
R12  19297704.97725    147493.06225     -1121.45325        34.20025
J02  37448227.13225     48335.76625      -312.54425        34.82725  37448254.71306     36670.77406      -233.09006        36.89506
J04  37316079.51625   -127906.90525      1109.07625        34.46025  37316102.60006    -85383.72806       830.10306        37.41906
J07  36502461.07225      1456.82625        81.85825        30.96325  36502488.95306     10476.67006        63.84806        38.92906
C06  36691201.41025     53886.52825      -349.07625        33.92925                                                                
C09  37480715.94025     57648.06525      -381.08325        33.08425                                                                
C13  35821865.33925     75992.42625      -535.35725        35.50025                                                                
C23  21838308.15426     38809.07626      -244.50226        35.55826  21838324.94205     35707.29405      -180.23905        34.94805
C25  23813722.80326    318224.29926     -2531.25226        36.60526  23813743.18905    238652.92405     -1906.90005        31.65905
C32  23449914.76206   -283532.77706      2410.87506        38.80506  23449937.54604   -187206.19104      1817.77004        28.84904
C37  23974688.26927   3824979.76527      2293.81727        41.85827  23974727.84125   -205524.50725      1728.66025        33.00025
C38  36748921.35106   1512661.96406     -1138.57306        40.23306  36748950.73106     90497.26706      -857.88306        35.94806
C39  36824511.62126     50217.35826      -347.32226        35.61726  36824530.50805     37590.13605      -259.86605        32.33205
C41  22144151.92325     22783.98325      -113.87125        34.82025  22144182.20206     26042.85106       -84.63306        37.47706
E03  26064234.50606   -157072.37406      1574.91106        35.55506  26064267.48325   -116351.67025      1176.44325        29.67025
E05  22809635.11806    -50016.39306       517.21706        36.46106  22809658.80205    -36338.94305       387.18705        34.12305
E24  24721053.97005     60598.78305      -678.51805        32.93005  24721077.35405     44173.57505      -506.96705        32.72605
E25  24073972.93526   -227898.18026      1933.96126        38.21726  24074003.51406   -178862.20106      1445.46906        38.44706
> 2024 09 25 07 26 04.9995434  0 25                      
G10  20253878.63226    104579.59526      -780.78426        39.10426  20253905.01306     78110.56706      -584.18506        39.48506
G23  22141183.67726    328535.64926     -3134.12626        35.73126  22141222.05106    309854.97606     -2341.69306        36.59806
G25  20848131.13915    163382.07315     -1229.07015        34.06715  20848152.72405    130776.47605      -919.95105        34.90405
G26  22919449.69507   -315262.64607      3635.66807        41.91907  22919488.36806   -233279.54306      2714.45606        38.04106
G28  21218128.39526     -7522.45226       133.66326        39.43526  21218157.47505      3941.92805        95.07805        34.85505
G31  22517865.10606   -227756.55106      1864.20106        37.05606                                                                
G32  21531051.76326   -135643.09026      1161.95026        38.65026  21531076.64625    -90861.93925       864.16825        30.30025
R12  19297937.31625    148617.32225     -1124.42525        34.61225
J02  37448312.87225     48641.69825      -310.69125        34.16225  37448344.95006     36906.15306      -234.80706        37.38706
J04  37315895.74325   -129017.06125      1113.66525        34.36525  37315922.12506    -86212.62306       828.83606        37.44006
J07  36502472.76425      1372.82625        83.74525        30.76625  36502502.74306     10415.61706        61.50006        37.71206
C06  36691296.14425     54234.03625      -344.60425        33.07025                                                                
C09  37480819.06925     58027.90325      -377.19425        32.34025                                                                
C13  35821996.94826     76527.10426      -528.55326        37.20526                                                                
C23  21838386.40026     39050.68626      -241.55126        36.31926  21838400.79005     35889.64505      -181.84905        34.15305
C25  23814238.74626    320756.37426     -2532.25426        38.55326  23814260.03105    240561.23605     -1908.22105        31.77805
C32  23449479.16306   -285942.47106      2408.76306        39.39906  23449506.14505   -189022.11805      1816.63105        30.98905
C37  23974279.65207   3822687.67907      2291.46207        43.50807  23974317.42505   -207251.63705      1726.61605        34.29405
C38  36749172.87706   1513803.00706     -1140.98706        39.29306  36749199.85805     91357.22305      -859.98705        35.28705
C39  36824606.65525     50564.37725      -343.06525        34.97325  36824626.44205     37851.40405      -261.27705        31.78805
C41  22144203.18725     22898.88625      -110.99225        32.92725  22144234.66506     26129.71406       -86.59206        35.81606
E03  26063965.59205   -158647.31205      1573.98005        35.29305  26063997.97005   -117527.75305      1175.91605        30.62405
E05  22809563.16806    -50532.40606       516.71406        35.73006  22809589.85005    -36724.15105       385.41705        33.14605
E24  24721214.06025     61280.81125      -683.11125        31.37425  24721236.84405     44682.98505      -509.09605        32.42905
E25  24073631.47216   -229830.71216      1931.82616        38.00316  24073666.24806   -180305.28606      1442.98906        37.61206
> 2024 09 25 07 26 05.9995434  0 25                      
G10  20254030.62616    105364.28516      -787.91016        39.85416  20254054.61006     78696.08606      -584.76106        39.68706
G23  22141778.76626    331672.27726     -3136.47626        36.66926  22141818.63806    312196.95806     -2343.17606        36.70006
G25  20848364.67725    164615.93125     -1233.41225        32.23125  20848387.76105    131698.27305      -921.00905        34.24305
G26  22918761.37206   -318898.66806      3635.20906        39.84206  22918797.04706   -235994.67106      2714.90806        38.03106
G28  21218105.31126     -7654.77126       132.74726        37.37926  21218132.29306      3842.88306        99.07606        35.67706
G31  22517509.25306   -229618.85906      1861.40406        39.15506                                                                
G32  21530839.51026   -136798.61726      1156.63326        39.18226  21530856.89805    -91724.72505       862.92405        33.34505
R12  19298155.26525    149742.07625     -1126.39125        34.72025
J02  37448372.53125     48948.19925      -312.90425        33.43025  37448404.00906     37141.96506      -235.28806        37.83606
J04  37315684.08915   -130126.36315      1110.34715        34.23215  37315710.77106    -87041.06406       828.31106        37.66906
J07  36502455.97625      1292.22025        80.86825        29.68825  36502487.45406     10354.65406        61.29406        38.17106
C06  36691369.59325     54582.22125      -348.64525        35.43025                                                                
C09  37480890.71925     58408.92825      -381.20825        34.16925                                                                
C13  35822100.67626     77059.98226      -532.51826        37.34926                                                                
C23  21838431.96826     39293.56226      -242.97626        35.50326  21838446.95805     36073.12105      -185.54305        32.89605
C25  23814726.20826    323290.16526     -2534.95226        36.94926  23814745.39505    242470.43005     -1908.78405        31.27805
C32  23449020.78106   -288351.18006      2410.47706        38.14606  23449042.36605   -190837.13205      1815.07305        33.66605
C37  23973838.05707   3820396.22607      2290.66507        43.94207  23973877.93006   -208978.66706      1726.91306        36.18606
C38  36749393.52406   1514944.23806     -1141.54506        39.48906  36749419.30605     92217.16605      -859.85805        34.98505
C39  36824670.21126     50912.51426      -346.20826        35.55926  36824692.99605     38113.21905      -261.10805        31.66805
C41  22144227.77025     23014.73525      -116.56225        33.25925  22144257.74906     26217.19406       -86.88506        35.70606
E03  26063666.99906   -160221.15706      1573.07506        36.62806  26063698.47705   -118703.18705      1175.20505        33.08105
E05  22809465.73505    -51047.27805       515.75805        35.10905  22809491.81705    -37108.63605       385.37705        34.48305
E24  24721346.26805     61964.17305      -683.07405        31.03605  24721366.95405     45193.31405      -510.11105        31.16205
E25  24073266.32506   -231762.80506      1931.76206        38.14406  24073298.40206   -181748.16806      1443.13706        37.32806
> 2024 09 25 07 26 06.9995435  0 25                      
G10  20254209.00306    106150.63806      -786.76606        40.59106  20254234.48506     79283.13106      -588.40306        40.23506
G23  22142408.62906    334810.47006     -3140.57306        39.92406  22142445.80406    314540.24606     -2344.93306        38.54206
G25  20848629.09425    165855.03825     -1239.47025        32.32825  20848653.07805    132621.64205      -924.13505        33.24405
G26  22918103.62706   -322533.79906      3633.39106        39.37906  22918134.20606   -238709.20706      2713.09906        37.14606
G28  21218111.30706     -7785.91506       130.79006        36.28806  21218136.79005      3744.47205        98.29505        33.60605
G31  22517187.87507   -231480.75107      1862.74707        44.15007                                                                
G32  21530644.64506   -137953.69806      1155.83806        38.35706  21530667.42905    -92587.18305       862.24305        32.90505
R12  19298394.49925    150870.07425     -1127.09525        34.44125
J02  37448466.36626     49265.67126      -318.06926        35.70126  37448494.24706     37379.02006      -237.60406        38.13206
J04  37315507.21205   -131234.40105      1107.10205        33.75905  37315528.79706    -87868.52406       827.26006        35.71706
J07  36502469.76615      1212.54615        78.32715        29.83715  36502503.04306     10294.78706        59.11006        39.14506
C06  36691465.22726     54930.77926      -348.05726        36.63326                                                                
C09  37480993.54825     58789.52825      -381.50125        34.39225                                                                
C13  35822226.88826     77593.82526      -535.79926        37.20126                                                                
C23  21838507.81625     39537.07325      -245.10625        35.15525  21838524.00405     36258.50305      -184.46605        32.13905
C25  23815245.14925    325824.78925     -2540.25325        32.77625  23815262.23724    244380.17924     -1912.57124        27.69324
C32  23448585.78226   -290758.68426      2404.55626        36.26726  23448609.16605   -192652.03305      1815.46905        34.84105
C37  23973429.14027   3818099.59727      2291.14227        42.04627  23973467.51405   -210704.75605      1723.61605        34.64605
C38  36749641.15306   1516086.84106     -1143.66206        40.42706  36749668.13405     93078.47705      -863.35805        34.70905
C39  36824771.84126     51260.51426      -348.89626        36.90526  36824788.92905     38375.48805      -261.95405        29.92605
C41  22144281.13325     23133.00725      -121.49725        33.60925  22144309.61305     26306.08605       -90.08805        34.14905
E03  26063400.78325   -161795.34725      1573.34425        33.72025  26063428.66406   -119878.79906      1176.61206        35.59306
E05  22809397.98225    -51561.26325       513.15525        34.07725  22809424.06405    -37492.50605       384.12205        33.22205
E24  24721503.95924     62649.50924      -681.69424        29.40024  24721527.04305     45704.86405      -512.75305        29.97905
E25  24072927.55916   -233693.22916      1929.05516        38.62516  24072960.83606   -183189.61906      1440.12606        38.29306
> 2024 09 25 07 26 07.9995435  0 25                      
G10  20254361.89726    106937.17826      -785.22126        40.50126  20254383.78206     79870.69706      -587.47306        39.65706
G23  22143005.21606    337949.18606     -3138.45406        39.79706  22143042.69106    316884.16406     -2343.38406        39.67806
G25  20848869.82824    167099.65024     -1244.83824        29.32424  20848889.91424    133543.43324      -926.50824        29.15324
G26  22917408.40806   -326167.89006      3633.57106        37.10706  22917443.78406   -241423.02406      2713.53306        36.72106
G28  21218084.92526     -7917.95026       129.24326        35.51426  21218112.50605      3646.43605        98.46805        35.39905
G31  22516834.72007   -233342.16307      1861.22907        41.91107                                                                
G32  21530421.29926   -139108.91826      1155.75526        37.22026  21530447.08205    -93449.69205       864.25305        32.38105
R12  19298606.45325    151999.72925     -1130.12925        33.61525
J02  37448525.12626     49582.66226      -320.92326        35.64326  37448555.40506     37616.20706      -236.29506        38.39406
J04  37315292.86025   -132342.31325      1105.83225        34.44625  37315318.64206    -88695.86906       828.20106        37.38906
J07  36502462.87115      1133.29115        79.92215        30.64015  36502487.45406     10235.25806        59.62106        38.84706
C06  36691531.48126     55279.63826      -347.52926        36.39226                                                                
C09  37481067.59726     59170.96126      -380.78326        35.56426                                                                
C13  35822334.81426     78128.34426      -534.63726        37.57226                                                                
C23  21838553.38425     39782.03325      -245.63625        35.09125  21838570.17205     36443.14905      -185.15405        32.15205
C25  23815730.81325    328363.45425     -2539.43625        31.11825  23815749.99924    246292.95724     -1909.01124        25.79024
C32  23448124.40125   -293167.80725      2407.65625        35.20325  23448146.88605   -194466.81105      1816.69405        35.34405
C37  23972991.14427   3815809.48627      2289.78627        43.01427  23973028.01806   -212430.50706      1724.86906        35.52506
C38  36749857.90306   1517230.19306     -1143.82306        40.01006  36749887.88205     93939.87505      -861.82405        35.16005
C39  36824833.59826     51608.75026      -345.52726        36.63626  36824855.18305     38637.69505      -261.30005        29.54705
C41  22144301.51925     23254.97625      -121.23025        34.09925  22144331.79805     26395.23505       -88.61905        34.71905
E03  26063101.89025   -163374.18825      1572.80325        32.22525  26063128.87105   -121054.30305      1176.96905        35.14205
E05  22809301.14905    -52075.33005       515.27405        34.02705  22809325.13305    -37876.44805       384.98405        33.00005
E24  24721632.87024     63334.41724      -684.81324        28.78224  24721657.15304     46216.61004      -509.95004        27.58004
E25  24072560.01326   -235622.70626      1929.83726        39.05726  24072593.59006   -184630.48806      1440.15806        38.01006
> 2024 09 25 07 26 08.9995435  0 25                      
G10  20254538.77526    107719.29226      -779.48626        41.20126  20254562.15806     80455.08606      -585.03406        39.35006
G23  22143628.48526    341081.32626     -3129.27926        39.54026  22143669.85606    319224.37906     -2340.81806        41.24406
G25  20849132.14624    168340.24424     -1234.55524        28.38424  20849154.93024    134467.65824      -920.05524        28.80224
G26  22916745.26726   -329806.59726      3641.48426        39.58626  22916781.24226   -244140.24826      2718.98426        37.68226
G28  21218085.82526     -8053.36626       135.80226        35.59126  21218116.40405      3545.13805       101.59505        35.22605
G31  22516511.24406   -235207.44906      1865.44906        39.30606                                                                
G32  21530235.72826   -140268.81826      1162.25126        37.45526  21530256.11425    -94316.04025       868.64425        30.64125
R12  19298836.99325    153120.50825     -1126.10125        31.16325
J02  37448613.26525     49894.84725      -312.80725        34.79525  37448645.64206     37848.62906      -229.71006        37.06106
J04  37315114.48425   -133457.91425      1110.95825        31.80425  37315137.26806    -89526.99406       831.60406        37.24806
J07  36502470.96525      1047.60825        86.77325        32.23425  36502500.94406     10171.59206        62.92606        38.44006
C06  36691627.71525     55623.59825      -345.01925        35.29725                                                                
C09  37481171.92525     59547.50425      -373.25525        35.12925                                                                
C13  35822464.32426     78658.29726      -528.93226        37.67626                                                                
C23  21838632.23025     40022.41225      -240.65025        34.61025  21838646.62005     36624.20705      -180.81105        33.97005
C25  23816244.35725    330896.71525     -2528.23525        32.62625  23816266.84224    248204.31124     -1905.82524        25.12324
C32  23447691.20125   -295580.63925      2413.59225        34.09725  23447713.98505   -196282.88505      1813.87205        33.70705
C37  23972577.13007   3813515.55107      2294.63207        43.94507  23972617.00306   -214159.24606      1728.93506        36.19006
C38  36750107.03026   1518366.10226     -1132.66326        40.25326  36750136.11006     94797.42406      -855.92606        35.75306
C39  36824932.23026     51951.80426      -341.32326        35.94826  36824951.11705     38896.20805      -258.68305        30.60305
C41  22144353.08325     23367.52925      -112.63125        33.83425  22144384.56205     26480.60805       -84.40505        34.10105
E03  26062828.77925   -164949.73325      1567.09525        32.51825  26062859.05805   -122232.43305      1178.86105        31.97805
E05  22809234.89525    -52597.43925       526.50025        30.32625  22809256.78004    -38266.17904       393.98204        29.08904
E24  24721791.16024     64014.86424      -678.66524        29.38824  24721817.84224     46724.51624      -506.22624        26.05824
E25  24072224.24626   -237557.29626      1938.45426        38.78326  24072255.12526   -186075.07626      1445.32026        38.22626
> 2024 09 25 07 26 09.9995435  0 25                      
G10  20254687.77126    108499.04026      -779.90226        38.13326  20254709.95615     81039.82915      -579.02815        34.83415
G23  22144228.37026    344208.09326     -3129.65426        38.09526  22144264.64506    321563.03306     -2337.01706        38.60106
G25  20849362.08725    169572.15425     -1229.67425        34.72125  20849385.47125    135395.61425      -921.68125        32.02025
G26  22916052.44726   -333448.47326      3644.07326        41.24526  22916086.62306   -246859.63506      2720.48606        35.73106
G28  21218063.64025     -8192.54825       141.31325        35.24225  21218090.62205      3441.66305       104.99205        34.87605
G31  22516156.58926   -237077.00126      1872.53526        36.37626                                                                
G32  21530017.77926   -141429.14326      1160.79826        38.72526  21530036.36625    -95187.74325       867.38825        32.07225
R12  19299043.85025    154244.39825     -1120.96325        32.41225
J02  37448672.62325     50207.29025      -308.73025        35.32025  37448704.40106     38079.66506      -230.79406        36.58906
J04  37314901.03225   -134572.54625      1115.26625        32.41625  37314925.61526    -90359.25926       833.87426        36.65526
J07  36502450.28024       959.34224        91.09624        29.41924  36502485.65526     10105.53026        65.70326        35.66026
C06  36691690.07225     55964.44125      -337.04725        33.78225                                                                
C09  37481239.37825     59925.03425      -370.70025        34.05525                                                                
C13  35822563.25625     79184.22225      -524.44625        34.49725                                                                
C23  21838671.80225     40263.05025      -234.00125        32.69925  21838693.38705     36803.30205      -177.96805        33.28405
C25  23816729.72126    333423.82226     -2526.63326        38.25626  23816748.90825    250108.38125     -1904.64725        30.76725
C32  23447223.52526   -297994.82426      2413.71326        35.96926  23447250.80625   -198096.57325      1822.50725        33.10725
C37  23972134.93606   3811218.44306      2300.51406        40.90106  23972177.20706   -215890.56406      1734.30206        40.51906
C38  36750328.87726   1519490.27326     -1134.19926        37.23526  36750354.35925     95653.63325      -855.99925        33.78725
C39  36824997.28525     52291.94525      -338.18025        34.67025  36825017.07125     39153.56825      -256.97025        30.14425
C41  22144373.16926     23478.40226      -110.28426        36.40726  22144406.14705     26564.77405       -84.20105        33.68705
E03  26062533.18425   -166516.89225      1582.08625        33.55925  26062556.86725   -123411.63925      1183.51125        31.94325
E05  22809129.96826    -53123.06326       518.47926        37.50726  22809156.35025    -38658.38425       386.09225        33.24225
E24  24721919.77125     64693.31525      -679.96525        35.08125  24721945.85305     47231.14905      -504.93805        32.01905
E25  24071855.20126   -239491.61126      1931.12726        35.89826  24071888.17906   -187522.41906      1447.33906        35.51806
> 2024 09 25 07 26 10.9995437  0 25                      
G10  20254865.84826    109276.30826      -774.79926        40.63126  20254888.93206     81620.16306      -578.49006        36.96006
G23  22144853.13726    347336.61326     -3125.75626        40.20126  22144890.61106    323899.11906     -2334.55006        38.96406
G25  20849623.80626    170804.32026     -1232.97426        40.61826  20849649.88826    136317.57826      -919.05026        36.95626
G26  22915383.61026   -337093.51626      3647.55226        37.50526  22915423.78205   -249582.16405      2725.65705        32.01405
G28  21218066.93826     -8334.81026       144.41126        40.02426  21218093.02006      3335.41606       107.71106        36.12006
G31  22515828.31626   -238948.53126      1872.19426        36.75926                                                                
G32  21529823.51326   -142594.39226      1168.47826        39.47526  21529844.19925    -96049.83225       871.45225        32.73525
R12  19299285.78225    155363.63725     -1116.50525        32.11125
J02  37448758.96426     50513.52626      -303.17326        38.10926  37448792.24106     38308.54706      -227.73206        39.02006
J04  37314716.06025   -135691.92425      1121.29925        34.56425  37314741.54206    -91195.10406       837.44606        37.67106
J07  36502467.66725       867.99925        93.79825        32.01425  36502497.04706     10036.82606        70.16506        38.00106
C06  36691786.30525     56301.37725      -335.26925        32.76825                                                                
C09  37481342.20725     60294.75625      -366.51325        34.85325                                                                
C13  35822693.36525     79707.11325      -520.22425        32.56425                                                                
C23  21838749.14925     40499.73625      -230.92025        33.33825  21838768.93505     36979.98905      -175.31505        34.67805
C25  23817245.66426    335947.50126     -2530.52226        40.30226  23817264.25105    252010.04405     -1900.85305        31.79405
C32  23446790.62526   -300412.69426      2421.04726        38.40026  23446816.40725   -199924.43125      1823.15625        33.39425
C37  23971725.42026   3808917.15226      2304.12526        36.91926  23971766.79126   -217622.86926      1734.55126        36.53526
C38  36750580.40326   1520621.86626     -1128.65026        36.13226  36750602.28705     96506.79805      -851.22105        32.33505
C39  36825094.71725     52631.35125      -335.63025        33.94025  36825112.10525     39410.67725      -251.93625        31.36725
C41  22144429.83026     23589.00126      -107.61926        36.04226  22144457.71106     26646.26506       -80.71706        37.58906
E03  26062256.77526   -168093.81226      1588.73126        37.20426  26062285.55505   -124596.04705      1185.11105        30.36105
E05  22809065.81226    -53631.10126       524.13426        37.01826  22809088.89625    -39049.20425       393.53925        35.35625
E24  24722080.76026     65365.93326      -678.89126        38.21826  24722104.44305     47735.71005      -504.74805        34.65805
E25  24071511.33906   -241432.35106      1942.74606        36.72706  24071547.91405   -188971.44605      1451.71805        33.66105
> 2024 09 25 07 26 11.9995438  0 25                      
G10  20255042.42626    110053.71026      -777.74626        39.79826  20255066.70926     82200.70626      -580.83426        38.81926
G23  22145478.20426    350464.48126     -3128.51026        39.83626  22145515.67906    326234.86706     -2336.38006        39.80606
G25  20849890.02126    172034.82226     -1232.26426        38.45326  20849914.00526    137242.03526      -918.57426        36.69526
G26  22914726.46525   -340738.81125      3643.94825        33.65625  22914761.24105   -252305.89705      2722.25605        31.53805
G28  21218069.63626     -8476.98926       142.02726        37.93226  21218096.01805      3229.21305       106.10905        35.24505
G31  22515498.24526   -240821.68926      1871.75926        36.74526                                                                
G32  21529631.94616   -143761.00916      1167.77616        38.07416  21529652.33225    -96920.69325       869.66425        32.20225
R12  19299530.71325    156482.15225     -1117.20225        32.60525
J02  37448851.89926     50818.96426      -304.58526        37.54426  37448880.38006     38536.63906      -228.61406        38.50906
J04  37314535.58525   -136812.05525      1120.07225        34.34925  37314558.36906    -92031.56006       836.51906        37.35306
J07  36502481.75825       775.83025        92.05525        32.21625  36502509.63806      9967.95906        69.06006        38.17906
C06  36691880.74025     56638.94225      -337.10525        33.97725                                                                
C09  37481442.33725     60664.46325      -369.38325        34.95025                                                                
C13  35822826.77325     80229.91825      -522.30625        34.40525                                                                
C23  21838825.29625     40735.36325      -234.07925        34.31325  21838843.28305     37156.64005      -176.94005        34.74105
C25  23817758.90926    338470.11626     -2522.28726        37.77126  23817778.99505    253911.46205     -1903.13905        29.85505
C32  23446358.62426   -302833.30526      2420.42926        36.50626  23446380.80825   -201747.28825      1821.85825        34.30725
C37  23971315.00425   3806606.99725      2303.72525        32.16525  23971353.37725   -219366.62325      1736.58025        31.55625
C38  36750823.83426   1521755.52926     -1129.81826        38.94926  36750850.21606     97359.83606      -853.95306        37.05206
C39  36825189.75225     52966.81925      -333.62025        34.34425  36825206.54025     39663.92425      -253.68525        31.32325
C41  22144473.30025     23692.22525      -103.74825        34.85625  22144506.87706     26727.37606       -81.02706        36.64206
E03  26061982.16526   -169680.08426      1585.35426        36.24926  26062012.44405   -125780.59405      1183.72705        31.52405
E05  22808994.16225    -54154.53125       528.51925        33.11925  22809018.44505    -39442.05705       392.45605        33.66905
E24  24722236.35226     66026.09626      -680.65326        36.58726  24722262.43405     48239.51405      -504.68305        33.84205
E25  24071174.07316   -243373.00216      1942.81716        39.00516  24071207.94905   -190420.48905      1448.74405        34.40105
> 2024 09 25 07 26 12.9995438  0 25                      
G10  20255189.32406    110834.68406      -778.91106        40.11806  20255215.10606     82783.51606      -581.67206        38.47206
G23  22146071.49406    353595.32406     -3129.01606        40.22806  22146112.26606    328572.49906     -2337.02906        40.19606
G25  20850120.86226    173267.94726     -1226.54426        35.89626  20850147.54326    138160.71026      -918.88326        35.55426
G26  22914031.24626   -344379.88226      3643.19126        35.77926  22914067.52125   -255026.44625      2720.55425        31.14525
G28  21218040.55606     -8616.38006       139.86806        36.80106  21218069.03605      3125.13305       104.46705        35.11205
G31  22515147.78826   -242697.53226      1868.27626        36.48326                                                                
G32  21529412.19816   -144924.95116      1158.50416        37.00916  21529430.48505    -97790.11505       869.88505        30.90805
R12  19299736.97015    157604.43315     -1122.31215        32.95115
J02  37448911.55806     51127.28906      -306.27606        36.39906  37448938.24006     38766.34306      -228.68906        37.80806
J04  37314321.83305   -137929.88905      1118.60105        34.24505  37314345.81606    -92866.30106       836.02006        37.38106
J07  36502465.26905       685.96005        90.85505        32.43805  36502492.55006      9900.79506        68.44806        38.79706
C06  36691947.59325     56977.92925      -339.09025        33.40725                                                                
C09  37481516.98625     61037.22125      -374.31125        33.86825                                                                
C13  35822928.70325     80756.33925      -527.04525        33.86725                                                                
C23  21838873.26325     40972.51125      -239.04625        33.85725  21838889.15205     37335.43705      -178.43005        35.27505
C25  23818243.07326    340994.84126     -2523.56926        35.86526  23818263.45905    255813.96805     -1902.85505        30.33605
C32  23445888.84926   -305250.07426      2414.38926        37.50926  23445916.73005   -203568.61805      1820.45405        33.21705
C37  23970871.91125   3804306.59125      2295.84125        31.84325  23970912.98205   -221097.96105      1732.08205        32.56005
C38  36751040.28426   1522889.87226     -1132.54926        39.51926  36751067.86506     98214.42906      -853.78806        37.94106
C39  36825254.80725     53304.45425      -337.04525        33.90425  36825270.09605     39918.63105      -255.09405        30.65005
C41  22144495.48525     23799.17325      -111.00825        34.07525  22144528.46206     26810.73806       -83.22306        36.01606
E03  26061679.97405   -171264.14405      1584.11305        34.45305  26061710.55305   -126963.38605      1181.86305        30.23805
E05  22808895.23025    -54678.73425       528.34925        33.15125  22808918.31405    -39833.25805       391.07905        31.99605
E24  24722365.56225     66718.38525      -680.42925        35.49525  24722390.74505     48745.24305      -505.51805        33.33805
E25  24070807.72706   -245310.84706      1939.59406        38.29206  24070838.90505   -191867.57505      1447.92805        35.03005
> 2024 09 25 07 26 13.9995438  0 25                      
G10  20255370.69906    111615.53206      -779.84406        39.96906  20255393.78306     83366.64606      -582.37406        38.11006
G23  22146698.06006    356725.61506     -3129.72106        39.80106  22146736.73306    330909.95606     -2336.98806        40.28006
G25  20850385.57826    174498.67726     -1231.95226        35.90926  20850411.66006    139079.63506      -919.81406        35.60306
G26  22913369.00526   -348023.01626      3643.64526        41.11226  22913404.68006   -257746.93706      2721.37006        37.21006
G28  21218048.65106     -8755.50206       139.02506        37.49406  21218073.23406      3021.31906       103.88406        35.79406
G31  22514821.01426   -244565.90026      1867.90126        36.01026                                                                
G32  21529215.83426   -146088.95426      1163.35626        39.59126  21529238.31805    -98659.14305       867.72405        30.07205
R12  19299983.99925    158727.32325     -1123.22225        34.47425
J02  37448998.49805     51434.84105      -307.88405        35.32005  37449027.87706     38996.01806      -229.87906        39.14506
J04  37314138.36005   -139047.71605      1116.76605        34.30505  37314162.94306    -93701.13906       834.79506        38.04406
J07  36502478.76005       595.62705        90.66905        31.75205  36502504.84206      9833.52306        67.26506        39.39306
C06  36692039.03025     57316.80125      -341.06925        33.02825                                                                
C09  37481619.21525     61409.38225      -373.25525        32.08225                                                                
C13  35823059.11225     81282.57925      -526.73225        34.17325                                                                
C23  21838948.81025     41210.71825      -240.66225        33.48625  21838964.40006     37514.46406      -179.25806        36.43706
C25  23818757.51726    343520.07126     -2527.15726        35.56026  23818779.40205    257717.17505     -1903.96805        29.87905
C32  23445455.04926   -307666.38626      2415.57626        39.64926  23445482.63025   -205389.73025      1821.32525        30.75625
C37  23970466.29125   3802008.11225      2296.29625        30.07625  23970499.86805   -222829.44105      1732.37805        34.52805
C38  36751287.91326   1524023.71226     -1132.45426        39.44626  36751315.19406     99068.94406      -853.62506        38.16206
C39  36825348.94126     53642.71326      -339.29426        35.59726  36825366.03005     40173.34905      -255.54205        33.01705
C41  22144547.34925     23910.03525      -115.57125        32.10725  22144580.32606     26894.11606       -83.76406        35.93206
E03  26061418.25605   -172847.95305      1583.68705        35.42205  26061440.44005   -128146.44705      1179.15405        30.85805
E05  22808823.28005    -55202.36405       522.19605        33.34505  22808848.76305    -40224.33105       390.70705        34.02205
E24  24722525.05225     67399.15625      -680.16425        34.19325  24722550.83405     49251.34505      -506.63605        33.73605
E25  24070468.36206   -247248.75606      1938.18706        39.13606  24070500.14005   -193314.70405      1447.06705        35.09305
> 2024 09 25 07 26 14.9995438  0 25                      
G10  20255521.19406    112397.47006      -782.05506        41.15106  20255542.78006     83950.51706      -584.11406        38.89306
G23  22147295.54606    359856.75806     -3131.22806        40.45106  22147333.32006    333248.15606     -2338.18006        40.58906
G25  20850620.61625    175728.74225     -1225.76725        34.63225  20850645.49805    139998.11605      -914.79405        33.98505
G26  22912669.88926   -351665.57326      3643.31826        40.39426  22912710.66006   -260466.96106      2720.54706        39.70106
G28  21218020.47006     -8893.96406       138.18006        37.17106  21218046.25206      2917.84406       103.20006        35.91506
G31  22514465.76025   -246440.84625      1870.28825        35.07325                                                                
G32  21528995.48726   -147252.41026      1162.87426        39.87326  21529016.77205    -99528.06505       868.72605        31.09205
R12  19300197.15225    159853.55325     -1126.57925        33.42425
J02  37449059.05625     51742.43625      -306.69325        34.94325  37449083.93906     39226.06306      -230.64806        36.99106
J04  37313922.50915   -140165.95415      1116.35915        32.35715  37313950.68906    -94535.74106       834.22906        37.73106
J07  36502458.97315       505.94615        89.78215        31.49415  36502487.15406      9766.31706        67.07206        37.48606
C06  36692108.28225     57656.86025      -339.72025        32.89325                                                                
C09  37481689.66625     61781.94425      -374.82125        32.06225                                                                
C13  35823160.14226     81809.07526      -528.17526        36.00726                                                                
C23  21838992.58025     41449.92325      -238.89325        33.90525  21839009.96806     37694.07506      -180.08006        35.96106
C25  23819242.88126    346045.78426     -2526.08526        35.64426  23819263.86704    259620.70604     -1904.46104        28.02104
C32  23444994.86806   -310081.83006      2416.27106        38.08606  23445018.55105   -207210.19205      1819.38805        33.33405
C37  23970020.80026   3799715.84326      2297.02526        39.97426  23970059.17306   -224560.37306      1731.23606        35.82206
C38  36751509.16006   1525158.87006     -1135.04606        40.19406  36751533.44306     99923.92906      -854.64406        37.92506
C39  36825413.39725     53980.96225      -339.14925        34.74725  36825431.38405     40428.30305      -256.04505        31.35805
C41  22144567.43525     24021.55725      -112.55625        34.09625  22144601.01205     26978.18605       -85.41905        34.26205
E03  26061110.66906   -174431.46006      1583.17506        37.02506  26061138.54904   -129328.76504      1182.18804        28.91804
E05  22808725.84805    -55725.68905       521.60505        35.06005  22808748.93205    -40615.05105       389.49105        34.12805
E24  24722652.46425     68062.76925      -678.95225        34.54425  24722679.14505     49758.26105      -507.93405        33.83405
E25  24070096.61916   -249185.91916      1936.59716        38.00516  24070132.29406   -194761.36706      1446.46606        36.57406
> 2024 09 25 07 26 15.9995440  0 25                      
G10  20255694.77406    113180.05006      -785.66206        40.35406  20255722.05506     84534.93306      -586.86406        39.52006
G23  22147923.31206    362987.94006     -3132.36306        40.36306  22147958.98706    335586.43106     -2339.52206        40.08906
G25  20850889.23025    176959.06525     -1232.58625        31.99325  20850909.91525    140919.56225      -920.99625        32.68825
G26  22912014.24326   -355307.95226      3641.10226        40.76026  22912048.41906   -263186.99306      2719.03706        38.93306
G28  21218027.06606     -9032.20806       136.62606        38.11306  21218051.04906      2814.65506       101.66506        36.92506
G31  22514137.78726   -248315.92526      1867.40626        36.94026                                                                
G32  21528802.12026   -148416.19326      1163.59826        37.72626  21528827.30305   -100396.79605       867.84005        33.06905
R12  19300431.28925    160977.51825     -1122.98225        32.22525
J02  37449150.19326     52050.21926      -305.71826        35.87326  37449174.47606     39456.04106      -231.16506        38.26906
J04  37313745.93105   -141283.66605      1116.85205        34.79005  37313769.01506    -95370.28806       833.11906        37.25606
J07  36502469.16625       415.50225        89.80025        31.18725  36502500.64506      9699.22406        65.31606        38.70506
C06  36692203.91625     57996.82725      -341.46025        33.57925                                                                
C09  37481790.09725     62158.85525      -370.97525        34.51325                                                                
C13  35823287.55425     82335.90725      -525.03425        34.77825                                                                
C23  21839068.12825     41688.62025      -240.84625        34.24725  21839085.51605     37873.99305      -182.55405        34.69205
C25  23819760.92325    348571.81225     -2528.08425        35.09725  23819779.21004    261524.03504     -1904.16404        28.90204
C32  23444556.57106   -312497.47906      2414.60206        38.85106  23444584.15205   -209030.72605      1819.58805        33.71705
C37  23969607.08627   3797419.23327      2295.26727        41.66427  23969646.95906   -226291.03106      1729.28906        37.55606
C38  36751754.09006   1526293.38406     -1136.85706        39.27106  36751780.77206    100778.93906      -856.42106        37.88706
C39  36825508.73125     54318.85125      -338.52625        34.80625  36825524.92005     40683.27905      -256.90405        30.78005
C41  22144621.09825     24133.37125      -112.96225        33.98925  22144652.87625     27062.47525       -84.70625        33.80825
E03  26060840.25606   -176015.22506      1584.05306        37.68906  26060866.03805   -130511.35605      1181.26605        30.55505
E05  22808654.79725    -56248.88425       518.96025        32.00225  22808678.78025    -41005.67525       389.98625        31.69725
E24  24722813.45225     68732.26725      -678.15225        35.20625  24722838.33505     50265.31005      -508.71105        33.24805
E25  24069764.74916   -251122.91816      1936.94616        39.39116  24069793.52906   -196207.80306      1444.91906        36.31806
> 2024 09 25 07 26 16.9995441  0 25                      
G10  20255874.35006    113963.24806      -785.37606        38.90006  20255900.13206     85119.69706      -585.55606        39.65606
G23  22148545.98106    366119.84606     -3133.04706        38.69206  22148585.55306    337925.10906     -2339.13706        40.63506
G25  20851155.44525    178191.87325     -1232.05125        31.63425  20851174.03305    141840.72105      -922.64605        34.06005
G26  22911350.20227   -358950.19127      3640.90427        41.50127  22911384.67806   -265906.75706      2719.08106        39.87206
G28  21218028.56406     -9170.10806       137.21306        38.34506  21218054.04706      2711.70106       102.21706        37.24206
G31  22513811.01326   -250183.04226      1866.79926        38.45826                                                                
G32  21528614.15116   -149579.11516      1163.20616        37.02416  21528635.73605   -101265.14905       868.48305        32.98605
R12  19300682.51625    162097.85925     -1125.56525        32.80825
J02  37449235.93326     52358.59926      -308.48826        35.58026  37449262.31506     39686.42806      -231.43506        37.72606
J04  37313561.25905   -142401.22305      1117.97605        34.71805  37313585.84206    -96204.72506       833.79606        36.71606
J07  36502489.25325       325.61525        88.84725        30.69225  36502512.93606      9632.06506        66.65606        39.05206
C06  36692298.05125     58336.98625      -339.76025        34.58425                                                                
C09  37481892.62626     62531.55526      -373.69026        35.53326                                                                
C13  35823423.06026     82862.75626      -527.41526        37.83426                                                                
C23  21839145.47425     41928.39825      -239.93925        34.17825  21839161.96305     38054.17505      -180.53905        33.17705
C25  23820278.06525    351098.63225     -2528.72525        32.35325  23820293.65404    263428.00804     -1903.89804        28.89704
C32  23444128.16826   -314913.57426      2416.42026        37.40126  23444150.35205   -210850.95805      1820.58905        34.13505
C37  23969197.87027   3795122.71627      2296.16927        42.15127  23969235.34406   -228021.79806      1730.42706        36.30906
C38  36752001.11906   1527428.08806     -1136.47406        39.91406  36752027.80106    101634.09306      -855.88806        36.75906
C39  36825597.76925     54656.89525      -339.91325        33.85825  36825619.65405     40938.09005      -254.60805        29.85905
C41  22144671.46325     24245.88825      -112.64325        32.85525  22144703.54105     27147.24705       -86.17505        34.03605
E03  26060570.74206   -177598.37406      1581.04506        38.13706  26060595.02525   -131686.69425      1182.46925        29.87425
E05  22808588.84305    -56771.93605       523.03705        33.40705  22808609.52805    -41396.08105       389.38105        30.41305
E24  24722972.04305     69411.87005      -677.80505        33.05105  24722996.92505     50773.13205      -509.22005        31.21705
E25  24069420.58706   -253059.39906      1934.57006        38.41406  24069455.66306   -197653.93206      1445.98406        38.15106
> 2024 09 25 07 26 17.9995441  0 25                      
G10  20256026.94406    114747.37406      -783.82806        40.54306  20256049.42906     85705.15306      -584.17306        39.53406
G23  22149142.86706    369252.31906     -3131.65606        39.40006  22149180.94106    340264.30506     -2338.48006        40.86006
G25  20851389.28425    179428.21625     -1234.62225        31.90825  20851409.66905    142761.96905      -918.85105        32.58905
G26  22910656.78227   -362591.93027      3641.34227        42.15727  22910691.55806   -268626.31406      2719.29206        39.91606
G28  21218003.08206     -9307.94506       137.96206        38.99806  21218027.36506      2608.61106       103.98006        37.60506
G31  22513460.25625   -252052.53925      1869.71425        35.12825                                                                
G32  21528389.90626   -150741.74526      1165.06926        37.85626  21528413.58905   -102133.63205       869.65905        33.56805
R12  19300883.97625    163224.35525     -1125.06025        34.08825
J02  37449291.69516     52667.94916      -312.56316        35.66116  37449321.67406     39916.91906      -229.41506        38.48706
J04  37313349.60625   -143518.10125      1116.70825        33.46825  37313372.98906    -97038.97506       835.49006        36.00206
J07  36502468.56725       236.65825        89.06725        31.07525  36502495.84806      9565.39906        67.54206        38.63206
C06  36692361.30725     58676.00525      -339.37525        33.38625                                                                
C09  37481964.57625     62902.97225      -370.69325        34.40725                                                                
C13  35823521.69226     83390.50926      -529.71826        36.90226                                                                
C23  21839193.14125     42168.06025      -237.65825        35.45025  21839208.43105     38234.89005      -179.15005        35.08805
C25  23820761.33025    353634.59925     -2530.57825        33.98425  23820779.01805    265331.87805     -1902.37605        29.73305
C32  23443660.49226   -317328.48526      2414.53626        36.72426  23443686.57405   -212671.42005      1822.28905        33.24605
C37  23968757.17527   3792826.84627      2295.00027        41.89727  23968796.14806   -229751.89006      1729.75406        39.02606
C38  36752219.06806   1528563.28506     -1135.05706        39.83106  36752247.54806    102489.62406      -855.05506        37.77306
C39  36825669.71925     54995.85925      -338.84125        34.60525  36825685.30925     41192.95325      -254.11325        30.16625
C41  22144692.44825     24359.04625      -115.12925        34.04025  22144725.42625     27232.34025       -84.70125        33.88825
E03  26060264.95426   -179182.01526      1584.57126        37.96826  26060294.03424   -132855.23224      1180.90424        29.11324
E05  22808486.91305    -57294.90505       525.07905        33.92505  22808509.69705    -41786.83605       392.12905        33.07205
E24  24723102.15325     70091.73825      -681.43325        32.49825  24723126.73605     51280.98005      -506.43905        30.03005
E25  24069053.34106   -254995.36306      1938.40106        37.72506  24069086.31806   -199099.46206      1445.31206        38.72606
> 2024 09 25 07 26 18.9995442  0 25                      
G10  20256201.72306    115527.69506      -778.86406        39.32006  20256227.50506     86288.07806      -581.56206        37.96006
G23  22149765.83606    372381.09406     -3128.14006        39.85006  22149804.50906    342600.77506     -2336.05906        39.47606
G25  20851648.00425    180666.47425     -1231.48625        31.55725  20851673.48725    143685.71025      -917.64925        31.27625
G26  22909991.54306   -366237.76106      3645.89706        40.45606  22910026.61906   -271348.81906      2722.91106        39.08406
G28  21218000.68426     -9450.19926       141.38426        37.68326  21218030.66306      2502.45606       107.95906        36.65506
G31  22513134.08225   -253924.48225      1873.20925        34.87125                                                                
G32  21528199.23806   -151908.82706      1170.47706        37.28406  21528221.42205   -103005.54405       873.30005        32.19305
R12  19301128.30725    164353.54625     -1124.09125        31.96525
J02  37449381.03325     52972.97525      -306.13825        35.46125  37449410.11306     40144.29706      -225.86406        38.59306
J04  37313170.92925   -144638.93525      1121.84925        33.22925  37313188.61706    -97876.49806       839.05206        36.01606
J07  36502481.15825       140.15325        94.00725        30.45425  36502508.43906      9495.46806        70.45406        39.08006
C06  36692457.24025     59010.41025      -331.98425        32.99425                                                                
C09  37482064.70725     63270.95625      -368.42925        31.86725                                                                
C13  35823654.80025     83913.92025      -521.29125        34.09625                                                                
C23  21839268.38925     42405.33725      -235.41725        33.39025  21839282.77906     38412.56706      -175.94406        35.90606
C25  23821273.97525    356161.71425     -2522.37025        33.26025  23821294.66105    267232.47005     -1898.90905        29.79505
C32  23443228.19126   -319748.67726      2423.39826        37.86226  23443251.57505   -214494.99305      1824.05905        31.48405
C37  23968345.56026   3790526.88126      2300.52426        38.41626  23968383.63306   -231485.26506      1733.78306        36.65306
C38  36752466.09726   1529693.96126     -1129.03626        38.06026  36752493.97806    103342.06806      -851.47206        38.14306
C39  36825763.85425     55335.96125      -333.21425        33.47225  36825779.14425     41444.37725      -249.40225        29.67425
C41  22144745.51225     24468.22725      -108.60925        34.28625  22144776.39025     27314.86425       -81.48925        34.30025
E03  26059992.14306   -180771.12906      1590.81606        37.61906  26060021.52324   -134032.93124      1188.88224        26.70524
E05  22808416.46205    -57822.42505       530.00505        33.70005  22808439.54605    -42180.79405       395.96305        33.08905
E24  24723262.24205     70767.94105      -674.19905        32.70605  24723285.32605     51786.07205      -502.83005        31.05705
E25  24068714.57616   -256934.97016      1942.50316        38.26616  24068746.05406   -200547.91606      1449.76106        36.80006
> 2024 09 25 07 26 19.9995442  0 25                      
G10  20256347.72226    116305.06126      -779.38426        38.09126  20256375.60306     86869.83006      -583.46106        37.42906
G23  22150361.52406    375508.02606     -3128.50306        40.10206  22150401.09606    344935.76506     -2335.92606        39.86306
G25  20851880.34425    181897.25625     -1226.84925        34.71825  20851907.32525    144607.81025      -917.76225        32.69025
G26  22909295.12506   -369885.23706      3645.33206        41.24606  22909333.49806   -274072.51206      2722.08006        39.33206
G28  21217977.30026     -9594.14826       141.35026        35.95826  21218002.48325      2396.02325       107.26525        34.46425
G31  22512777.32926   -255797.83126      1871.34626        37.72226                                                                
G32  21527977.69126   -153079.34826      1171.72826        37.48026  21527998.37725   -103878.10125       872.71025        30.03725
R12  19301353.15125    165477.41725     -1119.71125        30.64725
J02  37449438.29326     53275.23426      -303.53126        35.68126  37449466.77406     40369.94406      -225.84206        37.67806
J04  37312956.27825   -145763.38225      1126.64125        33.25925  37312974.56506    -98715.48606       837.29206        36.27806
J07  36502464.37025        43.90725       101.49425        30.51425  36502490.45206      9423.80106        70.69106        38.58106
C06  36692520.79625     59343.00425      -332.97425        34.84425                                                                
C09  37482131.26025     63636.53325      -361.76725        33.58525                                                                
C13  35823754.33125     84433.80225      -518.98625        33.63925                                                                
C23  21839308.86125     42638.85325      -234.15225        33.66925  21839328.04805     38588.93005      -177.78305        35.16305
C25  23821755.74225    358683.16025     -2514.21425        34.47825  23821777.62705    269131.11705     -1899.20405        29.82805
C32  23442758.41626   -322170.94326      2421.80926        38.17026  23442785.69724   -216321.93824      1826.20724        29.30224
C37  23967902.76626   3788225.46426      2299.48426        40.15926  23967943.23806   -233219.60006      1732.77906        36.67106
C38  36752680.44906   1530823.92906     -1131.70306        38.56906  36752710.72806    104193.14106      -852.37806        37.79406
C39  36825824.71225     55669.15625      -328.08225        34.95425  36825842.99905     41693.96905      -250.69405        30.61705
C41  22144766.19725     24574.45925      -103.81325        33.28525  22144797.37606     27395.52006       -81.19106        36.07106
E03  26059697.14716   -182362.52816      1591.52216        37.17416  26059719.93124   -135221.64524      1185.87024        27.45224
E05  22808313.33305    -58352.39505       529.06305        32.88405  22808338.81625    -42576.48725       394.00425        31.70725
E24  24723390.85305     71442.12505      -674.75205        33.28505  24723413.63705     52289.59905      -503.66205        31.56805
E25  24068342.53326   -258876.41326      1940.92426        38.14126  24068377.00906   -201997.56006      1447.50106        36.43806
> 2024 09 25 07 26 20.9995443  0 25                      
G10  20256528.79726    117085.16426      -782.42026        39.25526  20256554.57906     87452.24306      -585.36006        38.34406
G23  22150988.39006    378635.24006     -3128.84006        39.66106  22151025.86406    347271.08206     -2336.81306        39.82006
G25  20852146.26025    183126.19625     -1229.28325        33.57825  20852172.34125    145525.87925      -920.14225        33.59625
G26  22908635.58207   -373532.27007      3644.86207        42.59907  22908670.05806   -276795.93306      2721.34106        40.12306
G28  21217980.89726     -9737.79426       140.73926        35.58326  21218005.48005      2289.18205       104.95005        33.97105
G31  22512449.95527   -257669.76027      1869.92327        41.61527                                                                
G32  21527784.32526   -154248.33226      1168.31826        38.25826  21527805.91025   -104751.11725       871.89125        29.80025
R12  19301578.59515    166599.89215     -1123.17315        31.09615
J02  37449525.83326     53577.61626      -303.69026        35.82626  37449555.21206     40595.91206      -227.42406        38.56506
J04  37312766.80925   -146895.98325      1126.56125        31.84725  37312791.69206    -99554.57806       837.25806        36.65706
J07  36502473.96325       -52.86825        97.35625        29.65525  36502501.84406      9352.34806        69.09506        38.19506
C06  36692616.13025     59675.84425      -332.29725        35.01425                                                                
C09  37482233.19025     64001.68025      -361.85425        33.93525                                                                
C13  35823885.34025     84951.50525      -520.73925        34.08725                                                                
C23  21839387.10725     42873.12925      -233.63225        32.93325  21839402.99606     38765.89006      -178.64406        35.78606
C25  23822269.88606    361204.28706     -2519.58006        35.59906  23822292.07005    271030.43805     -1900.50605        30.18805
C32  23442327.31426   -324592.04826      2420.29626        38.36526  23442351.29824   -218150.88424      1822.23024        26.99124
C37  23967490.55226   3785924.87626      2296.16026        38.49526  23967530.72406   -234953.42706      1732.07806        38.39706
C38  36752930.77506   1531953.32106     -1132.30606        39.40806  36752957.75706    105044.42306      -853.20206        38.37606
C39  36825917.34826     56000.39926      -330.08526        35.82626  36825937.73405     41944.00705      -251.13605        31.02505
C41  22144816.26325     24682.31025      -107.58525        33.43225  22144848.94006     27476.95706       -83.61706        36.16406
E03  26059418.34006   -183952.87806      1589.95706        36.94606  26059448.02004   -136408.03004      1181.81304        29.00804
E05  22808243.48225    -58881.67125       533.92625        32.21225  22808268.36405    -42971.78105       393.96805        32.04705
E24  24723545.54605     72117.32605      -676.32805        33.64005  24723572.52705     52793.74605      -505.43605        32.04105
E25  24068005.86606   -260817.42306      1938.00706        37.89606  24068038.24406   -203447.18306      1447.71206        36.32106
> 2024 09 25 07 26 21.9995444  0 25                      
G10  20256708.07326    117866.28926      -781.77226        40.66326  20256733.25516     88035.44616      -582.68016        37.71416
G23  22151613.15706    381763.06806     -3127.98306        39.42006  22151650.93106    349606.74506     -2335.97106        39.64906
G25  20852408.87825    184356.90625     -1231.33425        33.09425  20852435.55925    146444.00725      -919.50825        31.50925
G26  22907968.54307   -377178.80707      3647.14207        42.23307  22908005.71806   -279519.05806      2723.67406        38.74206
G28  21217988.09326     -9879.37626       140.86226        37.13326  21218008.17905      2183.25905       105.23505        34.38405
G31  22512131.87526   -259541.44726      1875.06126        37.99226                                                                
G32  21527591.85826   -155416.38726      1165.29826        38.91026  21527612.84405   -105623.56905       872.08705        29.97505
R12  19301812.43325    167727.60425     -1127.04125        31.41925
J02  37449613.97226     53883.76026      -304.95826        36.61926  37449641.55306     40821.97606      -226.71706        38.12506
J04  37312580.63825   -148018.61725      1122.21725        32.68125  37312608.51906   -100393.22606       838.09806        37.86406
J07  36502486.25515      -148.68715        92.70115        30.73115  36502514.73506      9280.94206        70.73706        38.22806
C06  36692708.76625     60010.32825      -334.29325        34.44525                                                                
C09  37482333.92025     64366.31225      -369.22025        32.80825                                                                
C13  35824014.25125     85474.10625      -524.70925        34.42425                                                                
C23  21839465.05325     43109.32025      -237.39925        33.60125  21839478.54406     38943.68106      -177.74806        36.40206
C25  23822783.73006    363725.45106     -2521.30706        36.59906  23822805.01505    272930.28805     -1900.78305        30.93305
C32  23441891.41606   -327011.95806      2419.21206        39.43106  23441917.19804   -219973.90404      1823.11704        28.32704
C37  23967075.63926   3783624.80026      2301.59926        35.89526  23967119.10906   -236686.57006      1733.33506        38.35006
C38  36753175.70606   1533083.35906     -1129.96606        39.56506  36753205.08606    105895.93106      -851.27306        36.85806
C39  36826011.48326     56333.22326      -333.11926        35.55926  36826031.26905     42194.59705      -250.87505        31.02505
C41  22144865.42925     24791.83125      -110.73625        33.04125  22144899.60506     27558.92406       -82.76606        35.52206
E03  26059147.32826   -185542.21026      1589.50326        38.13026  26059176.40824   -137592.29124      1186.82824        28.77324
E05  22808170.63205    -59410.22505       527.99905        32.61805  22808197.91305    -43366.47005       393.89605        33.24905
E24  24723704.13605     72793.36405      -676.95505        33.03905  24723732.01605     53298.55605      -505.42305        31.56305
E25  24067668.00026   -262757.85626      1940.59826        38.09426  24067699.47806   -204896.13506      1448.44006        37.53306
> 2024 09 25 07 26 22.9995444  0 25                      
G10  20256857.66926    118646.97226      -780.35526        41.41026  20256881.65306     88618.54106      -584.04106        37.85806
G23  22152208.84506    384890.17706     -3127.04506        40.54906  22152246.31906    351941.95606     -2335.44506        40.19906
G25  20852643.91515    185587.63515     -1232.65515        32.38315  20852669.39725    147362.68925      -918.13825        32.10625
G26  22907276.02307   -380826.55807      3648.22507        42.73707  22907311.09906   -282242.98906      2724.29206        38.99606
G28  21217954.21626    -10021.88626       141.83026        37.27626  21217981.49706      2076.66906       107.71706        35.50506
G31  22511767.02826   -261414.33026      1875.36326        37.51926                                                                
G32  21527372.41026   -156585.06126      1170.81526        39.91226  21527392.19605   -106496.14305       873.79005        32.99905
R12  19302026.48525    168854.94325     -1125.74625        32.19225
J02  37449670.33326     54188.75126      -304.79626        36.24926  37449700.01206     41047.68906      -225.55006        38.71606
J04  37312368.68515   -149142.16415      1122.23015        33.86315  37312393.56706   -101232.40106       839.02606        37.91406
J07  36502473.36425      -244.57525        94.46225        31.49025  36502495.54806      9209.10606        71.06306        38.51206
C06  36692771.12325     60343.44025      -334.93325        33.45525                                                                
C09  37482407.36925     64732.90525      -367.54325        32.28925                                                                
C13  35824114.08225     85995.68525      -523.10725        34.25425                                                                
C23  21839510.32225     43344.20125      -237.35025        33.30325  21839524.11206     39121.14406      -176.43706        36.85606
C25  23823269.99326    366246.46226     -2518.78126        35.63826  23823288.88005    274830.00605     -1898.59905        30.50205
C32  23441430.03606   -329432.74506      2422.75506        39.58706  23441451.92124   -221798.05124      1826.06324        28.68624
C37  23966640.34026   3781324.21326      2301.24826        37.46426  23966676.91506   -238420.68206      1735.01006        39.18806
C38  36753395.15406   1534212.48506     -1129.18806        40.43406  36753422.13506    106746.83306      -850.99206        37.55306
C39  36826073.54025     56667.02225      -334.23725        34.17925  36826094.22505     42444.65105      -249.27805        30.18105
C41  22144889.41225     24903.20925      -109.80425        32.86125  22144920.29105     27640.67505       -81.47805        34.60805
E03  26058842.43906   -187132.66306      1592.43706        38.48206  26058872.11804   -138780.07504      1191.35404        28.78304
E05  22808072.00005    -59939.25505       531.09005        33.47205  22808096.88305    -43761.48505       395.90805        33.24105
E24  24723835.14505     73469.67505      -676.10905        32.46305  24723860.62705     53803.55005      -504.62905        31.66905
E25  24067296.25806   -264698.88406      1940.51106        39.25206  24067329.83406   -206345.61806      1449.45706        37.71106
> 2024 09 25 07 26 23.9995445  0 25                      
G10  20257035.14626    119423.42726      -774.67626        41.26126  20257059.13026     89198.18826      -578.65626        37.86426
G23  22152834.21206    388012.77406     -3120.80706        39.57506  22152870.48706    354273.76906     -2330.69506        39.97406
G25  20852912.82925    186812.43125     -1228.41925        30.92025  20852933.51505    148278.35605      -914.07205        32.31605
G26  22906609.28406   -384478.81206      3654.63206        40.60406  22906646.15906   -284970.32306      2728.90406        38.38906
G28  21217963.80926    -10169.41326       149.95126        38.38126  21217984.49506      1966.53506       110.80006        36.98506
G31  22511438.75526   -263291.33526      1882.02626        38.51226                                                                
G32  21527178.44426   -157758.96926      1175.38026        38.94326  21527198.53105   -107372.82505       878.00605        33.78805
R12  19302264.82025    169974.04625     -1117.45025        33.00125
J02  37449756.67315     54485.86415      -296.22615        35.19915  37449785.75306     41269.61006      -220.73606        38.18606
J04  37312187.31025   -150271.62325      1129.47925        32.75025  37312208.89506   -102075.42806       844.23506        36.97006
J07  36502477.56115      -345.93915       105.14115        31.16615  36502506.64006      9133.21906        77.27806        38.58006
C06  36692860.76125     60671.38325      -324.89225        32.62625                                                                
C09  37482506.90025     65093.83125      -361.11225        32.83425                                                                
C13  35824240.89425     86512.92425      -514.97125        33.82225                                                                
C23  21839583.17125     43574.46825      -230.49625        33.68225  21839597.26106     39295.17206      -172.94806        37.04006
C25  23823782.93825    368761.53525     -2514.32225        34.92225  23823801.22605    276725.78305     -1893.48105        30.36605
C32  23440994.43706   -331858.61706      2428.05906        39.19606  23441016.92205   -223626.23305      1829.59405        30.17905
C37  23966226.62706   3779019.24106      2308.61206        36.59506  23966265.00006   -240157.96706      1738.96406        39.90906
C38  36753636.18706   1535336.82506     -1122.30506        39.26206  36753666.76606    107594.14806      -845.84806        37.31706
C39  36826166.77525     57001.72425      -324.55225        33.87125  36826185.66205     42690.50905      -243.76105        29.84705
C41  22144938.87825     25010.30125      -101.66325        32.75925  22144969.75625     27718.85425       -76.24125        33.66825
E03  26058570.52706   -188728.52206      1597.83406        37.43006  26058596.60904   -139971.68104      1193.59204        28.83704
E05  22808001.84905    -60473.60005       536.00105        33.46605  22808025.23305    -44160.53105       400.09605        33.43605
E24  24723992.23605     74140.69105      -669.66505        32.60005  24724018.31805     54304.69005      -500.11205        31.64005
E25  24066960.19016   -266644.53216      1948.43516        38.48716  24066988.97006   -207798.50406      1454.12506        37.69506
> 2024 09 25 07 26 24.9995446  0 25                      
G10  20257211.42406    120199.24806      -776.15306        40.46406  20257237.80606     89777.24006      -579.92506        39.42906
G23  22153458.97906    391133.85806     -3121.97106        38.77906  22153493.75506    356604.41106     -2331.82506        39.71306
G25  20853173.94825    188037.10125     -1220.13525        31.19825  20853195.23305    149193.16905      -914.78405        31.49505
G26  22905946.44307   -388132.61207      3653.39307        43.50407  22905982.41806   -287698.84706      2728.09006        40.01106
G28  21217956.61426    -10319.09826       147.79526        38.34426  21217985.69406      1855.40906       110.67206        37.91006
G31  22511109.28316   -265169.46416      1880.64416        37.09716                                                                
G32  21526987.17706   -158933.62306      1173.78306        39.88606  21527004.26505   -108250.35305       876.95305        33.64905
R12  19302522.04225    171091.84725     -1114.86125        33.34225
J02  37449842.71305     54781.96105      -296.76605        35.12805  37449872.69306     41490.32206      -221.39206        38.14106
J04  37312001.13915   -151402.32115      1135.47115        34.06815  37312024.52306   -102919.71006       843.76106        37.32106
J07  36502490.15215      -449.64415       108.08915        30.46415  36502516.53406      9056.29306        76.64206        38.28006
C06  36692957.59425     60997.51325      -325.99725        33.84425                                                                
C09  37482604.63325     65453.53325      -360.19525        33.28025                                                                
C13  35824371.90325     87028.31125      -512.76925        34.94525                                                                
C23  21839655.42125     43804.03525      -226.56625        34.09225  21839672.50906     39468.19806      -173.22406        37.08706
C25  23824294.68425    371275.79625     -2515.63025        34.60025  23824314.47005    278620.54005     -1894.14705        31.37105
C32  23440553.44306   -334285.55206      2426.49206        38.31106  23440579.82405   -225455.32005      1828.86405        30.99805
C37  23965810.51526   3776711.50926      2307.12926        38.42326  23965853.08506   -241896.39706      1738.17806        41.00806
C38  36753885.61406   1536459.62306     -1123.42006        38.89906  36753913.19506    108440.26106      -846.65006        37.81206
C39  36826260.01125     57328.07825      -319.49325        34.87225  36826277.99804     42935.35204      -243.60604        29.40104
C41  22144988.34425     25112.97925      -103.55825        34.06425  22145019.52205     27796.29905       -77.63705        32.99605
E03  26058293.21906   -190325.90106      1597.05006        36.65806  26058324.69705   -141164.59505      1192.55605        30.52605
E05  22807929.59905    -61009.29505       534.50505        34.59805  22807953.28305    -44560.70905       399.94605        33.33005
E24  24724150.52705     74810.84605      -671.68205        33.44105  24724175.11005     54804.88405      -499.93205        30.89005
E25  24066617.82706   -268591.64206      1946.51006        38.89506  24066648.40606   -209252.53106      1453.33006        36.99706
> 2024 09 25 07 26 25.9995446  0 25                      
G10  20257363.41906    120976.95906      -776.69306        40.51706  20257385.90406     90357.87306      -579.74106        39.84806
G23  22154051.96906    394256.96006     -3123.06406        40.37406  22154089.14306    358936.52206     -2331.54706        39.97206
G25  20853399.09224    189260.45424     -1231.88324        27.79924  20853429.37124    150110.88124      -917.50124        28.76324
G26  22905250.92507   -391784.61407      3652.10607        42.09807  22905286.00006   -290425.99006      2727.21606        38.18106
G28  21217929.33326    -10466.10526       147.11126        41.49726  21217957.21406      1745.60706       110.71806        38.37506
G31  22510756.42826   -267045.63826      1876.48926        39.93726                                                                
G32  21526764.73106   -160107.25106      1173.79006        38.82106  21526780.92005   -109126.77805       876.86305        34.22805
R12  19302726.80025    172212.61225     -1120.97125        32.87325
J02  37449900.27405     55079.40505      -297.16705        34.54905  37449928.45406     41712.37006      -221.36006        37.36106
J04  37311780.19225   -152531.04725      1130.02225        32.87125  37311808.67206   -103762.70506       843.83406        37.40106
J07  36502468.26725      -550.93425       102.63825        31.24525  36502497.34706      8980.49906        77.22706        38.19006
C06  36693022.34925     61325.51925      -327.27125        33.14825                                                                
C09  37482678.38225     65814.96025      -359.31025        30.91725                                                                
C13  35824470.53525     87546.19025      -518.16325        34.51125                                                                
C23  21839698.89125     44037.01425      -231.81125        32.96525  21839716.57906     39642.98806      -174.66106        36.20006
C25  23824777.94925    373791.76925     -2516.33425        32.24025  23824798.33505    280516.67005     -1895.34005        30.87405
C32  23440085.76606   -336711.13506      2427.28606        37.01706  23440113.64705   -227283.11005      1828.46705        32.05005
C37  23965365.92226   3774406.61826      2305.51426        37.56726  23965409.09306   -243633.30006      1736.70506        41.00206
C38  36754098.16706   1537584.11806     -1123.41606        39.28806  36754129.34606    109287.74206      -847.22006        37.68106
C39  36826324.16625     57653.78925      -326.02325        34.19325  36826340.95524     43181.56624      -246.01324        29.08024
C41  22145003.33325     25217.67925      -104.62325        34.86525  22145039.90805     27875.32205       -78.56605        33.94205
E03  26057990.42906   -191921.80406      1596.50206        35.57706  26058019.80805   -142356.21905      1191.52205        32.08705
E05  22807823.77205    -61543.68605       535.94605        34.29105  22807851.65305    -44959.56505       399.36405        32.75905
E24  24724279.13805     75482.87505      -672.26605        32.64505  24724303.12104     55307.12604      -502.57904        29.35704
E25  24066246.38406   -270536.57506      1945.34306        38.92206  24066279.06206   -210705.03806      1453.59106        38.38206
> 2024 09 25 07 26 26.9995447  0 25                      
G10  20257540.59606    121756.78006      -778.39106        39.33406  20257563.98006     90940.22406      -580.46006        39.08206
G23  22154682.13306    397382.22906     -3124.54706        38.33006  22154713.61106    361270.39506     -2332.85006        37.09506
G25  20853668.30624    190483.51724     -1236.20924        28.70224  20853693.48824    151027.37924      -918.60124        28.20924
G26  22904585.08607   -395435.03007      3652.17107        41.97407  22904621.96006   -293151.91206      2727.31906        38.19306
G28  21217934.72926    -10611.81626       147.10926        41.26026  21217959.61206      1636.84006       110.17406        37.26206
G31  22510422.45926   -268920.53026      1876.97826        39.54326                                                                
G32  21526569.56606   -161279.48806      1172.49706        37.99706  21526588.15305   -110002.12905       875.61205        33.68005
R12  19302956.44125    173335.64125     -1125.28425        33.92925
J02  37449989.31225     55378.07525      -302.41425        33.08825  37450015.09406     41935.75406      -222.18206        36.68006
J04  37311598.51815   -153658.14115      1124.65815        33.85215  37311624.30006   -104604.41306       842.97306        37.34706
J07  36502479.95925      -646.67725        95.75925        30.45625  36502508.43906      8906.12406        76.04506        38.14106
C06  36693113.48625     61654.89025      -331.75425        33.35425                                                                
C09  37482777.61325     66177.21325      -364.83925        32.30425                                                                
C13  35824599.14606     88064.87806      -515.53606        36.29906                                                                
C23  21839775.33825     44270.95325      -235.73025        34.85325  21839790.92705     39818.80205      -175.16205        34.38505
C25  23825289.39525    376308.96425     -2518.58525        32.98625  23825311.58005    282413.94005     -1896.87705        30.22905
C32  23439653.76526   -339135.24726      2419.93026        35.85826  23439678.94805   -229110.11905      1827.92805        33.19305
C37  23964957.30506   3772103.18506      2305.15106        39.99706  23964996.57806   -245369.15206      1736.77106        40.23206
C38  36754345.79606   1538710.43506     -1124.06606        39.22006  36754375.47506    110136.50106      -847.21606        37.45606
C39  36826417.10225     57981.37125      -330.30725        34.34625  36826435.38905     43428.42505      -246.36505        29.82905
C41  22145057.89505     25324.86905      -107.01305        35.47105  22145090.27305     27955.73305       -79.87905        33.65505
E03  26057715.51906   -193516.94106      1596.44706        35.77406  26057746.99705   -143547.55505      1191.76405        32.95505
E05  22807752.72105    -62076.34205       532.98805        33.03905  22807780.30205    -45357.47305       398.28805        33.18005
E24  24724434.13005     76157.17105      -675.25705        30.86705  24724461.71104     55810.34704      -502.75304        28.63904
E25  24065911.21606   -272479.68706      1945.16106        39.75606  24065939.99606   -212155.95006      1452.24406        37.79406
> 2024 09 25 07 26 27.9995448  0 25                      
G10  20257720.77206    122537.18206      -778.35406        40.25906  20257742.35706     91523.04406      -581.53606        38.85606
G23  22155305.70116    400507.93216     -3125.02016        35.58816  22155338.37805    363604.64705     -2332.02105        33.97505
G25  20853934.52225    191713.92825     -1229.98425        30.90825  20853957.30624    151944.86424      -918.61224        28.77324
G26  22903922.24506   -399085.12606      3652.57506        41.39006  22903956.72106   -295877.65806      2728.13806        37.71406
G28  21217936.52826    -10757.44826       145.58626        39.14426  21217962.01106      1528.02706       109.51206        37.57106
G31  22510104.37926   -270796.21226      1879.77926        37.58326                                                                
G32  21526373.80206   -162452.05306      1173.19206        39.12406  21526395.08705   -110877.75305       875.67805        33.75805
R12  19303190.27925    174459.49325     -1123.59525        32.40925
J02  37450076.85125     55677.17225      -297.61325        34.91125  37450103.53306     42159.23006      -222.07206        38.95506
J04  37311412.64725   -154785.43725      1128.36925        33.61425  37311440.22706   -105446.24606       843.54306        37.93606
J07  36502486.55425      -746.79125        99.15225        31.05825  36502520.13106      8831.56306        76.36806        38.93406
C06  36693209.71925     61983.62325      -330.30625        32.88625                                                                
C09  37482878.34325     66538.65725      -362.33425        31.06025                                                                
C13  35824731.05525     88583.32425      -519.51125        35.40425                                                                
C23  21839848.78725     44504.03925      -235.28125        34.35825  21839867.07506     39994.81606      -175.28606        35.77106
C25  23825807.43725    378826.32825     -2518.70125        30.62025  23825825.72404    284310.93304     -1895.50404        28.10504
C32  23439214.86926   -341560.04126      2425.70926        36.96026  23439243.34905   -230937.24705      1827.20605        32.57605
C37  23964542.39326   3769800.27526      2304.91526        37.86726  23964584.36306   -247104.84106      1736.82006        39.53506
C38  36754593.72406   1539836.91106     -1123.80306        39.52206  36754621.60506    110985.48806      -847.59106        37.76006
C39  36826509.73825     58308.40125      -327.26925        34.30725  36826527.12624     43674.84324      -246.13024        28.95624
C41  22145107.36125     25431.92725      -106.24225        34.65125  22145140.63805     28036.31405       -79.94305        34.91605
E03  26057442.40806   -195112.69106      1595.92006        35.55806  26057472.98705   -144739.07705      1190.97505        32.08505
E05  22807682.87005    -62609.46205       533.23705        34.64205  22807709.25105    -45755.41405       397.66705        33.65305
E24  24724595.71905     76831.50605      -673.80405        32.79505  24724620.30204     56314.04504      -502.87004        28.32804
E25  24065568.25406   -274422.28306      1944.40606        38.98706  24065599.13206   -213606.69706      1452.75006        37.42806
> 2024 09 25 07 26 28.9995448  0 25                      
G10  20257866.77106    123314.09706      -774.98406        40.54606  20257890.15406     92103.29506      -579.59606        38.39106
G23  22155897.19225    403625.76825     -3122.79025        32.07825  22155932.86725    365935.87425     -2330.05125        30.66725
G25  20854171.35825    192946.99725     -1224.83325        29.78325  20854190.54405    152860.39905      -915.22705        31.02305
G26  22903224.92707   -402738.97107      3656.93107        42.55807  22903263.00106   -298606.15406      2730.81006        39.90606
G28  21217909.84726    -10907.17926       151.81826        39.08826  21217934.13006      1416.34806       112.78806        38.14506
G31  22509746.42726   -272669.45426      1879.61926        38.37726                                                                
G32  21526152.25506   -163629.06306      1178.76806        38.70006  21526170.84205   -111756.59305       879.15205        33.03605
R12  19303402.23325    175579.28725     -1116.97025        32.72925
J02  37450129.01525     55971.81925      -293.18825        35.49525  37450158.99406     42379.26806      -218.61506        37.62006
J04  37311199.49425   -155917.02025      1132.29825        32.43525  37311224.07706   -106291.23906       846.52706        36.69506
J07  36502470.96525      -851.44525       106.16525        31.10925  36502499.14606      8754.01906        78.71506        38.05506
C06  36693270.57725     62307.63125      -321.60525        32.09725                                                                
C09  37482943.39825     66896.67825      -355.41425        32.03225                                                                
C13  35824829.08726     89099.07726      -515.18226        35.51126                                                                
C23  21839894.05625     44733.93825      -228.44625        34.66625  21839910.24505     40167.99705      -171.83405        35.46505
C25  23826297.29825    381345.71825     -2512.57025        29.90025  23826307.49105    286204.71005     -1893.76305        30.06605
C32  23438750.19126   -343988.64026      2430.00126        36.89826  23438776.87205   -232767.44705      1830.64505        32.64405
C37  23964100.19926   3767493.66926      2309.34426        37.82926  23964141.27006   -248843.15906      1740.28006        39.57606
C38  36754810.77406   1540959.57706     -1120.81006        39.48306  36754838.05506    111831.39706      -844.18206        37.10406
C39  36826574.79325     58631.13325      -320.41725        34.60925  36826589.18304     43918.04504      -242.69204        28.86304
C41  22145128.04725     25533.77325      -101.56225        34.47625  22145159.82505     28114.00005       -77.92105        33.64405
E03  26057136.32006   -196712.84306      1602.38306        36.12106  26057168.39805   -145933.74805      1194.34505        31.81505
E05  22807585.73705    -63147.20505       539.01805        33.99305  22807606.42305    -46157.00205       402.37205        32.76805
E24  24724724.33005     77501.43805      -667.91705        30.59705  24724747.41424     56813.44924      -498.54724        27.13724
E25  24065196.21106   -276368.84606      1948.19006        38.28606  24065228.88906   -215060.17106      1454.80006        36.88106
> 2024 09 25 07 26 29.9995449  0 25                      
G10  20258043.94807    124089.17207      -776.22407        41.77507  20258067.33206     92682.09806      -581.13206        37.51106
G23  22156525.55725    406743.40125     -3115.92025        29.84825  22156558.23404    368265.55104     -2328.90904        28.47304
G25  20854435.77525    194170.98225     -1218.72525        30.34425  20854454.36205    153774.81505      -916.43605        31.17905
G26  22902558.18907   -406395.18207      3656.12807        41.81807  22902595.66306   -301336.46106      2730.36306        39.45706
G28  21217908.64726    -11058.70726       151.09526        40.47926  21217935.32906      1303.27106       111.80906        38.65106
G31  22509419.65326   -274549.86626      1878.46426        38.36126                                                                
G32  21525952.29306   -164807.81506      1176.79406        39.21706  21525976.27705   -112636.99805       879.20805        33.64805
R12  19303632.17425    176697.19925     -1114.01125        32.35025
J02  37450215.95526     56264.14326      -292.86026        36.67026  37450243.53606     42597.62306      -219.11706        37.60006
J04  37311019.31925   -157050.22325      1137.42425        31.40125  37311037.60606   -107138.13506       846.05806        35.94906
J07  36502478.46025      -957.90525       104.25525        31.38925  36502508.13906      8674.45706        77.81606        36.98106
C06  36693357.51725     62630.11425      -318.57225        29.65525                                                                
C09  37483039.03225     67252.48525      -353.32725        30.29725                                                                
C13  35824957.99825     89611.12225      -510.71425        34.16425                                                                
C23  21839966.00625     44961.79225      -224.86025        34.10025  21839983.69406     40339.87306      -173.15006        35.74506
C25  23826803.64725    383858.29125     -2505.09325        29.71025  23826819.53604    288096.86404     -1894.66804        28.82104
C32  23438316.99126   -346419.08426      2428.40726        38.65126  23438339.17505   -234599.15805      1830.10105        31.78605
C37  23963689.48306   3765184.85306      2307.83206        38.05506  23963727.85606   -250583.12706      1740.09006        40.18606
C38  36755054.50506   1542079.73406     -1121.67006        39.14306  36755081.78606    112675.48906      -844.51006        36.97706
C39  36826662.63225     58944.12625      -317.04425        33.07625  36826679.42004     44159.68004      -243.69804        28.09904
C41  22145179.31105     25634.78805      -102.64605        35.28005  22145209.89005     28190.03205       -77.94605        33.54805
E03  26056866.50706   -198314.89206      1601.62706        38.75906  26056892.58925   -147136.27225      1195.50625        29.94925
E05  22807511.98805    -63686.81005       537.75905        34.20005  22807533.27305    -46559.99005       400.98205        32.69705
E24  24724882.02005     78170.05705      -671.37305        31.69605  24724904.20505     57312.53305      -499.58305        29.66105
E25  24064853.84806   -278317.68906      1947.26006        38.39306  24064887.72506   -216515.46506      1454.61006        37.76606
> 2024 09 25 07 26 30.9995450  0 25                      
G10  20258219.62606    124866.96406      -780.75106        40.62106  20258246.00806     93262.79406      -583.22206        38.64306
G23  22157150.32424    409854.95624     -3120.98524        28.06224  22157182.10224    370597.94324     -2331.98424        24.31324
G25  20854692.39725    195393.42925     -1227.04725        30.56925  20854716.98005    154690.70305      -916.56005        30.34405
G26  22901895.04807   -410049.13407      3652.37407        43.21807  22901931.02306   -304065.03006      2727.50906        39.53506
G28  21217907.44806    -11208.42906       148.11006        39.66506  21217936.52806      1191.39306       109.61506        38.00806
G31  22509088.98206   -276428.13506      1875.40206        41.27206                                                                
G32  21525758.32806   -165985.16006      1175.20606        38.02106  21525782.91105   -113516.21105       878.43005        33.42205
R12  19303880.10225    177817.69525     -1122.13425        31.66325
J02  37450302.89506     56559.07706      -294.65506        36.29706  37450330.77506     42817.40406      -220.20006        38.31106
J04  37310831.64905   -158181.92705      1131.24405        33.08905  37310853.23406   -107983.60606       844.54206        36.43806
J07  36502491.35125     -1062.55825       103.49225        30.98025  36502520.73106      8596.30106        76.37106        38.03906
C06  36693455.54925     62953.91425      -325.68725        31.34025                                                                
C09  37483139.76225     67604.30525      -355.59125        30.83225                                                                
C13  35825085.40925     90126.06525      -516.73125        34.21925                                                                
C23  21840040.35525     45191.87625      -229.56325        33.57225  21840058.04205     40513.21105      -174.84305        35.26905
C25  23827317.49125    386370.96225     -2511.22725        29.78625  23827332.18124    289991.20824     -1893.53224        26.60524
C32  23437879.29426   -348848.20126      2427.02926        38.96326  23437902.67805   -236429.68005      1828.45405        31.96905
C37  23963271.27306   3762878.32206      2303.93306        39.43706  23963315.04206   -252321.32106      1736.74606        39.60906
C38  36755300.93506   1543202.07006     -1125.26106        39.63806  36755328.51606    113521.30606      -847.29306        37.01206
C39  36826750.77125     59267.46425      -323.42225        33.07425  36826771.75604     44402.16504      -244.37104        28.46104
C41  22145227.57825     25738.57625      -104.88825        33.88725  22145260.25505     28267.84705       -80.05005        34.67905
E03  26056590.39806   -199915.80906      1599.37806        39.62106  26056618.57824   -148345.70524      1193.87824        28.18924
E05  22807435.84105    -64225.00505       535.83205        33.36905  22807461.32305    -46961.98505       401.16005        33.22805
E24  24725035.81405     78840.46405      -671.76605        32.57205  24725061.29605     57813.27405      -500.87405        29.63305
E25  24064513.58406   -280263.98606      1943.77906        38.50506  24064547.46006   -217968.87906      1451.68206        37.29806
> 2024 09 25 07 26 31.9995450  0 25                      
G10  20258367.72406    125645.73606      -780.24106        39.13506  20258393.50606     93844.36506      -583.36706        39.18706
G23  22157753.50624    412980.02024     -3124.10724        26.92224  22157773.59304    372929.24304     -2331.63304        26.02704
G25  20854933.13025    196624.22725     -1234.21425        29.79825  20854950.51824    155606.64624      -918.54524        26.90524
G26  22901197.13107   -413702.23007      3651.86607        43.07707  22901236.40406   -306792.97206      2727.44206        39.77006
G28  21217882.86526    -11356.90426       147.49526        37.36326  21217907.44826      1080.45326       110.48526        35.64026
G31  22508734.02807   -278305.04107      1876.12207        42.75907                                                                
G32  21525537.08106   -167161.75806      1175.02706        40.52606  21525558.66605   -114394.75505       877.21805        31.41905
R12  19304101.34925    178940.34025     -1126.83825        30.69925
J02  37450356.85706     56853.68706      -295.83106        36.85906  37450387.43606     43037.44706      -220.95306        37.13306
J04  37310615.49815   -159313.75015      1127.99415        33.16815  37310638.58206   -108828.81806       844.65806        36.52006
J07  36502473.96325     -1167.52725       102.47925        29.86525  36502499.14606      8518.38306        76.85006        38.19406
C06  36693519.10525     63278.68625      -325.33025        34.76425                                                                
C09  37483209.61425     67959.63725      -358.59425        35.22525                                                                
C13  35825187.33925     90641.65125      -517.88425        35.41625                                                                
C23  21840086.52325     45421.89125      -233.57025        33.64825  21840102.41205     40687.48705      -175.29605        35.04305
C25  23827797.15925    388887.28925     -2516.25025        31.17225  23827814.24705    291884.96205     -1894.65205        29.57905
C32  23437411.31826   -351276.06426      2426.11726        40.89226  23437436.20125   -238259.50425      1828.79625        29.60825
C37  23962832.37607   3760572.96507      2304.17007        41.82907  23962872.24906   -254058.63306      1736.61906        39.63106
C38  36755515.88626   1544324.87626     -1124.83826        38.14426  36755543.46706    114367.49506      -847.01106        37.81506
C39  36826818.22426     59590.11926      -323.77126        37.51726  36826834.41304     44645.33204      -244.49004        29.22204
C41  22145246.76525     25842.29525      -105.01725        33.33025  22145279.44205     28346.18005       -79.67405        34.68905
E03  26056286.10806   -201515.60206      1598.99206        39.33306  26056315.48824   -149539.23024      1195.44824        27.20024
E05  22807334.21125    -64762.67825       536.01525        33.55325  22807359.09405    -47363.37005       400.77705        34.22505
E24  24725164.72505     79511.17405      -669.94905        31.64505  24725189.00805     58314.58705      -501.93405        29.56405
E25  24064144.83906   -282209.75006      1944.30406        36.90906  24064176.91706   -219421.87006      1451.78306        36.03506
> 2024 09 25 07 26 32.9995451  0 25                      
G10  20258552.09606    126425.01406      -777.90906        38.26806  20258572.18206     94426.20606      -580.31906        38.46406
G23  22158374.97614    416107.71914     -3123.31514        26.26414  22158399.55904    375261.50904     -2330.18404        25.75504
G25  20855192.75024    197861.42424     -1233.19524        29.12624  20855214.93524    156528.79924      -916.54224        26.25624
G26  22900533.69007   -417355.70607      3655.53907        43.09907  22900570.26506   -309521.29806      2730.52006        39.17706
G28  21217884.96426    -11503.99226       144.90226        35.56926  21217908.94725       970.75925       111.61325        33.46825
G31  22508406.35507   -280182.16607      1878.19407        41.64107                                                                
G32  21525338.91806   -168338.06606      1177.71306        39.74906  21525363.50125   -115271.38025       879.20725        29.86325
R12  19304342.38225    180062.77625     -1122.63125        30.42725
J02  37450445.59606     57148.43206      -292.53506        35.66806  37450472.87706     43257.43506      -218.05606        37.36806
J04  37310426.92915   -160445.56815      1131.51215        32.76515  37310453.61006   -109673.93106       846.62606        35.92106
J07  36502482.05814     -1272.78514       104.05114        29.29414  36502509.33906      8440.34306        79.05806        37.61706
C06  36693610.54205     63603.11605      -322.49505        34.74405                                                                
C09  37483306.14705     68317.08505      -354.97905        35.39305                                                                
C13  35825316.84925     91157.23125      -515.13325        34.76425                                                                
C23  21840158.17325     45653.83725      -233.30425        32.83825  21840177.06005     40861.85205      -173.06805        34.93505
C25  23828307.40625    391404.62025     -2514.80825        34.27125  23828327.19205    293778.89405     -1892.94505        33.14905
C32  23436975.71926   -353704.02426      2429.62826        39.36126  23436999.70325   -240096.33925      1830.16625        30.90925
C37  23962419.86207   3758267.24507      2307.84107        42.91107  23962458.83506   -255796.22706      1739.48006        38.31206
C38  36755761.71626   1545446.97526     -1123.33526        37.61926  36755789.59606    115213.52606      -844.18806        38.10206
C39  36826910.56006     59912.69306      -321.68406        37.62906  36826927.34905     44888.26705      -241.58905        29.93805
C41  22145294.13225     25946.38725      -105.78625        32.29725  22145329.80705     28424.82005       -76.21905        33.40005
E03  26056010.89926   -203115.31126      1598.81326        36.24026  26056039.37924   -150734.11624      1196.07524        28.21424
E05  22807261.36225    -65300.14125       538.70325        33.39025  22807287.44305    -47764.65405       402.86105        34.75005
E24  24725320.91724     80182.60824      -668.86624        28.94024  24725347.59804     58816.17404      -498.54604        28.73004
E25  24063806.37326   -284155.36426      1945.68026        36.66026  24063836.35306   -220874.73206      1454.26406        35.95106
> 2024 09 25 07 26 33.9995452  0 25                      
G10  20258723.57806    127199.57006      -772.21306        38.90006  20258749.65906     95004.60106      -576.36406        39.05806
G23  22158985.05424    419223.25824     -3115.85424        25.98224  22159024.32724    377589.31924     -2328.30424        23.80624
G25  20855454.17024    199101.28924     -1233.41724        27.22924  20855476.05424    157442.24624      -913.12424        28.16024
G26  22899867.85107   -421014.35607      3659.68307        43.83407  22899903.52706   -312253.36006      2732.73606        40.06806
G28  21217887.06226    -11657.33226       154.61326        38.04226  21217910.44605       856.41405       115.02505        34.82405
G31  22508076.28306   -282064.05706      1882.24306        40.95906                                                                
G32  21525150.04906   -169519.08306      1183.56706        39.05306  21525169.83505   -116149.03905       883.77905        31.77305
R12  19304577.11925    181182.05125     -1115.30925        32.10225
J02  37450534.63406     57437.85006      -285.81506        35.68906  37450557.71806     43473.63006      -213.51306        37.12306
J04  37310239.85825   -161584.16525      1139.39525        32.82325  37310266.84006   -110523.14506       851.53906        35.82506
J07  36502489.55225     -1382.56025       112.08225        30.59325  36502518.93206      8358.31006        84.48606        37.37206
C06  36693699.58025     63922.69225      -315.83825        33.64925                                                                
C09  37483401.78125     68670.09125      -353.48025        33.06625                                                                
C13  35825443.96125     91667.68625      -510.33725        33.51225                                                                
C23  21840234.92025     45887.68625      -227.57125        32.57925  21840251.10906     41032.84506      -169.49806        35.61206
C25  23828820.65125    393913.71625     -2509.57025        31.15525  23828838.03925    295669.59425     -1888.63025        30.31625
C32  23436534.72506   -356136.19606      2433.44206        38.88206  23436562.60505   -241929.99305      1833.67205        32.21405
C37  23962005.54907   3755956.72507      2311.45607        42.56907  23962046.32106   -257537.30306      1741.13606        39.75506
C38  36756003.64806   1546564.92806     -1115.51306        39.38906  36756033.92706    116055.64606      -840.35006        37.51706
C39  36826997.20026     60230.22826      -314.26726        36.40926  36827017.88605     45127.61505      -236.42805        29.94905
C41  22145341.79925     26046.11725       -99.40225        32.95525  22145378.37405     28499.80905       -71.84005        32.92805
E03  26055734.49026   -204718.44726      1602.47126        35.91226  26055764.47004   -151932.90604      1200.78004        26.08004
E05  22807188.51205    -65842.21805       545.61805        32.72205  22807213.99405    -48169.52905       406.85305        35.05005
E24  24725482.20505     80850.00005      -664.99305        30.44705  24725505.28904     59314.58904      -495.63604        29.29404
E25  24063463.11106   -286106.09706      1953.03206        38.89906  24063496.68806   -222331.43006      1458.06206        37.95906
> 2024 09 25 07 26 34.9995453  0 25                      
G10  20258901.35406    127973.58306      -772.87506        40.69706  20258925.93706     95582.67206      -577.25206        37.74806
G23  22159625.11124    422339.71924     -3110.41624        27.32624  22159647.89504    379916.66304     -2326.83104        25.95704
G25  20855713.49025    200324.51725     -1216.83325        30.56725  20855739.27205    158355.73105      -912.19705        31.06805
G26  22899202.91207   -424674.14407      3659.11807        43.59107  22899237.68806   -314986.31006      2732.76406        39.47506
G28  21217886.16326    -11815.09026       161.20426        36.00926  21217911.34605       740.91105       116.40405        33.96905
G31  22507754.90606   -283947.70306      1882.55806        38.49806                                                                
G32  21524953.68506   -170701.88906      1183.67506        40.30706  21524974.97005   -117032.55605       885.23305        31.71005
R12  19304819.05225    182298.87425     -1113.28425        31.16725
J02  37450612.28106     57725.98406      -287.46506        35.74006  37450642.26006     43688.78606      -214.31906        36.79406
J04  37310053.08815   -162722.62615      1143.23315        32.41215  37310079.46906   -111373.31706       850.89906        36.48106
J07  36502495.54825     -1493.76325       112.05425        31.50625  36502527.32606      8275.43006        83.59206        37.80806
C06  36693790.71726     64240.44926      -318.12026        35.63926                                                                
C09  37483498.61426     69020.73226      -351.63126        37.05726                                                                
C13  35825570.17426     92177.37626      -509.48626        36.31226                                                                
C23  21840306.27125     46113.11625      -221.02825        34.71725  21840324.25805     41202.88505      -169.04405        35.18105
C25  23829329.09925    396414.74725     -2504.39025        31.72625  23829350.08405    297558.66305     -1888.12905        30.45605
C32  23436100.32506   -358570.45406      2434.83906        40.31806  23436126.10805   -243764.46505      1836.14105        30.94105
C37  23961591.83507   3753645.26707      2310.56307        41.66807  23961631.10806   -259279.34206      1741.08506        39.69806
C38  36756250.97706   1547681.35306     -1116.10206        39.46206  36756277.05906    116896.96506      -840.94306        37.06306
C39  36827091.03526     60545.69026      -314.67026        37.23726  36827109.02305     45365.66605      -236.64005        29.93605
C41  22145396.36125     26144.61725       -96.74925        34.54425  22145427.24005     28574.20105       -73.45405        34.43105
E03  26055461.08006   -206325.52106      1606.53206        36.06406  26055488.96005   -153132.71905      1200.59205        31.19405
E05  22807117.16105    -66386.24405       545.69105        33.92405  22807139.34605    -48575.98805       408.06405        32.13205
E24  24725636.59805     81515.78605      -665.93805        33.09005  24725660.58105     59811.86405      -496.94105        31.38705
E25  24063122.54706   -288057.69606      1952.96906        38.36206  24063154.62506   -223788.82706      1457.99306        37.64006
